$GPGSV,3,1,12,03,80,296,26,26,36,099,24,01,25,210,,06,04,324,*7F
$GPGSV,3,2,12,07,01,223,,09,15,281,,11,04,203,,14,17,074,*7D
$GPGSV,3,3,12,16,27,135,,22,76,163,,23,48,300,,31,29,045,*7C
$GLGSV,3,1,10,80,15,195,22,85,09,309,21,67,07,115,21,68,52,082,20*6B
$GLGSV,3,2,10,78,53,043,,70,03,309,,77,02,025,,79,70,153,*6E
$GLGSV,3,3,10,69,52,340,,84,07,261,*65
$GPGSV,3,1,12,03,80,296,26,26,36,099,24,01,25,210,,06,04,324,*7F
$GPGSV,3,2,12,07,01,223,,09,15,281,,11,04,203,,14,17,074,*7D
$GPGSV,3,3,12,16,27,135,,22,76,163,,23,48,300,,31,29,045,*7C
$GLGSV,3,1,09,78,47,037,25,68,49,092,26,70,08,313,,80,22,198,*6B
$GLGSV,3,2,09,79,77,136,,69,57,347,,84,03,255,,85,07,303,*6D
$GLGSV,3,3,09,67,02,119,*56
$GPGSV,3,1,12,03,80,298,29,16,27,135,22,22,76,163,21,23,48,300,23*77
$GPGSV,3,2,12,26,36,099,22,31,29,045,22,01,25,210,,06,04,324,*70
$GPGSV,3,3,12,07,01,223,,09,15,281,,11,04,203,,14,17,074,*7C
$GLGSV,3,1,09,78,47,037,25,68,49,092,26,70,08,313,,80,22,198,*6B
$GLGSV,3,2,09,79,77,136,,69,57,347,,84,03,255,,85,07,303,*6D
$GLGSV,3,3,09,67,02,119,*56
$GPGSA,A,1,,,,,,,,,,,,,,,*1E
$GPVTG,,T,,M,,N,,K,N*2C
$GPRMC,,V,,,,,,,,,,N*53
$GPGGA,,,,,,0,,,,,,,,*66
$GPGSV,3,1,12,01,25,210,21,03,80,298,28,09,15,281,18,11,04,203,19*7E
$GPGSV,3,2,12,16,27,135,21,22,76,163,22,23,48,300,24,26,36,099,22*71
$GPGSV,3,3,12,31,29,045,21,06,04,324,,07,01,223,,14,17,074,*73
$GLGSV,3,1,09,78,47,037,18,79,77,136,21,69,57,347,20,68,49,092,27*64
$GLGSV,3,2,09,70,08,313,,80,22,198,,84,03,255,,85,07,303,*6C
$GLGSV,3,3,09,67,02,119,*56
$GPGSV,3,1,12,01,25,210,21,03,80,298,28,09,15,281,18,11,04,203,19*7E
$GPGSV,3,2,12,16,27,135,21,22,76,163,22,23,48,300,24,26,36,099,22*71
$GPGSV,3,3,12,31,29,045,21,06,04,324,,07,01,223,,14,17,074,*73
$GLGSV,3,1,09,78,47,037,18,79,77,136,21,69,57,347,20,68,49,092,27*64
$GLGSV,3,2,09,70,08,313,,80,22,198,,84,03,255,,85,07,303,*6C
$GLGSV,3,3,09,67,02,119,*56
$GPGSA,A,3,01,03,09,11,16,22,23,26,31,,,,1.1,0.8,0.8*39
$GPVTG,,T,,M,0.0,N,0.0,K,A*23
$GPRMC,004400,A,3721.140250,N,12156.217783,W,0.0,,011216,0.0,E,A*2E
$GPGGA,004400,3721.140250,N,12156.217783,W,1,09,0.8,14.0,M,-27.0,M,,*40
$GPGSV,3,1,12,01,25,210,20,03,80,298,21,09,15,281,16,11,04,203,19*78
$GPGSV,3,2,12,16,27,135,20,22,76,163,20,23,48,300,26,26,36,099,22*70
$GPGSV,3,3,12,31,29,045,20,06,04,324,,07,01,223,,14,17,074,*72
$GLGSV,3,1,09,78,47,037,25,80,22,198,18,79,77,136,24,69,57,347,19*69
$GLGSV,3,2,09,68,49,092,24,70,08,313,,84,03,255,,85,07,303,*6A
$GLGSV,3,3,09,67,02,119,*56
$GPGSV,3,1,12,01,25,210,20,03,80,298,21,09,15,281,16,11,04,203,19*78
$GPGSV,3,2,12,16,27,135,20,22,76,163,20,23,48,300,26,26,36,099,22*70
$GPGSV,3,3,12,31,29,045,20,06,04,324,,07,01,223,,14,17,074,*72
$GLGSV,3,1,09,78,47,037,25,80,22,198,18,79,77,136,24,69,57,347,19*69
$GLGSV,3,2,09,68,49,092,24,70,08,313,,84,03,255,,85,07,303,*6A
$GLGSV,3,3,09,67,02,119,*56
$GPGSA,A,3,01,03,09,11,16,22,23,26,31,,,,1.1,0.8,0.7*36
$GPVTG,,T,,M,0.0,N,0.0,K,A*23
$GPRMC,004401,A,3721.140426,N,12156.218766,W,0.0,,011216,0.0,E,A*2C
$GPGGA,004401,3721.140426,N,12156.218766,W,1,09,0.8,14.0,M,-27.0,M,,*42
$GPGSV,3,1,12,01,25,210,19,03,80,298,23,09,15,281,15,11,04,203,18*72
$GPGSV,3,2,12,16,27,135,19,22,76,163,19,23,48,300,28,26,36,099,23*7F
$GPGSV,3,3,12,31,29,045,17,06,04,324,,07,01,223,,14,17,074,*76
$GLGSV,3,1,09,78,47,037,17,70,08,313,19,80,22,198,16,79,77,136,22*63
$GLGSV,3,2,09,69,57,347,19,68,49,092,19,84,03,255,,85,07,303,*6F
$GLGSV,3,3,09,67,02,119,*56
$GPGSV,3,1,12,01,25,210,19,03,80,298,23,09,15,281,15,11,04,203,18*72
$GPGSV,3,2,12,16,27,135,19,22,76,163,19,23,48,300,28,26,36,099,23*7F
$GPGSV,3,3,12,31,29,045,17,06,04,324,,07,01,223,,14,17,074,*76
$GLGSV,3,1,09,78,47,037,17,70,08,313,19,80,22,198,16,79,77,136,22*63
$GLGSV,3,2,09,69,57,347,19,68,49,092,19,84,03,255,,85,07,303,*6F
$GLGSV,3,3,09,67,02,119,*56
$GPGSA,A,3,01,03,09,11,16,22,23,26,31,,,,1.1,0.8,0.7*36
$GPVTG,,T,,M,0.0,N,0.0,K,A*23
$GPRMC,004402,A,3721.139023,N,12156.223065,W,0.0,,011216,0.0,E,A*2C
$GPGGA,004402,3721.139023,N,12156.223065,W,1,09,0.8,8.0,M,-27.0,M,,*7F
$GPGSV,3,1,12,01,25,210,19,03,80,298,18,09,15,281,15,11,04,203,17*75
$GPGSV,3,2,12,16,27,135,19,22,76,163,18,23,48,300,25,26,36,099,24*74
$GPGSV,3,3,12,31,29,045,17,06,04,324,,07,01,223,,14,17,074,*76
$GLGSV,3,1,09,78,47,037,21,70,08,313,17,80,22,198,15,79,77,136,22*6B
$GLGSV,3,2,09,69,57,347,18,68,49,092,22,84,03,255,,85,07,302,*67
$GLGSV,3,3,09,67,02,119,*56
$GPGSV,3,1,12,01,25,210,19,03,80,298,18,09,15,281,15,11,04,203,17*75
$GPGSV,3,2,12,16,27,135,19,22,76,163,18,23,48,300,25,26,36,099,24*74
$GPGSV,3,3,12,31,29,045,17,06,04,324,,07,01,223,,14,17,074,*76
$GLGSV,3,1,09,78,47,037,21,70,08,313,17,80,22,198,15,79,77,136,22*6B
$GLGSV,3,2,09,69,57,347,18,68,49,092,22,84,03,255,,85,07,302,*67
$GLGSV,3,3,09,67,02,119,*56
$GPGSA,A,3,01,03,09,11,16,22,23,26,31,,,,1.1,0.8,0.7*36
$GPVTG,,T,,M,0.0,N,0.0,K,A*23
$GPRMC,004403,A,3721.141459,N,12156.221470,W,0.0,,011216,0.0,E,A*29
$GPGGA,004403,3721.141459,N,12156.221470,W,1,09,0.8,12.0,M,-27.0,M,,*41
$GPGSV,3,1,12,01,25,210,19,03,80,298,20,09,15,281,15,11,04,203,16*7F
$GPGSV,3,2,12,16,27,135,18,22,76,163,18,23,48,300,26,26,36,099,16*77
$GPGSV,3,3,12,31,29,045,15,06,04,324,,07,01,223,,14,17,074,*74
$GLGSV,3,1,09,78,47,037,19,70,08,313,16,80,22,198,15,79,77,136,22*61
$GLGSV,3,2,09,69,57,347,17,68,49,092,22,84,03,255,,85,07,302,*68
$GLGSV,3,3,09,67,02,119,*56
$GPGSV,3,1,12,01,25,210,19,03,80,298,20,09,15,281,15,11,04,203,16*7F
$GPGSV,3,2,12,16,27,135,18,22,76,163,18,23,48,300,26,26,36,099,16*77
$GPGSV,3,3,12,31,29,045,15,06,04,324,,07,01,223,,14,17,074,*74
$GLGSV,3,1,09,78,47,037,19,70,08,313,16,80,22,198,15,79,77,136,22*61
$GLGSV,3,2,09,69,57,347,17,68,49,092,22,84,03,255,,85,07,302,*68
$GLGSV,3,3,09,67,02,119,*56
$GPGSA,A,3,01,03,09,11,16,22,23,26,31,,,,1.1,0.8,0.7*36
$GPVTG,,T,,M,0.0,N,0.0,K,A*23
$GPRMC,004404,A,3721.142672,N,12156.222016,W,0.0,,011216,0.0,E,A*21
$GPGGA,004404,3721.142672,N,12156.222016,W,1,09,0.8,16.0,M,-27.0,M,,*4D
$GPGSV,3,1,12,01,25,210,18,03,80,298,19,09,15,281,15,11,04,203,16*74
$GPGSV,3,2,12,16,27,135,18,22,76,163,19,23,48,300,31,26,36,099,21*74
$GPGSV,3,3,12,31,29,045,22,06,04,324,,07,01,223,,14,17,074,*70
$GLGSV,3,1,09,78,47,037,19,70,08,313,15,80,22,198,15,79,77,136,22*62
$GLGSV,3,2,09,69,57,347,18,68,49,092,22,84,03,255,,85,07,302,*67
$GLGSV,3,3,09,67,02,119,*56
$GPGSV,3,1,12,01,25,210,18,03,80,298,19,09,15,281,15,11,04,203,16*74
$GPGSV,3,2,12,16,27,135,18,22,76,163,19,23,48,300,31,26,36,099,21*74
$GPGSV,3,3,12,31,29,045,22,06,04,324,,07,01,223,,14,17,074,*70
$GLGSV,3,1,09,78,47,037,19,70,08,313,15,80,22,198,15,79,77,136,22*62
$GLGSV,3,2,09,69,57,347,18,68,49,092,22,84,03,255,,85,07,302,*67
$GLGSV,3,3,09,67,02,119,*56
$GPGSA,A,3,01,03,09,11,16,22,23,26,31,,,,1.0,0.8,0.7*37
$GPVTG,,T,,M,0.0,N,0.0,K,A*23
$GPRMC,004405,A,3721.141914,N,12156.223307,W,0.0,,011216,0.0,E,A*2E
$GPGGA,004405,3721.141914,N,12156.223307,W,1,09,0.8,14.0,M,-27.0,M,,*40
$GPGSV,3,1,12,01,25,210,18,03,80,298,25,09,15,281,15,11,04,203,15*78
$GPGSV,3,2,12,16,27,135,18,22,76,163,19,23,48,300,27,26,36,099,18*79
$GPGSV,3,3,12,31,29,045,23,06,04,324,,07,01,223,,14,17,074,*71
$GLGSV,3,1,09,78,47,037,19,70,08,313,15,80,22,198,14,79,77,136,21*60
$GLGSV,3,2,09,69,57,347,19,85,07,302,14,68,49,092,21,84,03,255,*60
$GLGSV,3,3,09,67,02,119,*56
$GPGSV,3,1,12,01,25,210,18,03,80,298,25,09,15,281,15,11,04,203,15*78
$GPGSV,3,2,12,16,27,135,18,22,76,163,19,23,48,300,27,26,36,099,18*79
$GPGSV,3,3,12,31,29,045,23,06,04,324,,07,01,223,,14,17,074,*71
$GLGSV,3,1,09,78,47,037,19,70,08,313,15,80,22,198,14,79,77,136,21*60
$GLGSV,3,2,09,69,57,347,19,85,07,302,14,68,49,092,21,84,03,255,*60
$GLGSV,3,3,09,67,02,119,*56
$GPGSA,A,3,01,03,09,11,16,22,23,26,31,,,,1.0,0.8,0.7*37
$GPVTG,,T,,M,0.0,N,0.0,K,A*23
$GPRMC,004406,A,3721.141465,N,12156.225030,W,0.0,,011216,0.0,E,A*27
$GPGGA,004406,3721.141465,N,12156.225030,W,1,09,0.8,10.0,M,-27.0,M,,*4D
$GPGSV,3,1,12,01,25,210,17,03,80,298,31,09,15,281,15,11,04,203,15*72
$GPGSV,3,2,12,16,27,135,18,22,76,163,19,23,48,300,31,26,36,099,22*77
$GPGSV,3,3,12,31,29,045,27,06,04,324,,07,01,223,,14,17,074,*75
$GLGSV,3,1,09,78,47,037,18,70,08,313,14,80,22,198,15,79,77,136,21*61
$GLGSV,3,2,09,69,57,347,18,85,07,302,13,68,49,092,25,84,03,255,*62
$GLGSV,3,3,09,67,02,119,*56
$GPGSV,3,1,12,01,25,210,17,03,80,298,31,09,15,281,15,11,04,203,15*72
$GPGSV,3,2,12,16,27,135,18,22,76,163,19,23,48,300,31,26,36,099,22*77
$GPGSV,3,3,12,31,29,045,27,06,04,324,,07,01,223,,14,17,074,*75
$GLGSV,3,1,09,78,47,037,18,70,08,313,14,80,22,198,15,79,77,136,21*61
$GLGSV,3,2,09,69,57,347,18,85,07,302,13,68,49,092,25,84,03,255,*62
$GLGSV,3,3,09,67,02,119,*56
$GPGSA,A,3,01,03,09,11,16,22,23,26,31,,,,1.0,0.8,0.7*37
$GPVTG,229.1,T,229.1,M,9.2,N,17.1,K,A*1F
$GPRMC,004407,A,3721.140460,N,12156.226485,W,9.2,229.1,011216,0.0,E,A*06
$GPGGA,004407,3721.140460,N,12156.226485,W,1,09,0.8,10.0,M,-27.0,M,,*41
$GPGSV,3,1,12,01,25,210,17,03,80,298,25,09,15,281,18,11,04,203,14*7B
$GPGSV,3,2,12,14,17,074,13,16,27,135,24,22,76,163,14,23,48,300,29*7F
$GPGSV,3,3,12,26,36,099,20,31,29,045,20,06,04,324,,07,01,223,*71
$GLGSV,3,1,09,78,47,037,21,70,08,313,13,80,22,198,14,79,77,136,17*68
$GLGSV,3,2,09,69,57,347,18,85,07,302,13,68,49,092,27,84,03,255,*60
$GLGSV,3,3,09,67,02,119,*56
$GPGSV,3,1,12,01,25,210,17,03,80,298,25,09,15,281,18,11,04,203,14*7B
$GPGSV,3,2,12,14,17,074,13,16,27,135,24,22,76,163,14,23,48,300,29*7F
$GPGSV,3,3,12,26,36,099,20,31,29,045,20,06,04,324,,07,01,223,*71
$GLGSV,3,1,09,78,47,037,21,70,08,313,13,80,22,198,14,79,77,136,17*68
$GLGSV,3,2,09,69,57,347,18,85,07,302,13,68,49,092,27,84,03,255,*60
$GLGSV,3,3,09,67,02,119,*56
$GPGSA,A,3,01,03,09,11,14,16,22,23,26,31,,,1.0,0.7,0.7*3D
$GPVTG,245.9,T,245.9,M,9.7,N,18.0,K,A*14
$GPRMC,004408,A,3721.142811,N,12156.231501,W,9.7,245.9,011216,0.0,E,A*0D
$GPGGA,004408,3721.142811,N,12156.231501,W,1,10,0.7,11.0,M,-27.0,M,,*4B
$GPGSV,3,1,12,01,25,210,16,03,80,298,25,09,15,281,18,11,04,203,15*7B
$GPGSV,3,2,12,14,17,074,13,16,27,135,24,22,76,163,18,23,48,300,24*7E
$GPGSV,3,3,12,26,36,099,22,31,29,045,24,06,04,324,,07,01,223,*77
$GLGSV,3,1,09,78,47,037,19,70,08,313,13,80,22,198,14,79,77,136,17*63
$GLGSV,3,2,09,69,57,347,17,85,07,302,16,68,49,092,28,84,03,255,*65
$GLGSV,3,3,09,67,02,119,*56
$GPGSV,3,1,12,01,25,210,16,03,80,298,25,09,15,281,18,11,04,203,15*7B
$GPGSV,3,2,12,14,17,074,13,16,27,135,24,22,76,163,18,23,48,300,24*7E
$GPGSV,3,3,12,26,36,099,22,31,29,045,24,06,04,324,,07,01,223,*77
$GLGSV,3,1,09,78,47,037,19,70,08,313,13,80,22,198,14,79,77,136,17*63
$GLGSV,3,2,09,69,57,347,17,85,07,302,16,68,49,092,28,84,03,255,*65
$GLGSV,3,3,09,67,02,119,*56
$GPGSA,A,3,01,03,09,11,14,16,22,23,26,31,,,1.0,0.7,0.7*3D
$GPVTG,305.3,T,305.3,M,11.2,N,20.7,K,A*24
$GPRMC,004409,A,3721.146698,N,12156.235328,W,11.2,305.3,011216,0.0,E,A*3D
$GPGGA,004409,3721.146698,N,12156.235328,W,1,10,0.7,10.0,M,-27.0,M,,*49
$GPGSV,3,1,12,01,25,210,17,03,80,296,17,09,15,281,21,11,04,203,15*7F
$GPGSV,3,2,12,14,17,074,13,16,27,135,24,22,76,163,18,23,49,300,18*70
$GPGSV,3,3,12,26,36,099,23,31,29,045,20,06,04,324,,07,01,223,*72
$GLGSV,3,1,09,78,47,037,20,70,08,313,14,80,22,198,15,79,77,136,16*6E
$GLGSV,3,2,09,69,57,347,25,85,07,302,17,68,49,092,24,84,03,255,*69
$GLGSV,3,3,09,67,02,119,*56
$GPGSV,3,1,12,01,25,210,17,03,80,296,17,09,15,281,21,11,04,203,15*7F
$GPGSV,3,2,12,14,17,074,13,16,27,135,24,22,76,163,18,23,49,300,18*70
$GPGSV,3,3,12,26,36,099,23,31,29,045,20,06,04,324,,07,01,223,*72
$GLGSV,3,1,09,78,47,037,20,70,08,313,14,80,22,198,15,79,77,136,16*6E
$GLGSV,3,2,09,69,57,347,25,85,07,302,17,68,49,092,24,84,03,255,*69
$GLGSV,3,3,09,67,02,119,*56
$GPGSA,A,3,01,03,09,11,14,16,22,23,26,31,,,1.0,0.7,0.7*3D
$GPVTG,312.7,T,312.7,M,14.6,N,27.0,K,A*25
$GPRMC,004410,A,3721.148503,N,12156.241299,W,14.6,312.7,011216,0.0,E,A*31
$GPGGA,004410,3721.148503,N,12156.241299,W,1,10,0.7,4.0,M,-27.0,M,,*73
$GPGSV,3,1,12,01,25,210,19,03,80,296,19,09,15,281,21,11,04,203,15*7F
$GPGSV,3,2,12,14,17,074,13,16,27,135,17,22,76,163,15,23,49,300,20*76
$GPGSV,3,3,12,26,36,099,29,31,29,045,20,06,04,324,,07,01,223,*78
$GLGSV,3,1,09,78,47,037,20,70,08,313,14,80,22,198,15,79,77,136,16*6E
$GLGSV,3,2,09,69,57,347,25,85,07,302,16,68,49,094,28,84,03,255,*62
$GLGSV,3,3,09,67,02,119,*56
$GPGSV,3,1,12,01,25,210,19,03,80,296,19,09,15,281,21,11,04,203,15*7F
$GPGSV,3,2,12,14,17,074,13,16,27,135,17,22,76,163,15,23,49,300,20*76
$GPGSV,3,3,12,26,36,099,29,31,29,045,20,06,04,324,,07,01,223,*78
$GLGSV,3,1,09,78,47,037,20,70,08,313,14,80,22,198,15,79,77,136,16*6E
$GLGSV,3,2,09,69,57,347,25,85,07,302,16,68,49,094,28,84,03,255,*62
$GLGSV,3,3,09,67,02,119,*56
$GPGSA,A,3,01,03,09,11,14,16,22,23,26,31,,,1.0,0.7,0.7*3D
$GPVTG,321.1,T,321.1,M,17.5,N,32.4,K,A*25
$GPRMC,004411,A,3721.152015,N,12156.246118,W,17.5,321.1,011216,0.0,E,A*32
$GPGGA,004411,3721.152015,N,12156.246118,W,1,10,0.7,8.0,M,-27.0,M,,*7A
$GPGSV,3,1,12,01,25,210,19,03,80,296,19,09,15,281,19,11,04,203,17*76
$GPGSV,3,2,12,14,17,074,13,16,27,135,17,22,76,163,15,23,49,300,22*74
$GPGSV,3,3,12,26,36,099,30,31,29,045,16,06,04,324,,07,01,223,*75
$GLGSV,3,1,09,78,47,037,20,70,08,313,19,80,22,198,21,79,77,136,16*64
$GLGSV,3,2,09,69,57,347,27,85,07,302,23,68,49,094,30,84,03,255,*6F
$GLGSV,3,3,09,67,02,119,*56
$GPGSV,3,1,12,01,25,210,19,03,80,296,19,09,15,281,19,11,04,203,17*76
$GPGSV,3,2,12,14,17,074,13,16,27,135,17,22,76,163,15,23,49,300,22*74
$GPGSV,3,3,12,26,36,099,30,31,29,045,16,06,04,324,,07,01,223,*75
$GLGSV,3,1,09,78,47,037,20,70,08,313,19,80,22,198,21,79,77,136,16*64
$GLGSV,3,2,09,69,57,347,27,85,07,302,23,68,49,094,30,84,03,255,*6F
$GLGSV,3,3,09,67,02,119,*56
$GPGSA,A,3,01,03,09,11,14,16,22,23,26,31,,,1.0,0.7,0.7*3D
$GPVTG,324.0,T,324.0,M,19.9,N,36.9,K,A*2E
$GPRMC,004412,A,3721.157552,N,12156.250415,W,19.9,324.0,011216,0.0,E,A*3B
$GPGGA,004412,3721.157552,N,12156.250415,W,1,10,0.7,4.0,M,-27.0,M,,*79
$GPGSV,3,1,12,01,25,210,19,03,80,296,19,09,15,281,19,11,04,203,17*76
$GPGSV,3,2,12,14,17,074,15,16,27,135,18,22,76,163,16,23,49,300,22*7E
$GPGSV,3,3,12,26,36,099,25,31,29,045,17,06,04,324,,07,01,223,*70
$GLGSV,3,1,09,78,47,037,20,70,08,313,19,80,22,198,19,79,77,136,16*6F
$GLGSV,3,2,09,69,57,347,27,85,07,302,20,68,49,094,28,84,03,255,*65
$GLGSV,3,3,09,67,02,119,*56
$GPGSV,3,1,12,01,25,210,19,03,80,296,19,09,15,281,19,11,04,203,17*76
$GPGSV,3,2,12,14,17,074,15,16,27,135,18,22,76,163,16,23,49,300,22*7E
$GPGSV,3,3,12,26,36,099,25,31,29,045,17,06,04,324,,07,01,223,*70
$GLGSV,3,1,09,78,47,037,20,70,08,313,19,80,22,198,19,79,77,136,16*6F
$GLGSV,3,2,09,69,57,347,27,85,07,302,20,68,49,094,28,84,03,255,*65
$GLGSV,3,3,09,67,02,119,*56
$GPGSA,A,3,01,03,09,11,14,16,22,23,26,31,,,1.0,0.7,0.7*3D
$GPVTG,317.3,T,317.3,M,20.9,N,38.7,K,A*24
$GPRMC,004413,A,3721.160889,N,12156.254669,W,20.9,317.3,011216,0.0,E,A*31
$GPGGA,004413,3721.160889,N,12156.254669,W,1,10,0.7,6.0,M,-27.0,M,,*78
$GPGSV,3,1,12,01,25,210,17,03,80,296,19,09,15,281,18,11,04,203,17*79
$GPGSV,3,2,12,14,17,074,18,16,27,135,23,22,76,163,22,23,49,300,25*7B
$GPGSV,3,3,12,26,36,099,26,31,29,045,18,06,04,324,,07,01,223,*7C
$GLGSV,3,1,09,78,47,037,14,70,08,313,18,80,22,198,18,79,77,136,16*68
$GLGSV,3,2,09,69,57,347,28,85,07,302,24,68,49,094,29,84,03,255,*6F
$GLGSV,3,3,09,67,02,119,*56
$GPGSV,3,1,12,01,25,210,17,03,80,296,19,09,15,281,18,11,04,203,17*79
$GPGSV,3,2,12,14,17,074,18,16,27,135,23,22,76,163,22,23,49,300,25*7B
$GPGSV,3,3,12,26,36,099,26,31,29,045,18,06,04,324,,07,01,223,*7C
$GLGSV,3,1,09,78,47,037,14,70,08,313,18,80,22,198,18,79,77,136,16*68
$GLGSV,3,2,09,69,57,347,28,85,07,302,24,68,49,094,29,84,03,255,*6F
$GLGSV,3,3,09,67,02,119,*56
$GPGSA,A,3,01,03,09,11,14,16,22,23,26,31,,,1.0,0.7,0.7*3D
$GPVTG,318.0,T,318.0,M,21.4,N,39.6,K,A*28
$GPRMC,004414,A,3721.164848,N,12156.260097,W,21.4,318.0,011216,0.0,E,A*3F
$GPGGA,004414,3721.164848,N,12156.260097,W,1,10,0.7,7.0,M,-27.0,M,,*77
$GPGSV,3,1,12,01,25,210,17,03,80,296,19,09,15,281,19,11,04,203,16*79
$GPGSV,3,2,12,14,17,074,18,16,27,135,23,22,76,163,22,23,49,300,20*7E
$GPGSV,3,3,12,26,36,099,21,31,29,045,17,06,04,324,,07,01,223,*74
$GLGSV,3,1,09,78,47,037,19,70,08,313,18,80,22,198,21,79,77,136,16*6F
$GLGSV,3,2,09,69,57,347,28,85,07,302,24,68,49,094,32,84,03,255,*65
$GLGSV,3,3,09,67,02,119,*56
$GPGSV,3,1,12,01,25,210,17,03,80,296,19,09,15,281,19,11,04,203,16*79
$GPGSV,3,2,12,14,17,074,18,16,27,135,23,22,76,163,22,23,49,300,20*7E
$GPGSV,3,3,12,26,36,099,21,31,29,045,17,06,04,324,,07,01,223,*74
$GLGSV,3,1,09,78,47,037,19,70,08,313,18,80,22,198,21,79,77,136,16*6F
$GLGSV,3,2,09,69,57,347,28,85,07,302,24,68,49,094,32,84,03,255,*65
$GLGSV,3,3,09,67,02,119,*56
$GPGSA,A,3,01,03,09,11,14,16,22,23,26,31,,,1.0,0.7,0.7*3D
$GPVTG,316.6,T,316.6,M,22.4,N,41.4,K,A*26
$GPRMC,004415,A,3721.169564,N,12156.265397,W,22.4,316.6,011216,0.0,E,A*3D
$GPGGA,004415,3721.169564,N,12156.265397,W,1,10,0.7,8.0,M,-27.0,M,,*71
$GPGSV,3,1,12,01,25,210,17,03,80,296,13,09,15,281,17,11,04,203,16*7D
$GPGSV,3,2,12,14,17,074,18,16,27,135,16,22,76,163,17,23,49,300,24*7A
$GPGSV,3,3,12,26,36,099,22,31,29,045,17,06,04,324,,07,01,223,*77
$GLGSV,3,1,09,78,47,037,19,70,08,313,18,80,22,198,20,79,77,136,16*6E
$GLGSV,3,2,09,69,57,347,25,85,07,302,21,68,49,094,27,84,03,255,*69
$GLGSV,3,3,09,67,02,119,*56
$GPGSV,3,1,12,01,25,210,17,03,80,296,13,09,15,281,17,11,04,203,16*7D
$GPGSV,3,2,12,14,17,074,18,16,27,135,16,22,76,163,17,23,49,300,24*7A
$GPGSV,3,3,12,26,36,099,22,31,29,045,17,06,04,324,,07,01,223,*77
$GLGSV,3,1,09,78,47,037,19,70,08,313,18,80,22,198,20,79,77,136,16*6E
$GLGSV,3,2,09,69,57,347,25,85,07,302,21,68,49,094,27,84,03,255,*69
$GLGSV,3,3,09,67,02,119,*56
$GPGSA,A,3,01,03,09,11,14,16,22,23,26,31,,,1.0,0.7,0.7*3D
$GPVTG,317.0,T,317.0,M,22.8,N,42.3,K,A*2E
$GPRMC,004416,A,3721.173748,N,12156.271358,W,22.8,317.0,011216,0.0,E,A*34
$GPGGA,004416,3721.173748,N,12156.271358,W,1,10,0.7,8.0,M,-27.0,M,,*73
$GPGSV,3,1,12,01,25,210,17,03,80,296,13,09,15,281,20,11,04,203,16*79
$GPGSV,3,2,12,14,17,074,18,16,27,135,19,22,76,163,17,23,49,300,24*75
$GPGSV,3,3,12,26,36,099,23,31,29,045,17,06,04,324,,07,01,223,*76
$GLGSV,3,1,09,78,47,037,15,70,08,313,17,80,22,198,22,79,77,136,16*6F
$GLGSV,3,2,09,69,57,347,25,85,07,302,25,68,49,094,29,84,03,255,*63
$GLGSV,3,3,09,67,02,119,*56
$GPGSV,3,1,12,01,25,210,17,03,80,296,13,09,15,281,20,11,04,203,16*79
$GPGSV,3,2,12,14,17,074,18,16,27,135,19,22,76,163,17,23,49,300,24*75
$GPGSV,3,3,12,26,36,099,23,31,29,045,17,06,04,324,,07,01,223,*76
$GLGSV,3,1,09,78,47,037,15,70,08,313,17,80,22,198,22,79,77,136,16*6F
$GLGSV,3,2,09,69,57,347,25,85,07,302,25,68,49,094,29,84,03,255,*63
$GLGSV,3,3,09,67,02,119,*56
$GPGSA,A,3,01,03,09,11,14,16,22,23,26,31,,,1.0,0.7,0.7*3D
$GPVTG,314.6,T,314.6,M,23.3,N,43.2,K,A*24
$GPRMC,004417,A,3721.178505,N,12156.277161,W,23.3,314.6,011216,0.0,E,A*34
$GPGGA,004417,3721.178505,N,12156.277161,W,1,10,0.7,8.0,M,-27.0,M,,*7C
$GPGSV,3,1,12,01,25,210,17,03,80,296,13,09,15,281,20,11,04,203,16*79
$GPGSV,3,2,12,14,17,074,18,16,27,135,19,22,76,163,15,23,49,300,25*76
$GPGSV,3,3,12,26,36,099,21,31,29,045,17,06,04,324,,07,01,223,*74
$GLGSV,3,1,09,78,47,037,15,70,08,313,17,80,22,198,18,79,77,136,16*66
$GLGSV,3,2,09,69,57,347,24,85,07,302,25,68,49,094,28,84,03,255,*63
$GLGSV,3,3,09,67,02,119,*56
$GPGSV,3,1,12,01,25,210,17,03,80,296,13,09,15,281,20,11,04,203,16*79
$GPGSV,3,2,12,14,17,074,18,16,27,135,19,22,76,163,15,23,49,300,25*76
$GPGSV,3,3,12,26,36,099,21,31,29,045,17,06,04,324,,07,01,223,*74
$GLGSV,3,1,09,78,47,037,15,70,08,313,17,80,22,198,18,79,77,136,16*66
$GLGSV,3,2,09,69,57,347,24,85,07,302,25,68,49,094,28,84,03,255,*63
$GLGSV,3,3,09,67,02,119,*56
$GPGSA,A,3,01,03,09,11,14,16,22,23,26,31,,,1.0,0.7,0.7*3D
$GPVTG,313.8,T,313.8,M,22.8,N,42.3,K,A*2E
$GPRMC,004418,A,3721.183941,N,12156.283515,W,22.8,313.8,011216,0.0,E,A*3C
$GPGGA,004418,3721.183941,N,12156.283515,W,1,10,0.7,10.0,M,-27.0,M,,*4E
$GPGSV,3,1,12,01,25,210,17,03,80,296,13,09,15,281,20,11,04,203,16*79
$GPGSV,3,2,12,14,17,074,18,16,27,135,19,22,76,163,15,23,49,300,24*77
$GPGSV,3,3,12,26,36,099,19,31,29,045,17,06,04,324,,07,01,223,*7F
$GLGSV,3,1,09,78,47,037,16,70,08,313,16,80,22,198,19,79,77,136,16*65
$GLGSV,3,2,09,69,57,347,28,85,07,302,24,68,49,094,25,84,03,255,*63
$GLGSV,3,3,09,67,02,119,*56
$GPGSV,3,1,12,01,25,210,17,03,80,296,13,09,15,281,20,11,04,203,16*79
$GPGSV,3,2,12,14,17,074,18,16,27,135,19,22,76,163,15,23,49,300,24*77
$GPGSV,3,3,12,26,36,099,19,31,29,045,17,06,04,324,,07,01,223,*7F
$GLGSV,3,1,09,78,47,037,16,70,08,313,16,80,22,198,19,79,77,136,16*65
$GLGSV,3,2,09,69,57,347,28,85,07,302,24,68,49,094,25,84,03,255,*63
$GLGSV,3,3,09,67,02,119,*56
$GPGSA,A,3,01,03,09,11,14,16,22,23,26,31,,,1.0,0.7,0.7*3D
$GPVTG,310.6,T,310.6,M,24.3,N,45.0,K,A*27
$GPRMC,004419,A,3721.187903,N,12156.290276,W,24.3,310.6,011216,0.0,E,A*3F
$GPGGA,004419,3721.187903,N,12156.290276,W,1,10,0.7,10.0,M,-27.0,M,,*4D
$GPGSV,3,1,12,01,25,210,16,03,80,296,13,09,15,281,20,11,04,203,16*78
$GPGSV,3,2,12,14,17,074,13,16,27,135,19,22,76,163,15,23,49,300,24*7C
$GPGSV,3,3,12,26,36,099,18,31,29,045,15,06,04,324,,07,01,223,*7C
$GLGSV,3,1,09,78,47,037,19,70,08,313,16,80,22,198,19,79,77,136,16*6A
$GLGSV,3,2,09,69,57,347,27,85,07,302,22,68,49,094,17,84,03,255,*6B
$GLGSV,3,3,09,67,02,119,*56
$GPGSV,3,1,12,01,25,210,16,03,80,296,13,09,15,281,20,11,04,203,16*78
$GPGSV,3,2,12,14,17,074,13,16,27,135,19,22,76,163,15,23,49,300,24*7C
$GPGSV,3,3,12,26,36,099,18,31,29,045,15,06,04,324,,07,01,223,*7C
$GLGSV,3,1,09,78,47,037,19,70,08,313,16,80,22,198,19,79,77,136,16*6A
$GLGSV,3,2,09,69,57,347,27,85,07,302,22,68,49,094,17,84,03,255,*6B
$GLGSV,3,3,09,67,02,119,*56
$GPGSA,A,3,01,03,09,11,14,16,22,23,26,31,,,1.0,0.7,0.7*3D
$GPVTG,307.0,T,307.0,M,23.8,N,44.1,K,A*2B
$GPRMC,004420,A,3721.191812,N,12156.296638,W,23.8,307.0,011216,0.0,E,A*37
$GPGGA,004420,3721.191812,N,12156.296638,W,1,10,0.7,9.0,M,-27.0,M,,*71
$GPGSV,3,1,12,01,25,210,21,03,80,296,13,09,15,281,20,11,04,203,16*7C
$GPGSV,3,2,12,14,17,074,19,16,27,135,19,22,76,163,17,23,49,300,16*75
$GPGSV,3,3,12,26,36,099,24,31,29,045,21,06,04,324,,07,01,223,*74
$GLGSV,3,1,09,78,47,037,17,70,08,313,17,80,22,198,19,79,77,136,16*65
$GLGSV,3,2,09,69,57,347,27,85,07,302,22,68,49,094,24,84,03,255,*6B
$GLGSV,3,3,09,67,02,119,*56
$GPGSV,3,1,12,01,25,210,21,03,80,296,13,09,15,281,20,11,04,203,16*7C
$GPGSV,3,2,12,14,17,074,19,16,27,135,19,22,76,163,17,23,49,300,16*75
$GPGSV,3,3,12,26,36,099,24,31,29,045,21,06,04,324,,07,01,223,*74
$GLGSV,3,1,09,78,47,037,17,70,08,313,17,80,22,198,19,79,77,136,16*65
$GLGSV,3,2,09,69,57,347,27,85,07,302,22,68,49,094,24,84,03,255,*6B
$GLGSV,3,3,09,67,02,119,*56
$GPGSA,A,3,01,03,09,11,14,16,22,23,26,31,,,1.0,0.7,0.7*3D
$GPVTG,306.0,T,306.0,M,24.8,N,45.9,K,A*25
$GPRMC,004421,A,3721.197395,N,12156.303849,W,24.8,306.0,011216,0.0,E,A*37
$GPGGA,004421,3721.197395,N,12156.303849,W,1,10,0.7,9.0,M,-27.0,M,,*77
$GPGSV,3,1,12,01,25,210,27,03,80,296,13,09,15,281,13,11,04,203,16*7A
$GPGSV,3,2,12,14,17,074,18,16,27,135,19,22,76,163,24,23,49,300,21*70
$GPGSV,3,3,12,26,36,099,21,31,29,045,22,06,04,324,,07,01,223,*72
$GLGSV,3,1,09,78,47,037,18,70,08,313,17,80,22,198,19,79,77,136,08*65
$GLGSV,3,2,09,69,57,347,28,85,07,302,18,68,49,094,27,84,03,255,*6E
$GLGSV,3,3,09,67,02,119,*56
$GPGSV,3,1,12,01,25,210,27,03,80,296,13,09,15,281,13,11,04,203,16*7A
$GPGSV,3,2,12,14,17,074,18,16,27,135,19,22,76,163,24,23,49,300,21*70
$GPGSV,3,3,12,26,36,099,21,31,29,045,22,06,04,324,,07,01,223,*72
$GLGSV,3,1,09,78,47,037,18,70,08,313,17,80,22,198,19,79,77,136,08*65
$GLGSV,3,2,09,69,57,347,28,85,07,302,18,68,49,094,27,84,03,255,*6E
$GLGSV,3,3,09,67,02,119,*56
$GPGSA,A,3,01,03,09,11,14,16,22,23,26,31,,,1.1,0.8,0.7*33
$GPVTG,307.9,T,307.9,M,26.2,N,48.6,K,A*2F
$GPRMC,004422,A,3721.201333,N,12156.313265,W,26.2,307.9,011216,0.0,E,A*31
$GPGGA,004422,3721.201333,N,12156.313265,W,1,10,0.8,7.0,M,-27.0,M,,*70
$GPGSV,3,1,12,01,25,210,26,03,80,296,16,09,15,281,13,11,04,203,16*7E
$GPGSV,3,2,12,14,17,074,18,16,27,135,13,22,76,163,22,23,49,300,23*7E
$GPGSV,3,3,12,26,36,099,23,31,29,045,19,06,04,324,,07,01,223,*78
$GLGSV,3,1,09,78,47,037,18,70,08,313,17,80,22,198,15,79,77,136,18*68
$GLGSV,3,2,09,69,57,347,28,85,07,302,20,68,49,094,24,84,03,255,*66
$GLGSV,3,3,09,67,02,119,*56
$GPGSV,3,1,12,01,25,210,26,03,80,296,16,09,15,281,13,11,04,203,16*7E
$GPGSV,3,2,12,14,17,074,18,16,27,135,13,22,76,163,22,23,49,300,23*7E
$GPGSV,3,3,12,26,36,099,23,31,29,045,19,06,04,324,,07,01,223,*78
$GLGSV,3,1,09,78,47,037,18,70,08,313,17,80,22,198,15,79,77,136,18*68
$GLGSV,3,2,09,69,57,347,28,85,07,302,20,68,49,094,24,84,03,255,*66
$GLGSV,3,3,09,67,02,119,*56
$GPGSA,A,3,01,03,09,11,14,16,22,23,26,31,,,1.1,0.8,0.7*33
$GPVTG,308.4,T,308.4,M,26.7,N,49.5,K,A*28
$GPRMC,004423,A,3721.205508,N,12156.320760,W,26.7,308.4,011216,0.0,E,A*3D
$GPGGA,004423,3721.205508,N,12156.320760,W,1,10,0.8,6.0,M,-27.0,M,,*7A
$GPGSV,3,1,12,01,25,210,26,03,80,296,21,09,15,281,15,11,04,203,16*7C
$GPGSV,3,2,12,14,17,074,18,16,27,135,18,22,76,163,22,23,49,300,22*74
$GPGSV,3,3,12,26,36,099,24,31,29,045,24,06,04,324,,07,01,223,*71
$GLGSV,3,1,09,78,47,037,15,70,08,313,17,80,22,198,15,79,77,136,17*6A
$GLGSV,3,2,09,69,57,347,26,85,07,302,20,68,49,094,23,84,03,255,*6F
$GLGSV,3,3,09,67,02,119,*56
$GPGSV,3,1,12,01,25,210,26,03,80,296,21,09,15,281,15,11,04,203,16*7C
$GPGSV,3,2,12,14,17,074,18,16,27,135,18,22,76,163,22,23,49,300,22*74
$GPGSV,3,3,12,26,36,099,24,31,29,045,24,06,04,324,,07,01,223,*71
$GLGSV,3,1,09,78,47,037,15,70,08,313,17,80,22,198,15,79,77,136,17*6A
$GLGSV,3,2,09,69,57,347,26,85,07,302,20,68,49,094,23,84,03,255,*6F
$GLGSV,3,3,09,67,02,119,*56
$GPGSA,A,3,01,03,09,11,14,16,22,23,26,31,,,1.1,0.8,0.7*33
$GPVTG,304.8,T,304.8,M,27.7,N,51.3,K,A*26
$GPRMC,004424,A,3721.209308,N,12156.329196,W,27.7,304.8,011216,0.0,E,A*37
$GPGGA,004424,3721.209308,N,12156.329196,W,1,10,0.8,8.0,M,-27.0,M,,*7F
$GPGSV,3,1,12,01,25,210,24,03,80,296,16,09,15,281,15,11,04,203,16*7A
$GPGSV,3,2,12,14,17,074,18,16,27,135,18,22,76,163,22,23,49,300,22*74
$GPGSV,3,3,12,26,36,099,21,31,29,045,23,06,04,324,,07,01,223,*73
$GLGSV,3,1,09,78,47,037,20,70,08,313,17,80,22,198,16,79,77,136,19*61
$GLGSV,3,2,09,69,57,347,25,85,07,302,20,68,49,094,16,84,03,255,*6A
$GLGSV,3,3,09,67,02,119,*56
$GPGSV,3,1,12,01,25,210,24,03,80,296,16,09,15,281,15,11,04,203,16*7A
$GPGSV,3,2,12,14,17,074,18,16,27,135,18,22,76,163,22,23,49,300,22*74
$GPGSV,3,3,12,26,36,099,21,31,29,045,23,06,04,324,,07,01,223,*73
$GLGSV,3,1,09,78,47,037,20,70,08,313,17,80,22,198,16,79,77,136,19*61
$GLGSV,3,2,09,69,57,347,25,85,07,302,20,68,49,094,16,84,03,255,*6A
$GLGSV,3,3,09,67,02,119,*56
$GPGSA,A,3,01,03,09,11,14,16,22,23,26,31,,,1.1,0.8,0.7*33
$GPVTG,303.9,T,303.9,M,28.7,N,53.1,K,A*29
$GPRMC,004425,A,3721.214193,N,12156.337634,W,28.7,303.9,011216,0.0,E,A*33
$GPGGA,004425,3721.214193,N,12156.337634,W,1,10,0.8,9.0,M,-27.0,M,,*73
$GPGSV,3,1,12,01,25,210,24,03,80,296,16,06,04,324,15,09,15,281,15*7B
$GPGSV,3,2,12,11,04,203,16,14,17,074,18,16,27,135,16,22,76,163,23*76
$GPGSV,3,3,12,23,49,300,24,26,36,099,22,31,29,045,24,07,01,223,*79
$GLGSV,3,1,09,78,47,037,17,70,08,313,17,80,22,198,16,79,77,136,19*65
$GLGSV,3,2,09,69,57,347,24,85,07,302,20,68,49,094,17,84,03,255,*6A
$GLGSV,3,3,09,67,02,119,*56
$GPGSV,3,1,12,01,25,210,24,03,80,296,16,06,04,324,15,09,15,281,15*7B
$GPGSV,3,2,12,11,04,203,16,14,17,074,18,16,27,135,16,22,76,163,23*76
$GPGSV,3,3,12,23,49,300,24,26,36,099,22,31,29,045,24,07,01,223,*79
$GLGSV,3,1,09,78,47,037,17,70,08,313,17,80,22,198,16,79,77,136,19*65
$GLGSV,3,2,09,69,57,347,24,85,07,302,20,68,49,094,17,84,03,255,*6A
$GLGSV,3,3,09,67,02,119,*56
$GPGSA,A,3,01,03,06,09,11,14,16,22,23,26,31,,1.0,0.8,0.7*34
$GPVTG,305.7,T,305.7,M,30.1,N,55.8,K,A*29
$GPRMC,004426,A,3721.218952,N,12156.346010,W,30.1,305.7,011216,0.0,E,A*38
$GPGGA,004426,3721.218952,N,12156.346010,W,1,11,0.8,11.0,M,-27.0,M,,*47
$GPGSV,3,1,12,01,25,210,27,03,80,296,17,06,04,324,16,09,15,281,15*7A
$GPGSV,3,2,12,11,04,203,16,14,17,074,18,16,27,135,16,22,76,163,24*71
$GPGSV,3,3,12,23,49,300,24,26,36,099,23,31,29,045,25,07,01,223,*79
$GLGSV,3,1,09,78,47,037,18,70,08,313,17,80,22,198,16,79,77,136,19*6A
$GLGSV,3,2,09,69,57,347,26,85,07,302,20,68,49,094,17,84,03,255,*68
$GLGSV,3,3,09,67,02,119,*56
$GPGSV,3,1,12,01,25,210,27,03,80,296,17,06,04,324,16,09,15,281,15*7A
$GPGSV,3,2,12,11,04,203,16,14,17,074,18,16,27,135,16,22,76,163,24*71
$GPGSV,3,3,12,23,49,300,24,26,36,099,23,31,29,045,25,07,01,223,*79
$GLGSV,3,1,09,78,47,037,18,70,08,313,17,80,22,198,16,79,77,136,19*6A
$GLGSV,3,2,09,69,57,347,26,85,07,302,20,68,49,094,17,84,03,255,*68
$GLGSV,3,3,09,67,02,119,*56
$GPGSA,A,3,01,03,06,09,11,14,16,22,23,26,31,,1.0,0.8,0.7*34
$GPVTG,304.3,T,304.3,M,30.1,N,55.8,K,A*29
$GPRMC,004427,A,3721.223537,N,12156.354741,W,30.1,304.3,011216,0.0,E,A*3B
$GPGGA,004427,3721.223537,N,12156.354741,W,1,11,0.8,14.0,M,-27.0,M,,*44
$GPGSV,3,1,12,01,25,210,27,03,80,296,20,06,04,324,15,09,15,281,13*7B
$GPGSV,3,2,12,11,04,203,16,14,17,074,18,16,27,135,16,22,76,163,27*72
$GPGSV,3,3,12,23,49,300,26,26,36,099,25,31,29,045,26,07,01,223,*7E
$GLGSV,3,1,09,78,47,037,18,70,08,313,17,80,22,198,16,79,77,136,19*6A
$GLGSV,3,2,09,69,57,347,29,85,07,302,20,68,49,094,17,84,03,255,*67
$GLGSV,3,3,09,67,02,119,*56
$GPGSV,3,1,12,01,25,210,27,03,80,296,20,06,04,324,15,09,15,281,13*7B
$GPGSV,3,2,12,11,04,203,16,14,17,074,18,16,27,135,16,22,76,163,27*72
$GPGSV,3,3,12,23,49,300,26,26,36,099,25,31,29,045,26,07,01,223,*7E
$GLGSV,3,1,09,78,47,037,18,70,08,313,17,80,22,198,16,79,77,136,19*6A
$GLGSV,3,2,09,69,57,347,29,85,07,302,20,68,49,094,17,84,03,255,*67
$GLGSV,3,3,09,67,02,119,*56
$GPGSA,A,3,01,03,06,09,11,14,16,22,23,26,31,,1.0,0.8,0.7*34
$GPVTG,303.6,T,303.6,M,29.6,N,54.9,K,A*26
$GPRMC,004428,A,3721.227565,N,12156.363521,W,29.6,303.6,011216,0.0,E,A*3A
$GPGGA,004428,3721.227565,N,12156.363521,W,1,11,0.8,15.0,M,-27.0,M,,*49
$GPGSV,3,1,12,01,25,210,26,03,80,296,19,06,04,324,14,09,15,281,13*71
$GPGSV,3,2,12,11,04,203,16,14,17,074,18,16,27,135,16,22,76,163,24*71
$GPGSV,3,3,12,23,49,300,18,26,36,099,20,31,29,045,22,07,01,223,*72
$GLGSV,3,1,09,78,47,037,17,70,08,313,17,80,22,198,16,79,77,136,19*65
$GLGSV,3,2,09,69,57,347,28,85,07,302,20,68,49,094,17,84,03,255,*66
$GLGSV,3,3,09,67,02,119,*56
$GPGSV,3,1,12,01,25,210,26,03,80,296,19,06,04,324,14,09,15,281,13*71
$GPGSV,3,2,12,11,04,203,16,14,17,074,18,16,27,135,16,22,76,163,24*71
$GPGSV,3,3,12,23,49,300,18,26,36,099,20,31,29,045,22,07,01,223,*72
$GLGSV,3,1,09,78,47,037,17,70,08,313,17,80,22,198,16,79,77,136,19*65
$GLGSV,3,2,09,69,57,347,28,85,07,302,20,68,49,094,17,84,03,255,*66
$GLGSV,3,3,09,67,02,119,*56
$GPGSA,A,3,01,03,06,09,11,14,16,22,23,26,31,,1.1,0.8,0.8*3A
$GPVTG,305.3,T,305.3,M,29.6,N,54.9,K,A*26
$GPRMC,004429,A,3721.232582,N,12156.372254,W,29.6,305.3,011216,0.0,E,A*30
$GPGGA,004429,3721.232582,N,12156.372254,W,1,11,0.8,16.0,M,-27.0,M,,*43
$GPGSV,3,1,12,01,25,210,22,03,80,296,19,06,04,324,15,09,15,281,13*74
$GPGSV,3,2,12,11,04,203,16,14,17,074,18,16,27,135,16,22,76,163,18*7E
$GPGSV,3,3,12,23,49,300,20,26,36,099,19,31,29,045,18,07,01,223,*7A
$GLGSV,3,1,09,78,47,037,17,70,08,313,17,80,22,198,16,79,77,136,19*65
$GLGSV,3,2,09,69,57,347,27,85,07,302,20,68,49,094,13,84,03,255,*6D
$GLGSV,3,3,09,67,02,119,*56
$GPGSV,3,1,12,01,25,210,22,03,80,296,19,06,04,324,15,09,15,281,13*74
$GPGSV,3,2,12,11,04,203,16,14,17,074,18,16,27,135,16,22,76,163,18*7E
$GPGSV,3,3,12,23,49,300,20,26,36,099,19,31,29,045,18,07,01,223,*7A
$GLGSV,3,1,09,78,47,037,17,70,08,313,17,80,22,198,16,79,77,136,19*65
$GLGSV,3,2,09,69,57,347,27,85,07,302,20,68,49,094,13,84,03,255,*6D
$GLGSV,3,3,09,67,02,119,*56
$GPGSA,A,3,01,03,06,09,11,14,16,22,23,26,31,,1.1,0.8,0.8*3A
$GPVTG,305.4,T,305.4,M,28.7,N,53.1,K,A*29
$GPRMC,004430,A,3721.236615,N,12156.379183,W,28.7,305.4,011216,0.0,E,A*34
$GPGGA,004430,3721.236615,N,12156.379183,W,1,11,0.8,16.0,M,-27.0,M,,*40
$GPGSV,3,1,12,01,25,210,22,03,80,296,16,06,04,324,14,09,15,281,13*7A
$GPGSV,3,2,12,11,04,203,16,14,17,074,18,16,27,135,16,22,76,163,21*74
$GPGSV,3,3,12,23,49,300,22,26,36,099,20,31,29,045,21,07,01,223,*78
$GLGSV,3,1,09,78,47,037,16,70,08,313,17,80,22,198,16,79,77,136,19*64
$GLGSV,3,2,09,69,57,347,27,85,07,302,20,68,49,094,22,84,03,255,*6F
$GLGSV,3,3,09,67,02,119,*56
$GPGSV,3,1,12,01,25,210,22,03,80,296,16,06,04,324,14,09,15,281,13*7A
$GPGSV,3,2,12,11,04,203,16,14,17,074,18,16,27,135,16,22,76,163,21*74
$GPGSV,3,3,12,23,49,300,22,26,36,099,20,31,29,045,21,07,01,223,*78
$GLGSV,3,1,09,78,47,037,16,70,08,313,17,80,22,198,16,79,77,136,19*64
$GLGSV,3,2,09,69,57,347,27,85,07,302,20,68,49,094,22,84,03,255,*6F
$GLGSV,3,3,09,67,02,119,*56
$GPGSA,A,3,01,03,06,09,11,14,16,22,23,26,31,,1.1,0.8,0.8*3A
$GPVTG,304.0,T,304.0,M,31.6,N,58.5,K,A*2F
$GPRMC,004431,A,3721.241146,N,12156.387339,W,31.6,304.0,011216,0.0,E,A*3A
$GPGGA,004431,3721.241146,N,12156.387339,W,1,11,0.8,17.0,M,-27.0,M,,*43
$GPGSV,3,1,12,01,25,210,22,03,81,296,16,06,04,324,13,09,15,281,13*7C
$GPGSV,3,2,12,11,04,203,16,14,16,075,18,16,27,135,16,22,76,163,20*75
$GPGSV,3,3,12,23,49,300,20,26,36,099,18,31,29,045,21,07,01,223,*71
$GLGSV,3,1,09,78,47,037,17,70,08,313,17,80,22,198,16,79,77,136,12*6E
$GLGSV,3,2,09,69,57,347,28,85,07,302,20,68,49,094,20,84,03,255,*62
$GLGSV,3,3,09,67,02,119,*56
$GPGSV,3,1,12,01,25,210,22,03,81,296,16,06,04,324,13,09,15,281,13*7C
$GPGSV,3,2,12,11,04,203,16,14,16,075,18,16,27,135,16,22,76,163,20*75
$GPGSV,3,3,12,23,49,300,20,26,36,099,18,31,29,045,21,07,01,223,*71
$GLGSV,3,1,09,78,47,037,17,70,08,313,17,80,22,198,16,79,77,136,12*6E
$GLGSV,3,2,09,69,57,347,28,85,07,302,20,68,49,094,20,84,03,255,*62
$GLGSV,3,3,09,67,02,119,*56
$GPGSA,A,3,01,03,06,09,11,14,16,22,23,26,31,,1.1,0.8,0.8*3A
$GPVTG,304.1,T,304.1,M,30.6,N,56.7,K,A*22
$GPRMC,004432,A,3721.245549,N,12156.396056,W,30.6,304.1,011216,0.0,E,A*3C
$GPGGA,004432,3721.245549,N,12156.396056,W,1,11,0.8,17.0,M,-27.0,M,,*45
$GPGSV,3,1,12,01,25,210,24,03,81,296,15,06,04,324,14,09,15,281,13*7E
$GPGSV,3,2,12,11,04,203,16,14,16,075,18,16,27,135,16,22,76,163,21*74
$GPGSV,3,3,12,23,49,300,20,26,36,099,19,31,29,045,20,07,01,223,*71
$GLGSV,3,1,09,78,47,036,17,70,08,313,17,80,22,198,16,79,77,135,12*6C
$GLGSV,3,2,09,69,57,347,27,85,07,302,20,68,49,094,20,84,03,255,*6D
$GLGSV,3,3,09,67,02,119,*56
$GPGSV,3,1,12,01,25,210,24,03,81,296,15,06,04,324,14,09,15,281,13*7E
$GPGSV,3,2,12,11,04,203,16,14,16,075,18,16,27,135,16,22,76,163,21*74
$GPGSV,3,3,12,23,49,300,20,26,36,099,19,31,29,045,20,07,01,223,*71
$GLGSV,3,1,09,78,47,036,17,70,08,313,17,80,22,198,16,79,77,135,12*6C
$GLGSV,3,2,09,69,57,347,27,85,07,302,20,68,49,094,20,84,03,255,*6D
$GLGSV,3,3,09,67,02,119,*56
$GPGSA,A,3,01,03,06,09,11,14,16,22,23,26,31,,1.2,0.9,0.8*38
$GPVTG,304.2,T,304.2,M,29.2,N,54.0,K,A*2B
$GPRMC,004433,A,3721.249028,N,12156.403886,W,29.2,304.2,011216,0.0,E,A*32
$GPGGA,004433,3721.249028,N,12156.403886,W,1,11,0.9,17.0,M,-27.0,M,,*45
$GPGSV,3,1,12,01,25,210,24,03,81,296,15,06,04,324,13,09,15,281,13*79
$GPGSV,3,2,12,11,04,203,16,14,16,075,18,16,27,135,16,22,76,163,17*71
$GPGSV,3,3,12,23,49,300,22,26,36,099,23,31,29,045,21,07,01,223,*7B
$GLGSV,3,1,09,78,47,036,15,70,08,313,17,80,22,198,16,79,77,135,12*6E
$GLGSV,3,2,09,69,57,347,29,85,07,302,20,68,49,094,22,84,03,255,*61
$GLGSV,3,3,09,67,02,119,*56
$GPGSV,3,1,12,01,25,210,24,03,81,296,15,06,04,324,13,09,15,281,13*79
$GPGSV,3,2,12,11,04,203,16,14,16,075,18,16,27,135,16,22,76,163,17*71
$GPGSV,3,3,12,23,49,300,22,26,36,099,23,31,29,045,21,07,01,223,*7B
$GLGSV,3,1,09,78,47,036,15,70,08,313,17,80,22,198,16,79,77,135,12*6E
$GLGSV,3,2,09,69,57,347,29,85,07,302,20,68,49,094,22,84,03,255,*61
$GLGSV,3,3,09,67,02,119,*56
$GPGSA,A,3,01,03,06,09,11,14,16,22,23,26,31,,1.2,0.9,0.8*38
$GPVTG,303.6,T,303.6,M,30.6,N,56.7,K,A*22
$GPRMC,004434,A,3721.254455,N,12156.413466,W,30.6,303.6,011216,0.0,E,A*3B
$GPGGA,004434,3721.254455,N,12156.413466,W,1,11,0.9,15.0,M,-27.0,M,,*41
$GPGSV,3,1,12,01,25,210,21,03,81,296,20,06,04,324,13,09,15,281,13*7A
$GPGSV,3,2,12,11,04,203,16,14,16,075,18,16,27,135,16,22,76,163,17*71
$GPGSV,3,3,12,23,49,300,19,26,36,099,18,31,29,045,21,07,01,223,*7B
$GLGSV,3,1,09,78,47,036,19,70,08,313,17,80,22,198,16,79,77,135,12*62
$GLGSV,3,2,09,69,57,347,29,85,07,302,20,68,49,094,26,84,03,255,*65
$GLGSV,3,3,09,67,02,119,*56
$GPGSV,3,1,12,01,25,210,21,03,81,296,20,06,04,324,13,09,15,281,13*7A
$GPGSV,3,2,12,11,04,203,16,14,16,075,18,16,27,135,16,22,76,163,17*71
$GPGSV,3,3,12,23,49,300,19,26,36,099,18,31,29,045,21,07,01,223,*7B
$GLGSV,3,1,09,78,47,036,19,70,08,313,17,80,22,198,16,79,77,135,12*62
$GLGSV,3,2,09,69,57,347,29,85,07,302,20,68,49,094,26,84,03,255,*65
$GLGSV,3,3,09,67,02,119,*56
$GPGSA,A,3,01,03,06,09,11,14,16,22,23,26,31,,1.2,0.9,0.8*38
$GPVTG,303.4,T,303.4,M,30.6,N,56.7,K,A*22
$GPRMC,004435,A,3721.258917,N,12156.422196,W,30.6,303.4,011216,0.0,E,A*37
$GPGGA,004435,3721.258917,N,12156.422196,W,1,11,0.9,16.0,M,-27.0,M,,*4C
$GPGSV,3,1,12,01,25,210,21,03,81,296,16,06,04,324,13,09,15,281,13*7F
$GPGSV,3,2,12,11,04,203,16,14,16,075,18,16,27,135,15,22,76,163,15*70
$GPGSV,3,3,12,23,49,300,20,26,36,099,17,31,29,045,25,07,01,223,*7A
$GLGSV,3,1,09,78,47,036,18,70,08,313,15,80,22,198,16,79,77,135,12*61
$GLGSV,3,2,09,69,57,347,23,85,07,302,20,68,49,094,23,84,03,255,*6A
$GLGSV,3,3,09,67,02,119,*56
$GPGSV,3,1,12,01,25,210,21,03,81,296,16,06,04,324,13,09,15,281,13*7F
$GPGSV,3,2,12,11,04,203,16,14,16,075,18,16,27,135,15,22,76,163,15*70
$GPGSV,3,3,12,23,49,300,20,26,36,099,17,31,29,045,25,07,01,223,*7A
$GLGSV,3,1,09,78,47,036,18,70,08,313,15,80,22,198,16,79,77,135,12*61
$GLGSV,3,2,09,69,57,347,23,85,07,302,20,68,49,094,23,84,03,255,*6A
$GLGSV,3,3,09,67,02,119,*56
$GPGSA,A,3,01,03,06,09,11,14,16,22,23,26,31,,1.0,0.8,0.7*34
$GPVTG,302.0,T,302.0,M,30.1,N,55.8,K,A*29
$GPRMC,004436,A,3721.263614,N,12156.432090,W,30.1,302.0,011216,0.0,E,A*34
$GPGGA,004436,3721.263614,N,12156.432090,W,1,11,0.8,18.0,M,-27.0,M,,*42
$GPGSV,3,1,12,01,25,210,25,03,81,296,20,06,04,324,16,09,15,281,23*78
$GPGSV,3,2,12,11,04,203,16,14,16,075,22,16,27,135,24,22,76,163,15*7B
$GPGSV,3,3,12,23,49,300,22,26,36,099,20,31,29,045,30,07,01,223,*78
$GLGSV,3,1,09,78,47,036,23,70,08,313,18,80,22,198,16,79,77,135,12*64
$GLGSV,3,2,09,69,57,347,19,85,07,302,20,68,49,094,23,84,03,255,*63
$GLGSV,3,3,09,67,02,119,*56
$GPGSV,3,1,12,01,25,210,25,03,81,296,20,06,04,324,16,09,15,281,23*78
$GPGSV,3,2,12,11,04,203,16,14,16,075,22,16,27,135,24,22,76,163,15*7B
$GPGSV,3,3,12,23,49,300,22,26,36,099,20,31,29,045,30,07,01,223,*78
$GLGSV,3,1,09,78,47,036,23,70,08,313,18,80,22,198,16,79,77,135,12*64
$GLGSV,3,2,09,69,57,347,19,85,07,302,20,68,49,094,23,84,03,255,*63
$GLGSV,3,3,09,67,02,119,*56
$GPGSA,A,3,01,03,06,09,11,14,16,22,23,26,31,,1.0,0.8,0.7*34
$GPVTG,304.9,T,304.9,M,31.1,N,57.6,K,A*24
$GPRMC,004437,A,3721.266591,N,12156.439679,W,31.1,304.9,011216,0.0,E,A*3A
$GPGGA,004437,3721.266591,N,12156.439679,W,1,11,0.8,19.0,M,-27.0,M,,*43
$GPGSV,3,1,12,01,25,210,26,03,81,296,18,06,04,324,21,09,15,281,23*74
$GPGSV,3,2,12,11,04,203,16,14,16,075,21,16,27,135,20,22,76,163,15*7C
$GPGSV,3,3,12,23,49,300,18,26,36,099,20,31,29,045,28,07,01,223,*78
$GLGSV,3,1,09,78,47,036,25,70,08,313,19,80,22,198,16,79,77,135,12*63
$GLGSV,3,2,09,69,57,347,19,85,07,302,20,68,49,094,24,84,03,255,*64
$GLGSV,3,3,09,67,02,119,*56
$GPGSV,3,1,12,01,25,210,26,03,81,296,18,06,04,324,21,09,15,281,23*74
$GPGSV,3,2,12,11,04,203,16,14,16,075,21,16,27,135,20,22,76,163,15*7C
$GPGSV,3,3,12,23,49,300,18,26,36,099,20,31,29,045,28,07,01,223,*78
$GLGSV,3,1,09,78,47,036,25,70,08,313,19,80,22,198,16,79,77,135,12*63
$GLGSV,3,2,09,69,57,347,19,85,07,302,20,68,49,094,24,84,03,255,*64
$GLGSV,3,3,09,67,02,119,*56
$GPGSA,A,3,01,03,06,09,11,14,16,22,23,26,31,,1.1,0.8,0.7*35
$GPVTG,303.2,T,303.2,M,31.1,N,57.6,K,A*24
$GPRMC,004438,A,3721.270942,N,12156.449561,W,31.1,303.2,011216,0.0,E,A*31
$GPGGA,004438,3721.270942,N,12156.449561,W,1,11,0.8,21.0,M,-27.0,M,,*4F
$GPGSV,3,1,12,01,25,210,25,03,81,296,19,06,04,324,24,09,15,281,20*70
$GPGSV,3,2,12,14,16,075,21,16,27,135,23,22,76,163,18,23,49,300,17*79
$GPGSV,3,3,12,26,36,099,17,31,29,045,29,07,01,223,,11,04,203,*7E
$GLGSV,3,1,09,78,47,036,25,70,08,313,19,80,22,198,16,79,77,135,12*63
$GLGSV,3,2,09,69,57,347,17,85,07,302,20,68,49,094,27,84,03,255,*69
$GLGSV,3,3,09,67,02,119,*56
$GPGSV,3,1,12,01,25,210,25,03,81,296,19,06,04,324,24,09,15,281,20*70
$GPGSV,3,2,12,14,16,075,21,16,27,135,23,22,76,163,18,23,49,300,17*79
$GPGSV,3,3,12,26,36,099,17,31,29,045,29,07,01,223,,11,04,203,*7E
$GLGSV,3,1,09,78,47,036,25,70,08,313,19,80,22,198,16,79,77,135,12*63
$GLGSV,3,2,09,69,57,347,17,85,07,302,20,68,49,094,27,84,03,255,*69
$GLGSV,3,3,09,67,02,119,*56
$GPGSA,A,3,01,03,06,09,14,16,22,23,26,31,,,1.1,0.8,0.7*35
$GPVTG,304.1,T,304.1,M,31.6,N,58.5,K,A*2F
$GPRMC,004439,A,3721.276647,N,12156.458516,W,31.6,304.1,011216,0.0,E,A*3F
$GPGGA,004439,3721.276647,N,12156.458516,W,1,10,0.8,23.0,M,-27.0,M,,*41
$GPGSV,3,1,12,01,25,210,24,03,81,296,19,06,04,324,24,09,15,281,22*73
$GPGSV,3,2,12,14,16,075,20,16,27,135,22,22,76,163,18,23,49,300,18*76
$GPGSV,3,3,12,26,36,099,21,31,29,045,27,07,01,223,,11,04,203,*75
$GLGSV,3,1,09,78,47,036,21,70,08,313,20,80,22,198,16,79,77,135,12*6D
$GLGSV,3,2,09,69,57,347,19,85,07,302,20,68,49,094,28,84,03,255,*68
$GLGSV,3,3,09,67,02,119,*56
$GPGSV,3,1,12,01,25,210,24,03,81,296,19,06,04,324,24,09,15,281,22*73
$GPGSV,3,2,12,14,16,075,20,16,27,135,22,22,76,163,18,23,49,300,18*76
$GPGSV,3,3,12,26,36,099,21,31,29,045,27,07,01,223,,11,04,203,*75
$GLGSV,3,1,09,78,47,036,21,70,08,313,20,80,22,198,16,79,77,135,12*6D
$GLGSV,3,2,09,69,57,347,19,85,07,302,20,68,49,094,28,84,03,255,*68
$GLGSV,3,3,09,67,02,119,*56
$GPGSA,A,3,01,03,06,09,14,16,22,23,26,31,,,1.0,0.8,0.7*34
$GPVTG,303.3,T,303.3,M,31.6,N,58.5,K,A*2F
$GPRMC,004440,A,3721.281609,N,12156.468269,W,31.6,303.3,011216,0.0,E,A*3A
$GPGGA,004440,3721.281609,N,12156.468269,W,1,10,0.8,23.0,M,-27.0,M,,*41
$GPGSV,3,1,12,01,25,210,24,03,81,296,20,06,04,324,21,09,15,281,21*7F
$GPGSV,3,2,12,14,16,075,21,16,27,135,22,22,76,163,18,23,49,300,16*79
$GPGSV,3,3,12,26,36,099,17,31,29,045,29,07,01,223,,11,04,203,*7E
$GLGSV,3,1,09,78,47,036,24,70,08,313,20,80,22,198,16,79,77,135,12*68
$GLGSV,3,2,09,69,57,347,19,85,07,302,15,68,49,094,29,84,03,255,*6F
$GLGSV,3,3,09,67,02,119,*56
$GPGSV,3,1,12,01,25,210,24,03,81,296,20,06,04,324,21,09,15,281,21*7F
$GPGSV,3,2,12,14,16,075,21,16,27,135,22,22,76,163,18,23,49,300,16*79
$GPGSV,3,3,12,26,36,099,17,31,29,045,29,07,01,223,,11,04,203,*7E
$GLGSV,3,1,09,78,47,036,24,70,08,313,20,80,22,198,16,79,77,135,12*68
$GLGSV,3,2,09,69,57,347,19,85,07,302,15,68,49,094,29,84,03,255,*6F
$GLGSV,3,3,09,67,02,119,*56
$GPGSA,A,3,01,03,06,09,14,16,22,23,26,31,,,1.0,0.8,0.7*34
$GPVTG,302.1,T,302.1,M,33.0,N,61.2,K,A*26
$GPRMC,004441,A,3721.287302,N,12156.479908,W,33.0,302.1,011216,0.0,E,A*38
$GPGGA,004441,3721.287302,N,12156.479908,W,1,10,0.8,21.0,M,-27.0,M,,*46
$GPGSV,3,1,12,01,25,210,23,03,81,296,19,06,04,324,18,09,15,281,21*78
$GPGSV,3,2,12,14,16,075,21,16,27,135,24,22,76,163,20,23,49,300,16*74
$GPGSV,3,3,12,26,36,099,17,31,29,045,30,07,01,223,,11,04,203,*76
$GLGSV,3,1,09,78,47,036,21,70,08,313,17,80,22,198,16,79,77,135,12*69
$GLGSV,3,2,09,69,57,347,20,85,07,302,20,68,49,094,30,84,03,255,*6B
$GLGSV,3,3,09,67,02,119,*56
$GPGSV,3,1,12,01,25,210,23,03,81,296,19,06,04,324,18,09,15,281,21*78
$GPGSV,3,2,12,14,16,075,21,16,27,135,24,22,76,163,20,23,49,300,16*74
$GPGSV,3,3,12,26,36,099,17,31,29,045,30,07,01,223,,11,04,203,*76
$GLGSV,3,1,09,78,47,036,21,70,08,313,17,80,22,198,16,79,77,135,12*69
$GLGSV,3,2,09,69,57,347,20,85,07,302,20,68,49,094,30,84,03,255,*6B
$GLGSV,3,3,09,67,02,119,*56
$GPGSA,A,3,01,03,06,09,14,16,22,23,26,31,,,1.0,0.8,0.7*34
$GPVTG,302.6,T,302.6,M,32.1,N,59.4,K,A*2B
$GPRMC,004442,A,3721.291970,N,12156.489094,W,32.1,302.6,011216,0.0,E,A*37
$GPGGA,004442,3721.291970,N,12156.489094,W,1,10,0.8,22.0,M,-27.0,M,,*4D
$GPGSV,3,1,12,01,25,210,23,03,81,296,20,06,04,324,18,09,15,281,19*79
$GPGSV,3,2,12,14,16,075,22,16,27,135,24,22,76,163,19,23,49,300,17*7C
$GPGSV,3,3,12,26,36,099,17,31,29,045,28,07,01,223,,11,04,203,*7F
$GLGSV,3,1,09,78,47,036,24,70,08,313,23,80,22,198,13,79,77,135,12*6E
$GLGSV,3,2,09,69,57,347,19,85,07,302,20,68,49,094,29,84,03,255,*69
$GLGSV,3,3,09,67,02,119,*56
$GPGSV,3,1,12,01,25,210,23,03,81,296,20,06,04,324,18,09,15,281,19*79
$GPGSV,3,2,12,14,16,075,22,16,27,135,24,22,76,163,19,23,49,300,17*7C
$GPGSV,3,3,12,26,36,099,17,31,29,045,28,07,01,223,,11,04,203,*7F
$GLGSV,3,1,09,78,47,036,24,70,08,313,23,80,22,198,13,79,77,135,12*6E
$GLGSV,3,2,09,69,57,347,19,85,07,302,20,68,49,094,29,84,03,255,*69
$GLGSV,3,3,09,67,02,119,*56
$GPGSA,A,3,01,03,06,09,14,16,22,23,26,31,,,1.0,0.8,0.7*34
$GPVTG,305.1,T,305.1,M,31.1,N,57.6,K,A*24
$GPRMC,004443,A,3721.296911,N,12156.497528,W,31.1,305.1,011216,0.0,E,A*38
$GPGGA,004443,3721.296911,N,12156.497528,W,1,10,0.8,20.0,M,-27.0,M,,*43
$GPGSV,3,1,12,01,25,210,18,03,81,296,21,06,04,324,21,09,15,281,18*7B
$GPGSV,3,2,12,14,16,075,22,16,27,135,25,22,76,163,20,23,49,300,23*70
$GPGSV,3,3,12,26,36,099,18,31,29,045,24,07,01,223,,11,04,203,*7C
$GLGSV,3,1,09,78,47,036,23,70,08,313,23,80,22,198,13,79,77,135,17*6C
$GLGSV,3,2,09,69,57,347,19,85,07,302,21,68,49,094,27,84,03,255,*66
$GLGSV,3,3,09,67,02,119,*56
$GPGSV,3,1,12,01,25,210,18,03,81,296,21,06,04,324,21,09,15,281,18*7B
$GPGSV,3,2,12,14,16,075,22,16,27,135,25,22,76,163,20,23,49,300,23*70
$GPGSV,3,3,12,26,36,099,18,31,29,045,24,07,01,223,,11,04,203,*7C
$GLGSV,3,1,09,78,47,036,23,70,08,313,23,80,22,198,13,79,77,135,17*6C
$GLGSV,3,2,09,69,57,347,19,85,07,302,21,68,49,094,27,84,03,255,*66
$GLGSV,3,3,09,67,02,119,*56
$GPGSA,A,3,01,03,06,09,14,16,22,23,26,31,,,1.0,0.8,0.7*34
$GPVTG,304.1,T,304.1,M,30.6,N,56.7,K,A*22
$GPRMC,004444,A,3721.302132,N,12156.506339,W,30.6,304.1,011216,0.0,E,A*32
$GPGGA,004444,3721.302132,N,12156.506339,W,1,10,0.8,22.0,M,-27.0,M,,*4C
$GPGSV,3,1,12,01,25,210,20,03,81,296,20,06,04,324,21,09,15,281,22*78
$GPGSV,3,2,12,11,04,203,14,14,16,075,18,16,27,135,26,22,76,163,20*74
$GPGSV,3,3,12,23,49,300,22,26,36,099,18,31,29,045,25,07,01,223,*77
$GLGSV,3,1,09,78,47,036,24,70,08,313,23,80,22,198,17,79,77,135,17*6F
$GLGSV,3,2,09,69,57,347,21,85,07,302,20,68,49,094,24,84,03,255,*6F
$GLGSV,3,3,09,67,02,119,*56
$GPGSV,3,1,12,01,25,210,20,03,81,296,20,06,04,324,21,09,15,281,22*78
$GPGSV,3,2,12,11,04,203,14,14,16,075,18,16,27,135,26,22,76,163,20*74
$GPGSV,3,3,12,23,49,300,22,26,36,099,18,31,29,045,25,07,01,223,*77
$GLGSV,3,1,09,78,47,036,24,70,08,313,23,80,22,198,17,79,77,135,17*6F
$GLGSV,3,2,09,69,57,347,21,85,07,302,20,68,49,094,24,84,03,255,*6F
$GLGSV,3,3,09,67,02,119,*56
$GPGSA,A,3,01,03,06,09,11,14,16,22,23,26,31,,0.9,0.7,0.7*33
$GPVTG,304.0,T,304.0,M,30.6,N,56.7,K,A*22
$GPRMC,004445,A,3721.307194,N,12156.515152,W,30.6,304.0,011216,0.0,E,A*36
$GPGGA,004445,3721.307194,N,12156.515152,W,1,11,0.7,24.0,M,-27.0,M,,*41
$GPGSV,3,1,12,01,25,210,22,03,81,296,20,06,04,324,21,09,15,281,18*73
$GPGSV,3,2,12,11,04,203,14,14,16,075,18,16,27,135,25,22,76,163,20*77
$GPGSV,3,3,12,23,49,300,19,26,36,099,18,31,29,045,23,07,01,223,*79
$GLGSV,3,1,09,78,47,036,21,70,08,313,15,80,22,198,17,79,77,135,17*6F
$GLGSV,3,2,09,69,57,347,20,85,07,302,20,68,49,094,27,84,03,255,*6D
$GLGSV,3,3,09,67,02,119,*56
$GPGSV,3,1,12,01,25,210,22,03,81,296,20,06,04,324,21,09,15,281,18*73
$GPGSV,3,2,12,11,04,203,14,14,16,075,18,16,27,135,25,22,76,163,20*77
$GPGSV,3,3,12,23,49,300,19,26,36,099,18,31,29,045,23,07,01,223,*79
$GLGSV,3,1,09,78,47,036,21,70,08,313,15,80,22,198,17,79,77,135,17*6F
$GLGSV,3,2,09,69,57,347,20,85,07,302,20,68,49,094,27,84,03,255,*6D
$GLGSV,3,3,09,67,02,119,*56
$GPGSA,A,3,01,03,06,09,11,14,16,22,23,26,31,,0.9,0.7,0.7*33
$GPVTG,304.8,T,304.8,M,30.6,N,56.7,K,A*22
$GPRMC,004446,A,3721.312188,N,12156.523890,W,30.6,304.8,011216,0.0,E,A*36
$GPGGA,004446,3721.312188,N,12156.523890,W,1,11,0.7,25.0,M,-27.0,M,,*48
$GPGSV,3,1,12,01,25,210,23,03,81,296,25,06,04,324,21,09,15,281,20*7C
$GPGSV,3,2,12,11,04,203,14,14,16,075,21,16,27,135,26,22,76,163,22*7C
$GPGSV,3,3,12,23,49,300,21,26,36,099,18,31,29,045,27,07,01,223,*76
$GLGSV,3,1,09,78,47,036,21,70,08,313,15,80,22,198,17,79,77,135,14*6C
$GLGSV,3,2,09,69,57,347,20,85,07,302,20,68,49,094,27,84,03,255,*6D
$GLGSV,3,3,09,67,02,119,*56
$GPGSV,3,1,12,01,25,210,23,03,81,296,25,06,04,324,21,09,15,281,20*7C
$GPGSV,3,2,12,11,04,203,14,14,16,075,21,16,27,135,26,22,76,163,22*7C
$GPGSV,3,3,12,23,49,300,21,26,36,099,18,31,29,045,27,07,01,223,*76
$GLGSV,3,1,09,78,47,036,21,70,08,313,15,80,22,198,17,79,77,135,14*6C
$GLGSV,3,2,09,69,57,347,20,85,07,302,20,68,49,094,27,84,03,255,*6D
$GLGSV,3,3,09,67,02,119,*56
$GPGSA,A,3,01,03,06,09,11,14,16,22,23,26,31,,0.9,0.7,0.7*33
$GPVTG,304.9,T,304.9,M,30.6,N,56.7,K,A*22
$GPRMC,004447,A,3721.316832,N,12156.532718,W,30.6,304.9,011216,0.0,E,A*35
$GPGGA,004447,3721.316832,N,12156.532718,W,1,11,0.7,25.0,M,-27.0,M,,*4A
$GPGSV,3,1,12,01,25,210,23,03,81,296,25,06,04,324,21,09,15,281,20*7C
$GPGSV,3,2,12,11,04,203,14,14,16,075,20,16,27,135,23,22,76,163,22*78
$GPGSV,3,3,12,23,49,300,18,26,36,099,18,31,29,045,26,07,01,223,*7D
$GLGSV,3,1,09,78,47,036,22,70,08,313,15,80,22,198,17,79,77,135,16*6D
$GLGSV,3,2,09,69,57,347,22,85,07,302,20,68,49,094,27,84,03,255,*6F
$GLGSV,3,3,09,67,02,119,*56
$GPGSV,3,1,12,01,25,210,23,03,81,296,25,06,04,324,21,09,15,281,20*7C
$GPGSV,3,2,12,11,04,203,14,14,16,075,20,16,27,135,23,22,76,163,22*78
$GPGSV,3,3,12,23,49,300,18,26,36,099,18,31,29,045,26,07,01,223,*7D
$GLGSV,3,1,09,78,47,036,22,70,08,313,15,80,22,198,17,79,77,135,16*6D
$GLGSV,3,2,09,69,57,347,22,85,07,302,20,68,49,094,27,84,03,255,*6F
$GLGSV,3,3,09,67,02,119,*56
$GPGSA,A,3,01,03,06,09,11,14,16,22,23,26,31,,0.9,0.7,0.7*33
$GPVTG,301.3,T,301.3,M,30.6,N,56.7,K,A*22
$GPRMC,004448,A,3721.320618,N,12156.542382,W,30.6,301.3,011216,0.0,E,A*36
$GPGGA,004448,3721.320618,N,12156.542382,W,1,11,0.7,24.0,M,-27.0,M,,*47
$GPGSV,3,1,12,01,25,210,22,03,81,296,25,06,04,324,21,09,15,281,20*7D
$GPGSV,3,2,12,11,04,203,14,14,16,075,21,16,27,135,23,22,76,163,24*7F
$GPGSV,3,3,12,23,49,300,18,26,36,099,18,31,29,045,26,07,01,223,*7D
$GLGSV,3,1,09,78,47,036,18,70,08,313,15,80,22,198,17,79,77,135,16*64
$GLGSV,3,2,09,69,57,347,22,85,07,302,20,68,49,094,26,84,03,255,*6E
$GLGSV,3,3,09,67,02,119,*56
$GPGSV,3,1,12,01,25,210,22,03,81,296,25,06,04,324,21,09,15,281,20*7D
$GPGSV,3,2,12,11,04,203,14,14,16,075,21,16,27,135,23,22,76,163,24*7F
$GPGSV,3,3,12,23,49,300,18,26,36,099,18,31,29,045,26,07,01,223,*7D
$GLGSV,3,1,09,78,47,036,18,70,08,313,15,80,22,198,17,79,77,135,16*64
$GLGSV,3,2,09,69,57,347,22,85,07,302,20,68,49,094,26,84,03,255,*6E
$GLGSV,3,3,09,67,02,119,*56
$GPGSA,A,3,01,03,06,09,11,14,16,22,23,26,31,,0.9,0.7,0.7*33
$GPVTG,302.7,T,302.7,M,30.6,N,56.7,K,A*22
$GPRMC,004449,A,3721.325204,N,12156.550848,W,30.6,302.7,011216,0.0,E,A*32
$GPGGA,004449,3721.325204,N,12156.550848,W,1,11,0.7,23.0,M,-27.0,M,,*43
$GPGSV,3,1,12,01,25,210,23,03,81,296,24,06,04,324,21,09,15,281,20*7D
$GPGSV,3,2,12,11,04,203,14,14,16,075,20,16,27,135,24,22,76,163,24*79
$GPGSV,3,3,12,23,49,300,17,26,36,099,18,31,29,045,24,07,01,223,*70
$GLGSV,3,1,09,78,47,036,18,70,08,313,15,80,22,198,17,79,77,135,16*64
$GLGSV,3,2,09,69,57,347,25,85,07,302,20,68,49,094,26,84,03,255,*69
$GLGSV,3,3,09,67,02,119,*56
$GPGSV,3,1,12,01,25,210,23,03,81,296,24,06,04,324,21,09,15,281,20*7D
$GPGSV,3,2,12,11,04,203,14,14,16,075,20,16,27,135,24,22,76,163,24*79
$GPGSV,3,3,12,23,49,300,17,26,36,099,18,31,29,045,24,07,01,223,*70
$GLGSV,3,1,09,78,47,036,18,70,08,313,15,80,22,198,17,79,77,135,16*64
$GLGSV,3,2,09,69,57,347,25,85,07,302,20,68,49,094,26,84,03,255,*69
$GLGSV,3,3,09,67,02,119,*56
$GPGSA,A,3,01,03,06,09,11,14,16,22,23,26,31,,0.9,0.7,0.7*33
$GPVTG,300.9,T,300.9,M,30.6,N,56.7,K,A*22
$GPRMC,004450,A,3721.328985,N,12156.560260,W,30.6,300.9,011216,0.0,E,A*3A
$GPGGA,004450,3721.328985,N,12156.560260,W,1,11,0.7,22.0,M,-27.0,M,,*46
$GPGSV,3,1,12,01,25,210,22,03,81,296,19,06,04,324,21,09,15,281,20*72
$GPGSV,3,2,12,11,04,203,14,14,16,075,20,16,27,135,24,22,76,163,20*7D
$GPGSV,3,3,12,23,49,300,17,26,36,099,18,31,29,045,19,07,01,223,*7E
$GLGSV,3,1,09,78,47,036,18,70,08,313,15,80,22,198,12,79,77,135,16*61
$GLGSV,3,2,09,69,57,347,24,85,07,302,20,68,49,094,28,84,03,255,*66
$GLGSV,3,3,09,67,02,119,*56
$GPGSV,3,1,12,01,25,210,22,03,81,296,19,06,04,324,21,09,15,281,20*72
$GPGSV,3,2,12,11,04,203,14,14,16,075,20,16,27,135,24,22,76,163,20*7D
$GPGSV,3,3,12,23,49,300,17,26,36,099,18,31,29,045,19,07,01,223,*7E
$GLGSV,3,1,09,78,47,036,18,70,08,313,15,80,22,198,12,79,77,135,16*61
$GLGSV,3,2,09,69,57,347,24,85,07,302,20,68,49,094,28,84,03,255,*66
$GLGSV,3,3,09,67,02,119,*56
$GPGSA,A,3,01,03,06,09,11,14,16,22,23,26,31,,1.0,0.7,0.7*3B
$GPVTG,302.0,T,302.0,M,29.6,N,54.9,K,A*26
$GPRMC,004451,A,3721.332827,N,12156.568865,W,29.6,302.0,011216,0.0,E,A*3D
$GPGGA,004451,3721.332827,N,12156.568865,W,1,11,0.7,22.0,M,-27.0,M,,*42
$GPGSV,3,1,12,01,25,210,22,03,81,296,19,06,04,324,21,09,15,281,16*77
$GPGSV,3,2,12,11,04,203,14,14,16,075,20,16,27,135,18,22,76,163,17*76
$GPGSV,3,3,12,23,49,300,19,26,36,099,18,31,29,045,19,07,01,223,*70
$GLGSV,3,1,09,78,47,036,18,70,08,313,15,80,22,198,12,79,77,135,16*61
$GLGSV,3,2,09,69,57,347,16,85,07,302,20,68,49,094,26,84,03,255,*69
$GLGSV,3,3,09,67,02,119,*56
$GPGSV,3,1,12,01,25,210,22,03,81,296,19,06,04,324,21,09,15,281,16*77
$GPGSV,3,2,12,11,04,203,14,14,16,075,20,16,27,135,18,22,76,163,17*76
$GPGSV,3,3,12,23,49,300,19,26,36,099,18,31,29,045,19,07,01,223,*70
$GLGSV,3,1,09,78,47,036,18,70,08,313,15,80,22,198,12,79,77,135,16*61
$GLGSV,3,2,09,69,57,347,16,85,07,302,20,68,49,094,26,84,03,255,*69
$GLGSV,3,3,09,67,02,119,*56
$GPGSA,A,3,01,03,06,09,11,14,16,22,23,26,31,,1.0,0.8,0.7*34
$GPVTG,300.5,T,300.5,M,30.6,N,56.7,K,A*22
$GPRMC,004452,A,3721.337178,N,12156.578442,W,30.6,300.5,011216,0.0,E,A*3F
$GPGGA,004452,3721.337178,N,12156.578442,W,1,11,0.8,22.0,M,-27.0,M,,*40
$GPGSV,3,1,12,01,25,210,24,03,81,296,20,06,04,324,21,09,15,281,24*7A
$GPGSV,3,2,12,11,04,203,14,14,16,075,20,16,27,135,20,22,76,163,22*7B
$GPGSV,3,3,12,23,49,300,20,26,36,099,18,31,29,045,19,07,01,223,*7A
$GLGSV,3,1,09,78,47,036,17,70,08,313,22,80,22,198,12,79,77,135,16*6A
$GLGSV,3,2,09,69,57,347,21,85,07,302,20,68,49,094,19,84,03,255,*61
$GLGSV,3,3,09,67,02,119,*56
$GPGSV,3,1,12,01,25,210,24,03,81,296,20,06,04,324,21,09,15,281,24*7A
$GPGSV,3,2,12,11,04,203,14,14,16,075,20,16,27,135,20,22,76,163,22*7B
$GPGSV,3,3,12,23,49,300,20,26,36,099,18,31,29,045,19,07,01,223,*7A
$GLGSV,3,1,09,78,47,036,17,70,08,313,22,80,22,198,12,79,77,135,16*6A
$GLGSV,3,2,09,69,57,347,21,85,07,302,20,68,49,094,19,84,03,255,*61
$GLGSV,3,3,09,67,02,119,*56
$GPGSA,A,3,01,03,06,09,11,14,16,22,23,26,31,,1.1,0.8,0.7*35
$GPVTG,302.2,T,302.2,M,29.2,N,54.0,K,A*2B
$GPRMC,004453,A,3721.341317,N,12156.587034,W,29.2,302.2,011216,0.0,E,A*38
$GPGGA,004453,3721.341317,N,12156.587034,W,1,11,0.8,22.0,M,-27.0,M,,*4E
$GPGSV,3,1,12,01,25,210,21,03,81,296,20,06,04,324,21,09,15,281,24*7F
$GPGSV,3,2,12,11,04,203,14,14,16,075,17,16,27,135,20,22,76,163,19*77
$GPGSV,3,3,12,23,49,300,20,26,36,099,14,31,29,045,22,07,01,223,*7E
$GLGSV,3,1,09,78,47,036,23,70,08,313,22,80,22,198,12,79,77,135,12*69
$GLGSV,3,2,09,69,57,347,25,85,07,302,20,68,49,094,29,84,03,255,*66
$GLGSV,3,3,09,67,02,119,*56
$GPGSV,3,1,12,01,25,210,21,03,81,296,20,06,04,324,21,09,15,281,24*7F
$GPGSV,3,2,12,11,04,203,14,14,16,075,17,16,27,135,20,22,76,163,19*77
$GPGSV,3,3,12,23,49,300,20,26,36,099,14,31,29,045,22,07,01,223,*7E
$GLGSV,3,1,09,78,47,036,23,70,08,313,22,80,22,198,12,79,77,135,12*69
$GLGSV,3,2,09,69,57,347,25,85,07,302,20,68,49,094,29,84,03,255,*66
$GLGSV,3,3,09,67,02,119,*56
$GPGSA,A,3,01,03,06,09,11,14,16,22,23,26,31,,1.1,0.8,0.7*35
$GPVTG,295.8,T,295.8,M,28.7,N,53.1,K,A*29
$GPRMC,004454,A,3721.344810,N,12156.596255,W,28.7,295.8,011216,0.0,E,A*32
$GPGGA,004454,3721.344810,N,12156.596255,W,1,11,0.8,21.0,M,-27.0,M,,*46
$GPGSV,3,1,12,01,25,210,22,03,81,296,24,06,04,324,21,09,15,281,18*77
$GPGSV,3,2,12,11,04,203,14,14,16,075,18,16,27,135,18,22,76,163,22*7B
$GPGSV,3,3,12,23,49,300,22,26,36,099,21,31,29,045,26,07,01,223,*7E
$GLGSV,3,1,09,78,47,036,21,70,08,313,22,80,22,198,17,79,77,135,12*6E
$GLGSV,3,2,09,69,57,347,24,85,07,302,20,68,49,094,26,84,03,255,*68
$GLGSV,3,3,09,67,02,119,*56
$GPGSV,3,1,12,01,25,210,22,03,81,296,24,06,04,324,21,09,15,281,18*77
$GPGSV,3,2,12,11,04,203,14,14,16,075,18,16,27,135,18,22,76,163,22*7B
$GPGSV,3,3,12,23,49,300,22,26,36,099,21,31,29,045,26,07,01,223,*7E
$GLGSV,3,1,09,78,47,036,21,70,08,313,22,80,22,198,17,79,77,135,12*6E
$GLGSV,3,2,09,69,57,347,24,85,07,302,20,68,49,094,26,84,03,255,*68
$GLGSV,3,3,09,67,02,119,*56
$GPGSA,A,3,01,03,06,09,11,14,16,22,23,26,31,,1.1,0.8,0.7*35
$GPVTG,293.6,T,293.6,M,29.6,N,54.9,K,A*26
$GPRMC,004455,A,3721.348278,N,12156.606284,W,29.6,293.6,011216,0.0,E,A*35
$GPGGA,004455,3721.348278,N,12156.606284,W,1,11,0.8,21.0,M,-27.0,M,,*49
$GPGSV,3,1,12,01,25,210,20,03,81,296,23,06,04,324,21,09,15,281,21*78
$GPGSV,3,2,12,11,04,203,14,14,16,075,18,16,27,135,22,22,76,163,20*70
$GPGSV,3,3,12,23,49,300,24,26,36,099,21,31,29,045,22,07,01,223,*7C
$GLGSV,3,1,09,78,47,036,20,70,08,313,22,80,22,198,22,79,77,135,12*69
$GLGSV,3,2,09,69,57,347,23,85,07,302,20,68,49,094,33,84,03,255,*6B
$GLGSV,3,3,09,67,02,119,*56
$GPGSV,3,1,12,01,25,210,20,03,81,296,23,06,04,324,21,09,15,281,21*78
$GPGSV,3,2,12,11,04,203,14,14,16,075,18,16,27,135,22,22,76,163,20*70
$GPGSV,3,3,12,23,49,300,24,26,36,099,21,31,29,045,22,07,01,223,*7C
$GLGSV,3,1,09,78,47,036,20,70,08,313,22,80,22,198,22,79,77,135,12*69
$GLGSV,3,2,09,69,57,347,23,85,07,302,20,68,49,094,33,84,03,255,*6B
$GLGSV,3,3,09,67,02,119,*56
$GPGSA,A,3,01,03,06,09,11,14,16,22,23,26,31,,1.1,0.8,0.7*35
$GPVTG,297.6,T,297.6,M,27.7,N,51.3,K,A*26
$GPRMC,004456,A,3721.352618,N,12156.614433,W,27.7,297.6,011216,0.0,E,A*3D
$GPGGA,004456,3721.352618,N,12156.614433,W,1,11,0.8,22.0,M,-27.0,M,,*49
$GPGSV,3,1,12,01,25,210,25,03,81,296,26,06,04,324,21,09,15,281,24*7D
$GPGSV,3,2,12,11,04,203,14,14,16,075,17,16,27,135,26,22,76,163,25*7E
$GPGSV,3,3,12,23,49,300,30,26,36,099,20,31,29,045,23,07,01,223,*79
$GLGSV,3,1,09,78,47,036,22,70,08,313,22,80,22,198,19,79,77,135,13*62
$GLGSV,3,2,09,69,57,347,22,85,07,302,20,67,02,119,14,68,49,094,25*6F
$GLGSV,3,3,09,84,03,255,*51
$GPGSV,3,1,12,01,25,210,25,03,81,296,26,06,04,324,21,09,15,281,24*7D
$GPGSV,3,2,12,11,04,203,14,14,16,075,17,16,27,135,26,22,76,163,25*7E
$GPGSV,3,3,12,23,49,300,30,26,36,099,20,31,29,045,23,07,01,223,*79
$GLGSV,3,1,09,78,47,036,22,70,08,313,22,80,22,198,19,79,77,135,13*62
$GLGSV,3,2,09,69,57,347,22,85,07,302,20,67,02,119,14,68,49,094,25*6F
$GLGSV,3,3,09,84,03,255,*51
$GPGSA,A,3,01,03,06,09,11,14,16,22,23,26,31,,1.1,0.8,0.7*35
$GPVTG,281.5,T,281.5,M,26.7,N,49.5,K,A*28
$GPRMC,004457,A,3721.351847,N,12156.623103,W,26.7,281.5,011216,0.0,E,A*3C
$GPGGA,004457,3721.351847,N,12156.623103,W,1,11,0.8,21.0,M,-27.0,M,,*4E
$GPGSV,3,1,12,01,24,210,28,03,81,295,27,06,04,324,21,09,15,281,25*72
$GPGSV,3,2,12,11,03,203,14,14,16,075,21,16,27,135,24,22,75,163,25*7D
$GPGSV,3,3,12,23,49,300,28,26,36,099,26,31,29,045,24,07,01,223,*71
$GLGSV,3,1,09,78,47,036,24,70,08,313,22,80,22,198,19,79,77,135,19*6E
$GLGSV,3,2,09,69,57,347,23,85,07,302,10,67,02,119,13,68,49,094,27*68
$GLGSV,3,3,09,84,03,255,*51
$GPGSV,3,1,12,01,24,210,28,03,81,295,27,06,04,324,21,09,15,281,25*72
$GPGSV,3,2,12,11,03,203,14,14,16,075,21,16,27,135,24,22,75,163,25*7D
$GPGSV,3,3,12,23,49,300,28,26,36,099,26,31,29,045,24,07,01,223,*71
$GLGSV,3,1,09,78,47,036,24,70,08,313,22,80,22,198,19,79,77,135,19*6E
$GLGSV,3,2,09,69,57,347,23,85,07,302,10,67,02,119,13,68,49,094,27*68
$GLGSV,3,3,09,84,03,255,*51
$GPGSA,A,3,01,03,06,09,11,14,16,22,23,26,31,,1.1,0.8,0.7*35
$GPVTG,281.7,T,281.7,M,26.7,N,49.5,K,A*28
$GPRMC,004458,A,3721.354025,N,12156.632258,W,26.7,281.7,011216,0.0,E,A*35
$GPGGA,004458,3721.354025,N,12156.632258,W,1,11,0.8,19.0,M,-27.0,M,,*4E
$GPGSV,3,1,12,01,24,210,25,03,81,295,21,06,04,324,18,09,15,281,21*77
$GPGSV,3,2,12,11,03,203,14,14,16,075,21,16,27,135,19,22,75,163,18*7D
$GPGSV,3,3,12,23,49,300,26,26,36,099,26,31,29,045,24,07,01,223,*7F
$GLGSV,3,1,09,78,47,036,22,70,09,313,22,80,22,198,19,79,77,135,19*69
$GLGSV,3,2,09,69,57,348,23,85,07,302,10,67,02,119,14,68,49,094,25*62
$GLGSV,3,3,09,84,03,255,*51
$GPGSV,3,1,12,01,24,210,25,03,81,295,21,06,04,324,18,09,15,281,21*77
$GPGSV,3,2,12,11,03,203,14,14,16,075,21,16,27,135,19,22,75,163,18*7D
$GPGSV,3,3,12,23,49,300,26,26,36,099,26,31,29,045,24,07,01,223,*7F
$GLGSV,3,1,09,78,47,036,22,70,09,313,22,80,22,198,19,79,77,135,19*69
$GLGSV,3,2,09,69,57,348,23,85,07,302,10,67,02,119,14,68,49,094,25*62
$GLGSV,3,3,09,84,03,255,*51
$GPGSA,A,3,01,03,06,09,11,14,16,22,23,26,31,,1.0,0.8,0.7*34
$GPVTG,278.7,T,278.7,M,25.8,N,47.7,K,A*28
$GPRMC,004459,A,3721.354062,N,12156.641115,W,25.8,278.7,011216,0.0,E,A*33
$GPGGA,004459,3721.354062,N,12156.641115,W,1,11,0.8,19.0,M,-27.0,M,,*42
$GPGSV,3,1,12,01,24,210,23,03,81,295,24,06,04,324,18,09,15,281,17*71
