$GPGSV,3,1,10,03,02,170,,05,08,320,,07,61,310,,08,25,119,*75
$GPGSV,3,2,10,09,82,075,,16,19,040,,23,46,122,,27,23,075,*77
$GPGSV,3,3,10,28,13,209,,30,35,275,*7E
$GLGSV,3,1,09,66,61,194,14,77,49,277,15,85,09,042,14,67,49,314,24*60
$GLGSV,3,2,09,78,04,244,,76,53,014,,75,04,049,,65,09,163,*63
$GLGSV,3,3,09,68,00,000,*52
$GPGSA,A,1,,,,,,,,,,,,,,,*1E
$GPVTG,,T,,M,,N,,K,N*2C
$GPRMC,,V,,,,,,,,,,N*53
$GPGGA,,,,,,0,,,,,,,,*66
$GPGSV,3,1,10,07,61,310,32,16,19,040,18,23,46,122,30,03,02,170,*7D
$GPGSV,3,2,10,05,08,320,,08,25,119,,09,82,075,,27,23,075,*74
$GPGSV,3,3,10,28,13,209,,30,35,275,*7E
$GLGSV,3,1,10,78,04,244,,66,61,194,,86,09,092,,77,49,277,*67
$GLGSV,3,2,10,76,52,014,,75,04,049,,65,09,163,,85,09,042,*61
$GLGSV,3,3,10,67,49,313,,68,00,000,*67
$GPGSA,A,1,,,,,,,,,,,,,,,*1E
$GPVTG,,T,,M,,N,,K,N*2C
$GPRMC,,V,,,,,,,,,,N*53
$GPGGA,,,,,,0,,,,,,,,*66
$GPGSV,3,1,10,07,61,310,32,16,19,040,18,23,46,122,30,03,02,170,*7D
$GPGSV,3,2,10,05,08,320,,08,25,119,,09,82,075,,27,23,075,*74
$GPGSV,3,3,10,28,13,209,,30,35,275,*7E
$GLGSV,3,1,10,65,09,163,20,78,04,244,,66,61,194,,86,09,092,*64
$GLGSV,3,2,10,77,49,277,,76,52,014,,75,04,049,,85,09,042,*60
$GLGSV,3,3,10,67,49,313,,68,00,000,*67
$GPGSA,A,1,,,,,,,,,,,,,,,*1E
$GPVTG,,T,,M,,N,,K,N*2C
$GPRMC,,V,,,,,,,,,,N*53
$GPGGA,,,,,,0,,,,,,,,*66
$GPGSV,3,1,10,07,61,310,32,08,25,119,23,09,82,075,22,16,19,040,21*77
$GPGSV,3,2,10,23,46,122,30,03,02,170,,05,08,320,,27,23,075,*75
$GPGSV,3,3,10,28,13,209,,30,35,275,*7E
$GLGSV,3,1,10,65,09,163,20,78,04,244,,66,61,194,,86,09,092,*64
$GLGSV,3,2,10,77,49,277,,76,52,014,,75,04,049,,85,09,042,*60
$GLGSV,3,3,10,67,49,313,,68,00,000,*67
$GPGSA,A,1,,,,,,,,,,,,,,,*1E
$GPVTG,,T,,M,,N,,K,N*2C
$GPRMC,,V,,,,,,,,,,N*53
$GPGGA,,,,,,0,,,,,,,,*66
$GPGSV,3,1,10,07,61,310,30,08,25,119,21,09,82,075,18,16,19,040,19*75
$GPGSV,3,2,10,23,46,122,28,27,23,075,19,03,02,170,,05,08,320,*74
$GPGSV,3,3,10,28,13,209,,30,35,275,*7E
$GLGSV,3,1,10,65,09,163,20,67,49,313,18,78,04,244,,66,61,194,*6C
$GLGSV,3,2,10,86,09,092,,77,49,277,,76,52,014,,75,04,049,*6E
$GLGSV,3,3,10,85,09,042,,68,00,000,*68
$GPGSA,A,1,,,,,,,,,,,,,,,*1E
$GPVTG,,T,,M,,N,,K,N*2C
$GPRMC,,V,,,,,,,,,,N*53
$GPGGA,,,,,,0,,,,,,,,*66
$GPGSV,3,1,10,07,61,310,32,08,25,119,20,09,82,075,16,16,19,040,20*72
$GPGSV,3,2,10,23,46,122,30,27,23,075,20,28,13,209,16,30,35,275,15*79
$GPGSV,3,3,10,03,02,170,,05,08,320,*73
$GLGSV,3,1,10,66,61,194,19,65,09,163,18,67,49,313,16,78,04,244,*61
$GLGSV,3,2,10,86,09,092,,77,49,277,,76,52,014,,75,04,049,*6E
$GLGSV,3,3,10,85,09,042,,68,00,000,*68
$GPGSV,3,1,10,07,61,310,32,08,25,119,20,09,82,075,16,16,19,040,20*72
$GPGSV,3,2,10,23,46,122,30,27,23,075,20,28,13,209,16,30,35,275,15*79
$GPGSV,3,3,10,03,02,170,,05,08,320,*73
$GLGSV,3,1,10,66,61,194,19,65,09,163,18,67,49,313,16,78,04,244,*61
$GLGSV,3,2,10,86,09,092,,77,49,277,,76,52,014,,75,04,049,*6E
$GLGSV,3,3,10,85,09,042,,68,00,000,*68
$GPGSA,A,3,07,08,09,16,23,27,28,30,,,,,1.2,0.8,0.8*3D
$GPVTG,174.1,T,174.1,M,21.4,N,39.6,K,A*28
$GPRMC,051941,A,3721.388660,N,12158.665622,W,21.4,174.1,111116,0.0,E,A*3A
$GPGGA,051941,3721.388660,N,12158.665622,W,1,08,0.8,25.0,M,-27.0,M,,*4F
$GPGSV,3,1,10,07,61,310,32,08,25,119,23,09,82,075,16,16,19,040,20*71
$GPGSV,3,2,10,23,46,122,29,27,23,075,20,28,13,209,16,30,35,275,17*73
$GPGSV,3,3,10,03,02,170,,05,08,320,*73
$GLGSV,3,1,10,66,61,194,17,65,09,163,18,67,49,313,16,78,04,244,*6F
$GLGSV,3,2,10,86,09,092,,77,49,277,,76,52,014,,75,04,049,*6E
$GLGSV,3,3,10,85,09,042,,68,00,000,*68
$GPGSV,3,1,10,07,61,310,32,08,25,119,23,09,82,075,16,16,19,040,20*71
$GPGSV,3,2,10,23,46,122,29,27,23,075,20,28,13,209,16,30,35,275,17*73
$GPGSV,3,3,10,03,02,170,,05,08,320,*73
$GLGSV,3,1,10,66,61,194,17,65,09,163,18,67,49,313,16,78,04,244,*6F
$GLGSV,3,2,10,86,09,092,,77,49,277,,76,52,014,,75,04,049,*6E
$GLGSV,3,3,10,85,09,042,,68,00,000,*68
$GPGSA,A,3,07,08,09,16,23,27,28,30,,,,,1.2,0.8,0.8*3D
$GPVTG,175.1,T,175.1,M,21.9,N,40.5,K,A*28
$GPRMC,051942,A,3721.379250,N,12158.670444,W,21.9,175.1,111116,0.0,E,A*3A
$GPGGA,051942,3721.379250,N,12158.670444,W,1,08,0.8,6.0,M,-27.0,M,,*72
$GPGSV,3,1,10,07,61,310,30,08,25,119,21,09,82,075,14,16,19,040,20*73
$GPGSV,3,2,10,23,46,122,28,27,23,075,19,28,13,209,16,30,35,275,16*79
$GPGSV,3,3,10,03,02,170,,05,08,320,*73
$GLGSV,3,1,10,66,61,194,17,65,09,163,17,67,49,313,16,78,04,244,*60
$GLGSV,3,2,10,86,09,092,,77,49,277,,76,52,014,,75,04,049,*6E
$GLGSV,3,3,10,85,09,042,,68,00,000,*68
$GPGSV,3,1,10,07,61,310,30,08,25,119,21,09,82,075,14,16,19,040,20*73
$GPGSV,3,2,10,23,46,122,28,27,23,075,19,28,13,209,16,30,35,275,16*79
$GPGSV,3,3,10,03,02,170,,05,08,320,*73
$GLGSV,3,1,10,66,61,194,17,65,09,163,17,67,49,313,16,78,04,244,*60
$GLGSV,3,2,10,86,09,092,,77,49,277,,76,52,014,,75,04,049,*6E
$GLGSV,3,3,10,85,09,042,,68,00,000,*68
$GPGSA,A,3,07,08,09,16,23,27,28,30,,,,,1.1,0.8,0.8*3E
$GPVTG,176.6,T,176.6,M,20.9,N,38.7,K,A*24
$GPRMC,051943,A,3721.373189,N,12158.669173,W,20.9,176.6,111116,0.0,E,A*3A
$GPGGA,051943,3721.373189,N,12158.669173,W,1,08,0.8,7.0,M,-27.0,M,,*76
$GPGSV,3,1,10,07,61,310,30,08,25,119,17,09,82,075,14,16,19,040,20*76
$GPGSV,3,2,10,23,46,122,27,27,23,075,17,28,13,209,16,30,35,275,16*78
$GPGSV,3,3,10,03,02,170,,05,08,320,*73
$GLGSV,3,1,10,66,61,194,17,77,49,277,15,65,09,163,16,67,49,313,16*63
$GLGSV,3,2,10,78,04,244,,86,09,092,,76,52,014,,75,04,049,*68
$GLGSV,3,3,10,85,09,042,,68,00,000,*68
$GPGSV,3,1,10,07,61,310,30,08,25,119,17,09,82,075,14,16,19,040,20*76
$GPGSV,3,2,10,23,46,122,27,27,23,075,17,28,13,209,16,30,35,275,16*78
$GPGSV,3,3,10,03,02,170,,05,08,320,*73
$GLGSV,3,1,10,66,61,194,17,77,49,277,15,65,09,163,16,67,49,313,16*63
$GLGSV,3,2,10,78,04,244,,86,09,092,,76,52,014,,75,04,049,*68
$GLGSV,3,3,10,85,09,042,,68,00,000,*68
$GPGSA,A,3,07,08,09,16,23,27,28,30,,,,,1.1,0.8,0.8*3E
$GPVTG,183.8,T,183.8,M,20.9,N,38.7,K,A*24
$GPRMC,051944,A,3721.364589,N,12158.672293,W,20.9,183.8,111116,0.0,E,A*3C
$GPGGA,051944,3721.364589,N,12158.672293,W,1,08,0.8,1.0,M,-27.0,M,,*72
$GPGSV,3,1,10,07,61,310,30,08,25,119,18,09,82,075,13,16,19,040,13*7E
$GPGSV,3,2,10,23,46,122,27,27,23,075,16,28,13,209,16,30,35,275,17*78
$GPGSV,3,3,10,03,02,170,,05,08,320,*73
$GLGSV,3,1,10,66,61,194,17,77,49,277,15,65,09,163,16,67,49,313,16*63
$GLGSV,3,2,10,78,04,244,,86,09,092,,76,52,014,,75,04,049,*68
$GLGSV,3,3,10,85,09,042,,68,00,000,*68
$GPGSV,3,1,10,07,61,310,30,08,25,119,18,09,82,075,13,16,19,040,13*7E
$GPGSV,3,2,10,23,46,122,27,27,23,075,16,28,13,209,16,30,35,275,17*78
$GPGSV,3,3,10,03,02,170,,05,08,320,*73
$GLGSV,3,1,10,66,61,194,17,77,49,277,15,65,09,163,16,67,49,313,16*63
$GLGSV,3,2,10,78,04,244,,86,09,092,,76,52,014,,75,04,049,*68
$GLGSV,3,3,10,85,09,042,,68,00,000,*68
$GPGSA,A,3,07,08,09,16,23,27,28,30,,,,,1.1,0.8,0.8*3E
$GPVTG,188.6,T,188.6,M,19.4,N,36.0,K,A*2A
$GPRMC,051945,A,3721.357433,N,12158.674905,W,19.4,188.6,111116,0.0,E,A*3D
$GPGGA,051945,3721.357433,N,12158.674905,W,1,08,0.8,-9.0,M,-27.0,M,,*54
$GPGSV,3,1,10,07,61,310,29,08,25,119,18,09,82,075,13,16,19,040,18*7D
$GPGSV,3,2,10,23,46,122,28,27,23,075,16,28,13,209,16,30,35,275,17*77
$GPGSV,3,3,10,03,02,170,,05,08,320,*73
$GLGSV,3,1,10,66,61,194,16,77,49,277,14,65,09,163,15,67,49,313,14*62
$GLGSV,3,2,10,78,04,244,,86,09,092,,76,52,014,,75,04,049,*68
$GLGSV,3,3,10,85,09,042,,68,00,000,*68
$GPGSV,3,1,10,07,61,310,29,08,25,119,18,09,82,075,13,16,19,040,18*7D
$GPGSV,3,2,10,23,46,122,28,27,23,075,16,28,13,209,16,30,35,275,17*77
$GPGSV,3,3,10,03,02,170,,05,08,320,*73
$GLGSV,3,1,10,66,61,194,16,77,49,277,14,65,09,163,15,67,49,313,14*62
$GLGSV,3,2,10,78,04,244,,86,09,092,,76,52,014,,75,04,049,*68
$GLGSV,3,3,10,85,09,042,,68,00,000,*68
$GPGSA,A,3,07,08,09,16,23,27,28,30,,,,,1.1,0.8,0.8*3E
$GPVTG,198.9,T,198.9,M,20.9,N,38.7,K,A*24
$GPRMC,051946,A,3721.348861,N,12158.681236,W,20.9,198.9,111116,0.0,E,A*33
$GPGGA,051946,3721.348861,N,12158.681236,W,1,08,0.8,-10.0,M,-27.0,M,,*6B
$GPGSV,3,1,10,07,61,310,26,08,25,119,19,09,82,075,13,16,19,040,21*79
$GPGSV,3,2,10,23,46,122,27,27,23,075,17,28,13,209,16,30,35,275,17*79
$GPGSV,3,3,10,03,02,170,,05,08,320,*73
$GLGSV,3,1,10,66,61,194,15,77,49,277,14,65,09,163,15,67,49,313,15*60
$GLGSV,3,2,10,78,04,244,,86,09,092,,76,52,014,,75,04,049,*68
$GLGSV,3,3,10,85,09,042,,68,00,000,*68
$GPGSV,3,1,10,07,61,310,26,08,25,119,19,09,82,075,13,16,19,040,21*79
$GPGSV,3,2,10,23,46,122,27,27,23,075,17,28,13,209,16,30,35,275,17*79
$GPGSV,3,3,10,03,02,170,,05,08,320,*73
$GLGSV,3,1,10,66,61,194,15,77,49,277,14,65,09,163,15,67,49,313,15*60
$GLGSV,3,2,10,78,04,244,,86,09,092,,76,52,014,,75,04,049,*68
$GLGSV,3,3,10,85,09,042,,68,00,000,*68
$GPGSA,A,3,07,08,09,16,23,27,28,30,,,,,1.1,0.8,0.8*3E
$GPVTG,199.4,T,199.4,M,16.5,N,30.6,K,A*24
$GPRMC,051947,A,3721.350941,N,12158.677752,W,16.5,199.4,111116,0.0,E,A*33
$GPGGA,051947,3721.350941,N,12158.677752,W,1,08,0.8,-4.0,M,-27.0,M,,*5B
$GPGSV,3,1,10,05,08,320,16,07,61,310,29,08,25,119,22,09,82,075,14*7A
$GPGSV,3,2,10,16,19,040,18,23,46,122,28,27,23,075,20,28,13,209,16*73
$GPGSV,3,3,10,30,35,275,17,03,02,170,*7C
$GLGSV,3,1,10,66,61,194,14,77,49,277,14,65,09,163,14,67,49,313,15*60
$GLGSV,3,2,10,78,04,244,,86,09,092,,76,52,014,,75,04,049,*68
$GLGSV,3,3,10,85,09,042,,68,00,000,*68
$GPGSV,3,1,10,05,08,320,16,07,61,310,29,08,25,119,22,09,82,075,14*7A
$GPGSV,3,2,10,16,19,040,18,23,46,122,28,27,23,075,20,28,13,209,16*73
$GPGSV,3,3,10,30,35,275,17,03,02,170,*7C
$GLGSV,3,1,10,66,61,194,14,77,49,277,14,65,09,163,14,67,49,313,15*60
$GLGSV,3,2,10,78,04,244,,86,09,092,,76,52,014,,75,04,049,*68
$GLGSV,3,3,10,85,09,042,,68,00,000,*68
$GPGSA,A,3,05,07,08,09,16,23,27,28,30,,,,1.0,0.8,0.7*35
$GPVTG,209.6,T,209.6,M,16.0,N,29.7,K,A*28
$GPRMC,051948,A,3721.347441,N,12158.680992,W,16.0,209.6,111116,0.0,E,A*30
$GPGGA,051948,3721.347441,N,12158.680992,W,1,09,0.8,-2.0,M,-27.0,M,,*52
$GPGSV,3,1,10,05,08,320,17,07,61,310,29,08,25,119,24,09,82,075,14*7D
$GPGSV,3,2,10,16,19,040,21,23,46,122,28,27,23,075,21,28,13,209,16*78
$GPGSV,3,3,10,30,35,275,16,03,02,170,*7D
$GLGSV,3,1,10,66,61,194,14,77,49,277,13,65,09,163,12,67,49,313,15*61
$GLGSV,3,2,10,78,04,244,,86,09,092,,76,52,014,,75,04,049,*68
$GLGSV,3,3,10,85,09,042,,68,00,000,*68
$GPGSV,3,1,10,05,08,320,17,07,61,310,29,08,25,119,24,09,82,075,14*7D
$GPGSV,3,2,10,16,19,040,21,23,46,122,28,27,23,075,21,28,13,209,16*78
$GPGSV,3,3,10,30,35,275,16,03,02,170,*7D
$GLGSV,3,1,10,66,61,194,14,77,49,277,13,65,09,163,12,67,49,313,15*61
$GLGSV,3,2,10,78,04,244,,86,09,092,,76,52,014,,75,04,049,*68
$GLGSV,3,3,10,85,09,042,,68,00,000,*68
$GPGSA,A,3,05,07,08,09,16,23,27,28,30,,,,1.2,0.9,0.7*36
$GPVTG,215.5,T,215.5,M,14.1,N,26.1,K,A*22
$GPRMC,051949,A,3721.347365,N,12158.681907,W,14.1,215.5,111116,0.0,E,A*30
$GPGGA,051949,3721.347365,N,12158.681907,W,1,09,0.9,3.0,M,-27.0,M,,*72
$GPGSV,3,1,10,05,08,320,17,07,61,310,30,08,25,119,25,09,82,075,14*74
$GPGSV,3,2,10,16,19,040,23,23,46,122,24,27,23,075,23,28,13,209,16*74
$GPGSV,3,3,10,30,35,275,16,03,02,170,*7D
$GLGSV,3,1,10,66,61,194,13,77,49,277,13,65,09,163,12,67,49,313,16*65
$GLGSV,3,2,10,78,04,244,,86,09,092,,76,52,014,,75,04,049,*68
$GLGSV,3,3,10,85,09,042,,68,00,000,*68
$GPGSV,3,1,10,05,08,320,17,07,61,310,30,08,25,119,25,09,82,075,14*74
$GPGSV,3,2,10,16,19,040,23,23,46,122,24,27,23,075,23,28,13,209,16*74
$GPGSV,3,3,10,30,35,275,16,03,02,170,*7D
$GLGSV,3,1,10,66,61,194,13,77,49,277,13,65,09,163,12,67,49,313,16*65
$GLGSV,3,2,10,78,04,244,,86,09,092,,76,52,014,,75,04,049,*68
$GLGSV,3,3,10,85,09,042,,68,00,000,*68
$GPGSA,A,3,05,07,08,09,16,23,27,28,30,,,,1.2,0.9,0.7*36
$GPVTG,206.8,T,206.8,M,7.3,N,13.5,K,A*10
$GPRMC,051950,A,3721.352414,N,12158.675687,W,7.3,206.8,111116,0.0,E,A*0E
$GPGGA,051950,3721.352414,N,12158.675687,W,1,09,0.9,4.0,M,-27.0,M,,*74
$GPGSV,3,1,10,05,08,320,22,07,61,310,30,08,25,119,25,09,82,075,20*75
$GPGSV,3,2,10,16,19,040,22,23,46,122,27,27,23,075,24,28,13,209,16*71
$GPGSV,3,3,10,30,35,275,16,03,02,170,*7D
$GLGSV,3,1,10,66,61,194,13,77,49,277,13,65,09,163,12,67,49,313,16*65
$GLGSV,3,2,10,78,04,244,,86,09,092,,76,52,014,,75,04,049,*68
$GLGSV,3,3,10,85,09,042,,68,00,000,*68
$GPGSV,3,1,10,05,08,320,22,07,61,310,30,08,25,119,25,09,82,075,20*75
$GPGSV,3,2,10,16,19,040,22,23,46,122,27,27,23,075,24,28,13,209,16*71
$GPGSV,3,3,10,30,35,275,16,03,02,170,*7D
$GLGSV,3,1,10,66,61,194,13,77,49,277,13,65,09,163,12,67,49,313,16*65
$GLGSV,3,2,10,78,04,244,,86,09,092,,76,52,014,,75,04,049,*68
$GLGSV,3,3,10,85,09,042,,68,00,000,*68
$GPGSA,A,3,05,07,08,09,16,23,27,28,30,,,,1.2,0.9,0.7*36
$GPVTG,207.4,T,207.4,M,7.3,N,13.5,K,A*10
$GPRMC,051951,A,3721.350300,N,12158.676303,W,7.3,207.4,111116,0.0,E,A*08
$GPGGA,051951,3721.350300,N,12158.676303,W,1,09,0.9,5.0,M,-27.0,M,,*7E
$GPGSV,3,1,10,05,08,320,23,07,61,310,30,08,25,119,24,09,82,075,21*74
$GPGSV,3,2,10,16,19,040,22,23,46,122,27,27,23,075,23,28,13,209,16*76
$GPGSV,3,3,10,30,35,275,16,03,02,170,*7D
$GLGSV,3,1,10,66,61,194,13,77,49,277,13,65,09,163,12,67,49,313,16*65
$GLGSV,3,2,10,78,04,244,,86,09,092,,76,52,014,,75,04,049,*68
$GLGSV,3,3,10,85,09,042,,68,00,000,*68
$GPGSV,3,1,10,05,08,320,23,07,61,310,30,08,25,119,24,09,82,075,21*74
$GPGSV,3,2,10,16,19,040,22,23,46,122,27,27,23,075,23,28,13,209,16*76
$GPGSV,3,3,10,30,35,275,16,03,02,170,*7D
$GLGSV,3,1,10,66,61,194,13,77,49,277,13,65,09,163,12,67,49,313,16*65
$GLGSV,3,2,10,78,04,244,,86,09,092,,76,52,014,,75,04,049,*68
$GLGSV,3,3,10,85,09,042,,68,00,000,*68
$GPGSA,A,3,05,07,08,09,16,23,27,28,30,,,,1.2,0.9,0.7*36
$GPVTG,214.3,T,214.3,M,4.9,N,9.0,K,A*27
$GPRMC,051952,A,3721.351460,N,12158.675696,W,4.9,214.3,111116,0.0,E,A*0D
$GPGGA,051952,3721.351460,N,12158.675696,W,1,09,0.9,8.0,M,-27.0,M,,*7A
$GPGSV,3,1,10,05,08,320,24,07,61,310,29,08,25,119,26,09,82,075,20*78
$GPGSV,3,2,10,16,19,040,21,23,46,122,27,27,23,075,24,28,13,209,16*72
$GPGSV,3,3,10,30,35,275,16,03,02,170,*7D
$GLGSV,3,1,10,66,61,194,17,77,49,277,13,65,09,163,12,67,49,313,16*61
$GLGSV,3,2,10,78,04,244,,86,09,092,,76,52,014,,75,04,049,*68
$GLGSV,3,3,10,85,09,042,,68,00,000,*68
$GPGSV,3,1,10,05,08,320,24,07,61,310,29,08,25,119,26,09,82,075,20*78
$GPGSV,3,2,10,16,19,040,21,23,46,122,27,27,23,075,24,28,13,209,16*72
$GPGSV,3,3,10,30,35,275,16,03,02,170,*7D
$GLGSV,3,1,10,66,61,194,17,77,49,277,13,65,09,163,12,67,49,313,16*61
$GLGSV,3,2,10,78,04,244,,86,09,092,,76,52,014,,75,04,049,*68
$GLGSV,3,3,10,85,09,042,,68,00,000,*68
$GPGSA,A,3,05,07,08,09,16,23,27,28,30,,,,1.2,0.9,0.7*36
$GPVTG,211.2,T,211.2,M,2.4,N,4.5,K,A*24
$GPRMC,051953,A,3721.353379,N,12158.672674,W,2.4,211.2,111116,0.0,E,A*05
$GPGGA,051953,3721.353379,N,12158.672674,W,1,09,0.9,15.0,M,-27.0,M,,*41
$GPGSV,3,1,10,05,08,320,22,07,61,310,28,08,25,119,26,09,82,075,18*74
$GPGSV,3,2,10,16,19,040,21,23,46,122,29,27,23,075,24,28,13,209,16*7C
$GPGSV,3,3,10,30,35,275,15,03,02,170,*7E
$GLGSV,3,1,10,66,61,194,18,77,49,277,13,65,09,163,12,67,49,313,15*6D
$GLGSV,3,2,10,78,04,244,,86,09,092,,76,52,014,,75,04,049,*68
$GLGSV,3,3,10,85,09,042,,68,00,000,*68
$GPGSV,3,1,10,05,08,320,22,07,61,310,28,08,25,119,26,09,82,075,18*74
$GPGSV,3,2,10,16,19,040,21,23,46,122,29,27,23,075,24,28,13,209,16*7C
$GPGSV,3,3,10,30,35,275,15,03,02,170,*7E
$GLGSV,3,1,10,66,61,194,18,77,49,277,13,65,09,163,12,67,49,313,15*6D
$GLGSV,3,2,10,78,04,244,,86,09,092,,76,52,014,,75,04,049,*68
$GLGSV,3,3,10,85,09,042,,68,00,000,*68
$GPGSA,A,3,05,07,08,09,16,23,27,28,30,,,,1.2,0.9,0.7*36
$GPVTG,,T,,M,0.0,N,0.0,K,A*23
$GPRMC,051954,A,3721.357161,N,12158.668269,W,0.0,,111116,0.0,E,A*26
$GPGGA,051954,3721.357161,N,12158.668269,W,1,09,0.9,18.0,M,-27.0,M,,*47
$GPGSV,3,1,10,05,08,320,21,07,61,312,27,08,25,119,26,09,82,077,18*78
$GPGSV,3,2,10,16,18,040,22,23,46,122,28,27,23,075,25,28,13,209,15*7D
$GPGSV,3,3,10,30,35,275,15,03,02,170,*7E
$GLGSV,3,1,10,66,61,194,18,77,49,277,13,65,09,163,12,67,49,313,15*6D
$GLGSV,3,2,10,78,04,244,,86,09,092,,76,52,014,,75,04,049,*68
$GLGSV,3,3,10,85,09,042,,68,00,000,*68
$GPGSV,3,1,10,05,08,320,21,07,61,312,27,08,25,119,26,09,82,077,18*78
$GPGSV,3,2,10,16,18,040,22,23,46,122,28,27,23,075,25,28,13,209,15*7D
$GPGSV,3,3,10,30,35,275,15,03,02,170,*7E
$GLGSV,3,1,10,66,61,194,18,77,49,277,13,65,09,163,12,67,49,313,15*6D
$GLGSV,3,2,10,78,04,244,,86,09,092,,76,52,014,,75,04,049,*68
$GLGSV,3,3,10,85,09,042,,68,00,000,*68
$GPGSA,A,3,05,07,08,09,16,23,27,28,30,,,,1.0,0.8,0.7*35
$GPVTG,,T,,M,0.0,N,0.0,K,A*23
$GPRMC,051955,A,3721.357055,N,12158.669132,W,0.0,,111116,0.0,E,A*2D
$GPGGA,051955,3721.357055,N,12158.669132,W,1,09,0.8,17.0,M,-27.0,M,,*42
$GPGSV,3,1,10,05,08,320,22,07,61,312,26,08,25,119,26,09,82,077,18*7A
$GPGSV,3,2,10,16,18,040,22,23,46,122,28,27,23,075,24,28,13,209,16*7F
$GPGSV,3,3,10,30,35,275,15,03,02,170,*7E
$GLGSV,3,1,10,66,61,194,19,77,49,277,13,65,09,163,12,67,49,313,15*6C
$GLGSV,3,2,10,78,04,244,,86,09,092,,76,52,014,,75,03,050,*67
$GLGSV,3,3,10,85,09,042,,68,00,000,*68
$GPGSV,3,1,10,05,08,320,22,07,61,312,26,08,25,119,26,09,82,077,18*7A
$GPGSV,3,2,10,16,18,040,22,23,46,122,28,27,23,075,24,28,13,209,16*7F
$GPGSV,3,3,10,30,35,275,15,03,02,170,*7E
$GLGSV,3,1,10,66,61,194,19,77,49,277,13,65,09,163,12,67,49,313,15*6C
$GLGSV,3,2,10,78,04,244,,86,09,092,,76,52,014,,75,03,050,*67
$GLGSV,3,3,10,85,09,042,,68,00,000,*68
$GPGSA,A,3,05,07,08,09,16,23,27,28,30,,,,1.0,0.7,0.7*3A
$GPVTG,,T,,M,0.0,N,0.0,K,A*23
$GPRMC,051956,A,3721.356039,N,12158.669804,W,0.0,,111116,0.0,E,A*29
$GPGGA,051956,3721.356039,N,12158.669804,W,1,09,0.7,18.0,M,-27.0,M,,*46
$GPGSV,3,1,10,05,08,320,22,07,61,312,26,08,25,119,27,09,82,077,18*7B
$GPGSV,3,2,10,16,18,040,21,23,46,122,28,27,23,075,25,28,13,209,16*7D
$GPGSV,3,3,10,30,35,275,15,03,02,170,*7E
$GLGSV,3,1,10,66,61,194,19,86,09,092,14,77,49,277,13,65,09,163,12*6C
$GLGSV,3,2,10,67,49,313,14,78,04,244,,76,52,014,,75,03,050,*63
$GLGSV,3,3,10,85,09,042,,68,00,000,*68
$GPGSV,3,1,10,05,08,320,22,07,61,312,26,08,25,119,27,09,82,077,18*7B
$GPGSV,3,2,10,16,18,040,21,23,46,122,28,27,23,075,25,28,13,209,16*7D
$GPGSV,3,3,10,30,35,275,15,03,02,170,*7E
$GLGSV,3,1,10,66,61,194,19,86,09,092,14,77,49,277,13,65,09,163,12*6C
$GLGSV,3,2,10,67,49,313,14,78,04,244,,76,52,014,,75,03,050,*63
$GLGSV,3,3,10,85,09,042,,68,00,000,*68
$GPGSA,A,3,05,07,08,09,16,23,27,28,30,,,,1.0,0.7,0.7*3A
$GPVTG,,T,,M,0.0,N,0.0,K,A*23
$GPRMC,051957,A,3721.356500,N,12158.669350,W,0.0,,111116,0.0,E,A*2D
$GPGGA,051957,3721.356500,N,12158.669350,W,1,09,0.7,20.0,M,-27.0,M,,*49
$GPGSV,3,1,10,05,08,320,21,07,61,312,27,08,25,119,25,09,82,077,18*7B
$GPGSV,3,2,10,16,18,040,19,23,46,122,26,27,23,075,22,28,13,209,16*7F
$GPGSV,3,3,10,30,35,275,15,03,02,170,*7E
$GLGSV,3,1,10,66,61,194,19,86,09,092,14,77,49,277,13,65,09,163,12*6C
$GLGSV,3,2,10,67,49,313,14,78,04,244,,76,52,014,,75,03,050,*63
$GLGSV,3,3,10,85,09,042,,68,00,000,*68
$GPGSV,3,1,10,05,08,320,21,07,61,312,27,08,25,119,25,09,82,077,18*7B
$GPGSV,3,2,10,16,18,040,19,23,46,122,26,27,23,075,22,28,13,209,16*7F
$GPGSV,3,3,10,30,35,275,15,03,02,170,*7E
$GLGSV,3,1,10,66,61,194,19,86,09,092,14,77,49,277,13,65,09,163,12*6C
$GLGSV,3,2,10,67,49,313,14,78,04,244,,76,52,014,,75,03,050,*63
$GLGSV,3,3,10,85,09,042,,68,00,000,*68
$GPGSA,A,3,05,07,08,09,16,23,27,28,30,,,,1.1,0.8,0.7*34
$GPVTG,,T,,M,0.0,N,0.0,K,A*23
$GPRMC,051958,A,3721.356763,N,12158.669096,W,0.0,,111116,0.0,E,A*2C
$GPGGA,051958,3721.356763,N,12158.669096,W,1,09,0.8,20.0,M,-27.0,M,,*47
$GPGSV,3,1,10,05,08,320,21,07,61,312,29,08,25,119,26,09,82,077,21*7C
$GPGSV,3,2,10,16,18,040,20,23,46,122,26,27,23,075,23,28,13,209,16*74
$GPGSV,3,3,10,30,35,275,15,03,02,170,*7E
$GLGSV,3,1,10,66,61,194,19,86,09,092,14,77,49,277,13,65,09,163,12*6C
$GLGSV,3,2,10,67,49,313,14,78,04,244,,76,52,014,,75,03,050,*63
$GLGSV,3,3,10,85,09,042,,68,00,000,*68
$GPGSV,3,1,10,05,08,320,21,07,61,312,29,08,25,119,26,09,82,077,21*7C
$GPGSV,3,2,10,16,18,040,20,23,46,122,26,27,23,075,23,28,13,209,16*74
$GPGSV,3,3,10,30,35,275,15,03,02,170,*7E
$GLGSV,3,1,10,66,61,194,19,86,09,092,14,77,49,277,13,65,09,163,12*6C
$GLGSV,3,2,10,67,49,313,14,78,04,244,,76,52,014,,75,03,050,*63
$GLGSV,3,3,10,85,09,042,,68,00,000,*68
$GPGSA,A,3,05,07,08,09,16,23,27,28,30,,,,1.1,0.8,0.7*34
$GPVTG,,T,,M,0.0,N,0.0,K,A*23
$GPRMC,051959,A,3721.357509,N,12158.668581,W,0.0,,111116,0.0,E,A*20
$GPGGA,051959,3721.357509,N,12158.668581,W,1,09,0.8,22.0,M,-27.0,M,,*49
$GPGSV,3,1,10,05,08,320,22,07,61,312,29,08,25,119,26,09,82,077,19*74
$GPGSV,3,2,10,16,18,040,21,23,46,122,27,27,23,075,22,28,13,209,15*76
$GPGSV,3,3,10,30,35,275,15,03,02,170,*7E
$GLGSV,3,1,10,66,61,194,15,86,09,092,12,77,49,277,13,65,09,163,12*66
$GLGSV,3,2,10,67,49,313,14,78,04,244,,76,52,014,,75,03,050,*63
$GLGSV,3,3,10,85,09,042,,68,00,000,*68
$GPGSV,3,1,10,05,08,320,22,07,61,312,29,08,25,119,26,09,82,077,19*74
$GPGSV,3,2,10,16,18,040,21,23,46,122,27,27,23,075,22,28,13,209,15*76
$GPGSV,3,3,10,30,35,275,15,03,02,170,*7E
$GLGSV,3,1,10,66,61,194,15,86,09,092,12,77,49,277,13,65,09,163,12*66
$GLGSV,3,2,10,67,49,313,14,78,04,244,,76,52,014,,75,03,050,*63
$GLGSV,3,3,10,85,09,042,,68,00,000,*68
$GPGSA,A,3,05,07,08,09,16,23,27,28,30,,,,1.0,0.7,0.7*3A
$GPVTG,,T,,M,0.0,N,0.0,K,A*23
$GPRMC,052000,A,3721.357629,N,12158.668437,W,0.0,,111116,0.0,E,A*2B
$GPGGA,052000,3721.357629,N,12158.668437,W,1,09,0.7,23.0,M,-27.0,M,,*4C
$GPGSV,3,1,10,05,08,320,21,07,61,312,30,08,25,119,26,09,82,077,19*7F
$GPGSV,3,2,10,16,18,040,18,23,46,122,27,27,23,075,24,28,13,209,15*7A
$GPGSV,3,3,10,30,35,275,15,03,02,170,*7E
$GLGSV,3,1,10,66,61,194,18,86,09,092,12,77,49,277,13,65,09,163,12*6B
$GLGSV,3,2,10,85,09,042,12,67,49,313,14,78,04,244,,76,52,014,*66
$GLGSV,3,3,10,75,03,050,,68,00,000,*6E
$GPGSV,3,1,10,05,08,320,21,07,61,312,30,08,25,119,26,09,82,077,19*7F
$GPGSV,3,2,10,16,18,040,18,23,46,122,27,27,23,075,24,28,13,209,15*7A
$GPGSV,3,3,10,30,35,275,15,03,02,170,*7E
$GLGSV,3,1,10,66,61,194,18,86,09,092,12,77,49,277,13,65,09,163,12*6B
$GLGSV,3,2,10,85,09,042,12,67,49,313,14,78,04,244,,76,52,014,*66
$GLGSV,3,3,10,75,03,050,,68,00,000,*6E
$GPGSA,A,3,05,07,08,09,16,23,27,28,30,,,,1.1,0.8,0.7*34
$GPVTG,,T,,M,0.0,N,0.0,K,A*23
$GPRMC,052001,A,3721.357438,N,12158.668394,W,0.0,,111116,0.0,E,A*26
$GPGGA,052001,3721.357438,N,12158.668394,W,1,09,0.8,24.0,M,-27.0,M,,*49
$GPGSV,3,1,10,05,08,320,21,07,61,312,30,08,25,119,26,09,82,077,19*7F
$GPGSV,3,2,10,16,18,040,18,23,46,122,27,27,23,075,24,28,13,209,15*7A
$GPGSV,3,3,10,30,35,275,15,03,02,170,*7E
$GLGSV,3,1,10,66,61,194,19,86,09,092,12,77,49,277,13,65,09,163,12*6A
$GLGSV,3,2,10,85,09,042,12,67,49,313,14,78,04,244,,76,52,014,*66
$GLGSV,3,3,10,75,03,050,,68,00,000,*6E
$GPGSV,3,1,10,05,08,320,21,07,61,312,30,08,25,119,26,09,82,077,19*7F
$GPGSV,3,2,10,16,18,040,18,23,46,122,27,27,23,075,24,28,13,209,15*7A
$GPGSV,3,3,10,30,35,275,15,03,02,170,*7E
$GLGSV,3,1,10,66,61,194,19,86,09,092,12,77,49,277,13,65,09,163,12*6A
$GLGSV,3,2,10,85,09,042,12,67,49,313,14,78,04,244,,76,52,014,*66
$GLGSV,3,3,10,75,03,050,,68,00,000,*6E
$GPGSA,A,3,05,07,08,09,16,23,27,28,30,,,,1.1,0.8,0.7*34
$GPVTG,,T,,M,0.0,N,0.0,K,A*23
$GPRMC,052002,A,3721.356900,N,12158.669381,W,0.0,,111116,0.0,E,A*27
$GPGGA,052002,3721.356900,N,12158.669381,W,1,09,0.8,24.0,M,-27.0,M,,*48
$GPGSV,3,1,10,05,08,320,21,07,61,312,29,08,25,119,26,09,82,077,19*77
$GPGSV,3,2,10,16,18,040,19,23,46,122,26,27,23,075,22,28,13,209,15*7C
$GPGSV,3,3,10,30,35,275,15,03,02,170,*7E
$GLGSV,3,1,10,66,61,194,19,86,09,092,12,77,49,277,13,65,09,163,12*6A
$GLGSV,3,2,10,85,09,042,12,67,49,313,14,78,04,244,,76,52,014,*66
$GLGSV,3,3,10,75,03,050,,68,00,000,*6E
$GPGSV,3,1,10,05,08,320,21,07,61,312,29,08,25,119,26,09,82,077,19*77
$GPGSV,3,2,10,16,18,040,19,23,46,122,26,27,23,075,22,28,13,209,15*7C
$GPGSV,3,3,10,30,35,275,15,03,02,170,*7E
$GLGSV,3,1,10,66,61,194,19,86,09,092,12,77,49,277,13,65,09,163,12*6A
$GLGSV,3,2,10,85,09,042,12,67,49,313,14,78,04,244,,76,52,014,*66
$GLGSV,3,3,10,75,03,050,,68,00,000,*6E
$GPGSA,A,3,05,07,08,09,16,23,27,28,30,,,,1.1,0.8,0.7*34
$GPVTG,,T,,M,0.0,N,0.0,K,A*23
$GPRMC,052003,A,3721.356368,N,12158.669781,W,0.0,,111116,0.0,E,A*26
$GPGGA,052003,3721.356368,N,12158.669781,W,1,09,0.8,25.0,M,-27.0,M,,*48
$GPGSV,3,1,10,05,08,320,19,07,61,312,29,08,25,119,27,09,82,077,18*7C
$GPGSV,3,2,10,16,18,040,20,23,46,122,27,27,23,075,22,28,13,209,15*77
$GPGSV,3,3,10,30,35,275,15,03,02,170,*7E
$GLGSV,3,1,10,66,61,194,16,86,09,092,12,77,49,277,13,65,09,163,12*65
$GLGSV,3,2,10,85,09,042,12,67,49,313,14,78,04,244,,76,52,014,*66
$GLGSV,3,3,10,75,03,050,,68,00,000,*6E
$GPGSV,3,1,10,05,08,320,19,07,61,312,29,08,25,119,27,09,82,077,18*7C
$GPGSV,3,2,10,16,18,040,20,23,46,122,27,27,23,075,22,28,13,209,15*77
$GPGSV,3,3,10,30,35,275,15,03,02,170,*7E
$GLGSV,3,1,10,66,61,194,16,86,09,092,12,77,49,277,13,65,09,163,12*65
$GLGSV,3,2,10,85,09,042,12,67,49,313,14,78,04,244,,76,52,014,*66
$GLGSV,3,3,10,75,03,050,,68,00,000,*6E
$GPGSA,A,3,05,07,08,09,16,23,27,28,30,,,,1.1,0.8,0.7*34
$GPVTG,,T,,M,0.0,N,0.0,K,A*23
$GPRMC,052004,A,3721.356443,N,12158.669834,W,0.0,,111116,0.0,E,A*2E
$GPGGA,052004,3721.356443,N,12158.669834,W,1,09,0.8,25.0,M,-27.0,M,,*40
$GPGSV,3,1,10,05,08,320,19,07,61,312,29,08,25,119,27,09,82,077,18*7C
$GPGSV,3,2,10,16,18,040,21,23,46,122,28,27,23,075,20,28,13,209,15*7B
$GPGSV,3,3,10,30,35,275,15,03,02,170,*7E
$GLGSV,3,1,10,66,61,194,16,86,09,092,12,77,49,277,13,65,09,163,12*65
$GLGSV,3,2,10,85,09,042,12,67,49,313,14,78,04,244,,76,52,014,*66
$GLGSV,3,3,10,75,03,050,,68,00,000,*6E
$GPGSV,3,1,10,05,08,320,19,07,61,312,29,08,25,119,27,09,82,077,18*7C
$GPGSV,3,2,10,16,18,040,21,23,46,122,28,27,23,075,20,28,13,209,15*7B
$GPGSV,3,3,10,30,35,275,15,03,02,170,*7E
$GLGSV,3,1,10,66,61,194,16,86,09,092,12,77,49,277,13,65,09,163,12*65
$GLGSV,3,2,10,85,09,042,12,67,49,313,14,78,04,244,,76,52,014,*66
$GLGSV,3,3,10,75,03,050,,68,00,000,*6E
$GPGSA,A,3,05,07,08,09,16,23,27,28,30,,,,1.1,0.8,0.7*34
$GPVTG,211.2,T,211.2,M,1.5,N,2.7,K,A*22
$GPRMC,052005,A,3721.356239,N,12158.669679,W,1.5,211.2,111116,0.0,E,A*09
$GPGGA,052005,3721.356239,N,12158.669679,W,1,09,0.8,25.0,M,-27.0,M,,*4D
$GPGSV,3,1,10,05,08,320,18,07,61,312,31,08,25,119,26,09,82,077,22*7C
$GPGSV,3,2,10,16,18,040,23,23,46,122,31,27,23,075,19,28,13,209,14*7A
$GPGSV,3,3,10,30,35,275,15,03,02,170,*7E
$GLGSV,3,1,10,66,61,194,18,86,09,092,12,77,49,277,13,65,09,163,12*6B
$GLGSV,3,2,10,85,09,042,15,67,49,313,14,78,04,244,,76,52,014,*61
$GLGSV,3,3,10,75,03,050,,68,00,000,*6E
$GPGSV,3,1,10,05,08,320,18,07,61,312,31,08,25,119,26,09,82,077,22*7C
$GPGSV,3,2,10,16,18,040,23,23,46,122,31,27,23,075,19,28,13,209,14*7A
$GPGSV,3,3,10,30,35,275,15,03,02,170,*7E
$GLGSV,3,1,10,66,61,194,18,86,09,092,12,77,49,277,13,65,09,163,12*6B
$GLGSV,3,2,10,85,09,042,15,67,49,313,14,78,04,244,,76,52,014,*61
$GLGSV,3,3,10,75,03,050,,68,00,000,*6E
$GPGSA,A,3,05,07,08,09,16,23,27,28,30,,,,1.1,0.8,0.7*34
$GPVTG,84.9,T,84.9,M,2.9,N,5.4,K,A*29
$GPRMC,052006,A,3721.358902,N,12158.666643,W,2.9,84.9,111116,0.0,E,A*3B
$GPGGA,052006,3721.358902,N,12158.666643,W,1,09,0.8,22.0,M,-27.0,M,,*42
$GPGSV,3,1,10,05,08,320,18,07,61,312,31,08,25,119,26,09,82,077,19*74
$GPGSV,3,2,10,16,18,040,19,23,46,122,29,27,23,075,20,28,13,209,14*70
$GPGSV,3,3,10,30,35,275,15,03,02,170,*7E
$GLGSV,3,1,10,66,61,194,18,86,09,092,12,77,49,277,13,65,09,163,12*6B
$GLGSV,3,2,10,85,09,042,15,67,49,313,14,78,04,244,,76,52,014,*61
$GLGSV,3,3,10,75,03,050,,68,00,000,*6E
$GPGSV,3,1,10,05,08,320,18,07,61,312,31,08,25,119,26,09,82,077,19*74
$GPGSV,3,2,10,16,18,040,19,23,46,122,29,27,23,075,20,28,13,209,14*70
$GPGSV,3,3,10,30,35,275,15,03,02,170,*7E
$GLGSV,3,1,10,66,61,194,18,86,09,092,12,77,49,277,13,65,09,163,12*6B
$GLGSV,3,2,10,85,09,042,15,67,49,313,14,78,04,244,,76,52,014,*61
$GLGSV,3,3,10,75,03,050,,68,00,000,*6E
$GPGSA,A,3,05,07,08,09,16,23,27,28,30,,,,1.1,0.8,0.7*34
$GPVTG,141.1,T,141.1,M,3.9,N,7.2,K,A*2C
$GPRMC,052007,A,3721.355375,N,12158.668697,W,3.9,141.1,111116,0.0,E,A*0B
$GPGGA,052007,3721.355375,N,12158.668697,W,1,09,0.8,22.0,M,-27.0,M,,*43
$GPGSV,3,1,10,05,08,320,18,07,61,312,30,08,25,119,26,09,82,077,19*75
$GPGSV,3,2,10,16,18,040,20,23,46,122,28,27,23,075,18,28,13,209,14*70
$GPGSV,3,3,10,30,35,275,20,03,02,170,*78
$GLGSV,3,1,10,66,61,194,18,86,09,092,13,77,49,277,13,65,09,163,12*6A
$GLGSV,3,2,10,85,09,042,15,67,49,313,14,78,04,244,,76,52,014,*61
$GLGSV,3,3,10,75,03,050,,68,00,000,*6E
$GPGSV,3,1,10,05,08,320,18,07,61,312,30,08,25,119,26,09,82,077,19*75
$GPGSV,3,2,10,16,18,040,20,23,46,122,28,27,23,075,18,28,13,209,14*70
$GPGSV,3,3,10,30,35,275,20,03,02,170,*78
$GLGSV,3,1,10,66,61,194,18,86,09,092,13,77,49,277,13,65,09,163,12*6A
$GLGSV,3,2,10,85,09,042,15,67,49,313,14,78,04,244,,76,52,014,*61
$GLGSV,3,3,10,75,03,050,,68,00,000,*6E
$GPGSA,A,3,05,07,08,09,16,23,27,28,30,,,,1.0,0.7,0.7*3A
$GPVTG,128.2,T,128.2,M,5.3,N,9.9,K,A*25
$GPRMC,052008,A,3721.355306,N,12158.666175,W,5.3,128.2,111116,0.0,E,A*05
$GPGGA,052008,3721.355306,N,12158.666175,W,1,09,0.7,22.0,M,-27.0,M,,*42
$GPGSV,3,1,10,05,08,320,18,07,61,312,30,08,25,119,25,09,82,077,19*76
$GPGSV,3,2,10,16,18,040,17,23,46,122,28,27,23,075,17,28,13,209,14*7B
$GPGSV,3,3,10,30,35,275,20,03,02,170,*78
$GLGSV,3,1,10,66,61,194,18,86,09,092,13,77,49,277,13,65,09,163,12*6A
$GLGSV,3,2,10,85,09,042,15,67,49,313,11,78,04,244,,76,52,014,*64
$GLGSV,3,3,10,75,03,050,,68,00,000,*6E
$GPGSV,3,1,10,05,08,320,18,07,61,312,30,08,25,119,25,09,82,077,19*76
$GPGSV,3,2,10,16,18,040,17,23,46,122,28,27,23,075,17,28,13,209,14*7B
$GPGSV,3,3,10,30,35,275,20,03,02,170,*78
$GLGSV,3,1,10,66,61,194,18,86,09,092,13,77,49,277,13,65,09,163,12*6A
$GLGSV,3,2,10,85,09,042,15,67,49,313,11,78,04,244,,76,52,014,*64
$GLGSV,3,3,10,75,03,050,,68,00,000,*6E
$GPGSA,A,3,05,07,08,09,16,23,27,28,30,,,,1.0,0.7,0.7*3A
$GPVTG,119.3,T,119.3,M,6.3,N,11.7,K,A*11
$GPRMC,052009,A,3721.355648,N,12158.663241,W,6.3,119.3,111116,0.0,E,A*0A
$GPGGA,052009,3721.355648,N,12158.663241,W,1,09,0.7,23.0,M,-27.0,M,,*4C
$GPGSV,3,1,10,05,08,320,18,07,61,312,27,08,25,119,24,09,82,077,19*71
$GPGSV,3,2,10,16,18,040,20,23,46,122,28,27,23,075,17,28,13,209,14*7F
$GPGSV,3,3,10,30,35,275,20,03,02,170,*78
$GLGSV,3,1,09,66,61,194,18,86,09,092,17,65,09,163,12,85,09,042,15*6D
$GLGSV,3,2,09,67,49,313,11,78,04,244,,76,52,014,,75,03,050,*6E
$GLGSV,3,3,09,68,00,000,*52
$GPGSV,3,1,10,05,08,320,18,07,61,312,27,08,25,119,24,09,82,077,19*71
$GPGSV,3,2,10,16,18,040,20,23,46,122,28,27,23,075,17,28,13,209,14*7F
$GPGSV,3,3,10,30,35,275,20,03,02,170,*78
$GLGSV,3,1,09,66,61,194,18,86,09,092,17,65,09,163,12,85,09,042,15*6D
$GLGSV,3,2,09,67,49,313,11,78,04,244,,76,52,014,,75,03,050,*6E
$GLGSV,3,3,09,68,00,000,*52
$GPGSA,A,3,05,07,08,09,16,23,27,28,30,,,,1.0,0.7,0.7*3A
$GPVTG,128.2,T,128.2,M,7.3,N,13.5,K,A*10
$GPRMC,052010,A,3721.353359,N,12158.661945,W,7.3,128.2,111116,0.0,E,A*0E
$GPGGA,052010,3721.353359,N,12158.661945,W,1,09,0.7,21.0,M,-27.0,M,,*48
$GPGSV,3,1,10,05,08,320,14,07,61,312,24,08,25,119,25,09,82,077,19*7F
$GPGSV,3,2,10,16,18,040,19,23,46,122,28,27,23,075,18,28,13,209,14*7A
$GPGSV,3,3,10,30,35,275,20,03,02,170,*78
$GLGSV,3,1,09,66,61,194,18,86,09,092,17,85,09,042,15,67,49,313,11*6D
$GLGSV,3,2,09,78,04,244,,77,49,277,,76,52,014,,75,03,050,*6C
$GLGSV,3,3,09,68,00,000,*52
$GPGSV,3,1,10,05,08,320,14,07,61,312,24,08,25,119,25,09,82,077,19*7F
$GPGSV,3,2,10,16,18,040,19,23,46,122,28,27,23,075,18,28,13,209,14*7A
$GPGSV,3,3,10,30,35,275,20,03,02,170,*78
$GLGSV,3,1,09,66,61,194,18,86,09,092,17,85,09,042,15,67,49,313,11*6D
$GLGSV,3,2,09,78,04,244,,77,49,277,,76,52,014,,75,03,050,*6C
$GLGSV,3,3,09,68,00,000,*52
$GPGSA,A,3,05,07,08,09,16,23,27,28,30,,,,1.0,0.7,0.7*3A
$GPVTG,157.7,T,157.7,M,7.3,N,13.5,K,A*10
$GPRMC,052011,A,3721.350296,N,12158.662853,W,7.3,157.7,111116,0.0,E,A*06
$GPGGA,052011,3721.350296,N,12158.662853,W,1,09,0.7,23.0,M,-27.0,M,,*4F
$GPGSV,3,1,10,05,08,320,19,07,61,312,22,08,25,119,23,09,82,077,19*72
$GPGSV,3,2,10,16,18,040,21,23,46,122,28,27,23,075,19,28,13,209,14*70
$GPGSV,3,3,10,30,35,275,16,03,02,170,*7D
$GLGSV,3,1,10,66,61,194,18,86,09,092,17,85,09,042,15,67,49,313,11*65
$GLGSV,3,2,10,78,04,244,,77,49,277,,76,52,014,,75,03,050,*64
$GLGSV,3,3,10,65,09,163,,68,00,000,*64
$GPGSV,3,1,10,05,08,320,19,07,61,312,22,08,25,119,23,09,82,077,19*72
$GPGSV,3,2,10,16,18,040,21,23,46,122,28,27,23,075,19,28,13,209,14*70
$GPGSV,3,3,10,30,35,275,16,03,02,170,*7D
$GLGSV,3,1,10,66,61,194,18,86,09,092,17,85,09,042,15,67,49,313,11*65
$GLGSV,3,2,10,78,04,244,,77,49,277,,76,52,014,,75,03,050,*64
$GLGSV,3,3,10,65,09,163,,68,00,000,*64
$GPGSA,A,3,05,07,08,09,16,23,27,28,30,,,,1.0,0.7,0.7*3A
$GPVTG,173.7,T,173.7,M,8.3,N,15.3,K,A*1F
$GPRMC,052012,A,3721.346148,N,12158.663933,W,8.3,173.7,111116,0.0,E,A*0D
$GPGGA,052012,3721.346148,N,12158.663933,W,1,09,0.7,24.0,M,-27.0,M,,*4A
$GPGSV,3,1,10,05,08,320,19,07,61,312,24,08,25,119,23,09,82,077,15*78
$GPGSV,3,2,10,16,18,040,20,23,46,122,28,27,23,075,17,28,13,209,14*7F
$GPGSV,3,3,10,30,35,275,18,03,02,170,*73
$GLGSV,3,1,10,66,61,194,14,86,09,092,17,85,09,042,15,67,49,313,11*69
$GLGSV,3,2,10,78,04,244,,77,49,277,,76,52,014,,75,03,050,*64
$GLGSV,3,3,10,65,09,163,,68,00,000,*64
$GPGSV,3,1,10,05,08,320,19,07,61,312,24,08,25,119,23,09,82,077,15*78
$GPGSV,3,2,10,16,18,040,20,23,46,122,28,27,23,075,17,28,13,209,14*7F
$GPGSV,3,3,10,30,35,275,18,03,02,170,*73
$GLGSV,3,1,10,66,61,194,14,86,09,092,17,85,09,042,15,67,49,313,11*69
$GLGSV,3,2,10,78,04,244,,77,49,277,,76,52,014,,75,03,050,*64
$GLGSV,3,3,10,65,09,163,,68,00,000,*64
$GPGSA,A,3,05,07,08,09,16,23,27,28,30,,,,1.2,0.9,0.8*39
$GPVTG,167.9,T,167.9,M,13.6,N,25.2,K,A*22
$GPRMC,052013,A,3721.335505,N,12158.664600,W,13.6,167.9,111116,0.0,E,A*39
$GPGGA,052013,3721.335505,N,12158.664600,W,1,09,0.9,24.0,M,-27.0,M,,*44
$GPGSV,3,1,10,05,08,320,19,07,61,312,27,08,25,119,17,09,82,077,15*7C
$GPGSV,3,2,10,16,18,040,18,23,46,122,29,27,23,075,16,28,13,209,14*74
$GPGSV,3,3,10,30,35,275,18,03,02,170,*73
$GLGSV,3,1,10,66,61,194,14,86,09,092,17,77,49,277,14,85,09,042,15*6E
$GLGSV,3,2,10,67,49,313,11,78,04,244,,76,52,014,,75,03,050,*66
$GLGSV,3,3,10,65,09,163,,68,00,000,*64
$GPGSV,3,1,10,05,08,320,19,07,61,312,27,08,25,119,17,09,82,077,15*7C
$GPGSV,3,2,10,16,18,040,18,23,46,122,29,27,23,075,16,28,13,209,14*74
$GPGSV,3,3,10,30,35,275,18,03,02,170,*73
$GLGSV,3,1,10,66,61,194,14,86,09,092,17,77,49,277,14,85,09,042,15*6E
$GLGSV,3,2,10,67,49,313,11,78,04,244,,76,52,014,,75,03,050,*66
$GLGSV,3,3,10,65,09,163,,68,00,000,*64
$GPGSA,A,3,05,07,08,09,16,23,27,28,30,,,,1.2,0.9,0.8*39
$GPVTG,170.0,T,170.0,M,15.6,N,28.8,K,A*23
$GPRMC,052014,A,3721.329394,N,12158.664961,W,15.6,170.0,111116,0.0,E,A*3C
$GPGGA,052014,3721.329394,N,12158.664961,W,1,09,0.9,24.0,M,-27.0,M,,*48
$GPGSV,3,1,10,05,08,320,19,07,61,312,27,08,25,119,17,09,82,077,15*7C
$GPGSV,3,2,10,16,18,040,20,23,46,122,29,27,23,075,16,28,13,209,14*7F
$GPGSV,3,3,10,30,35,275,18,03,02,170,*73
$GLGSV,3,1,10,66,61,194,14,86,09,092,17,77,49,277,16,85,09,042,15*6C
$GLGSV,3,2,10,67,49,313,13,78,04,244,,76,52,014,,75,03,050,*64
$GLGSV,3,3,10,65,09,163,,68,00,000,*64
$GPGSV,3,1,10,05,08,320,19,07,61,312,27,08,25,119,17,09,82,077,15*7C
$GPGSV,3,2,10,16,18,040,20,23,46,122,29,27,23,075,16,28,13,209,14*7F
$GPGSV,3,3,10,30,35,275,18,03,02,170,*73
$GLGSV,3,1,10,66,61,194,14,86,09,092,17,77,49,277,16,85,09,042,15*6C
$GLGSV,3,2,10,67,49,313,13,78,04,244,,76,52,014,,75,03,050,*64
$GLGSV,3,3,10,65,09,163,,68,00,000,*64
$GPGSA,A,3,05,07,08,09,16,23,27,28,30,,,,1.2,0.9,0.8*39
$GPVTG,170.5,T,170.5,M,17.5,N,32.4,K,A*25
$GPRMC,052015,A,3721.322710,N,12158.664300,W,17.5,170.5,111116,0.0,E,A*37
$GPGGA,052015,3721.322710,N,12158.664300,W,1,09,0.9,24.0,M,-27.0,M,,*47
$GPGSV,3,1,10,05,08,320,19,07,61,312,28,08,25,119,20,09,82,077,15*77
$GPGSV,3,2,10,16,18,040,20,23,46,122,29,27,23,075,16,28,13,209,13*78
$GPGSV,3,3,10,30,35,275,16,03,02,170,*7D
$GLGSV,3,1,10,66,61,194,16,86,09,092,17,77,49,277,16,85,09,042,15*6E
$GLGSV,3,2,10,67,49,313,13,78,04,244,,76,52,014,,75,03,050,*64
$GLGSV,3,3,10,65,09,163,,68,00,000,*64
$GPGSV,3,1,10,05,08,320,19,07,61,312,28,08,25,119,20,09,82,077,15*77
$GPGSV,3,2,10,16,18,040,20,23,46,122,29,27,23,075,16,28,13,209,13*78
$GPGSV,3,3,10,30,35,275,16,03,02,170,*7D
$GLGSV,3,1,10,66,61,194,16,86,09,092,17,77,49,277,16,85,09,042,15*6E
$GLGSV,3,2,10,67,49,313,13,78,04,244,,76,52,014,,75,03,050,*64
$GLGSV,3,3,10,65,09,163,,68,00,000,*64
$GPGSA,A,3,05,07,08,09,16,23,27,28,30,,,,1.1,0.8,0.7*34
$GPVTG,169.9,T,169.9,M,18.0,N,33.3,K,A*29
$GPRMC,052016,A,3721.318322,N,12158.663327,W,18.0,169.9,111116,0.0,E,A*34
$GPGGA,052016,3721.318322,N,12158.663327,W,1,09,0.8,24.0,M,-27.0,M,,*4B
$GPGSV,3,1,10,05,08,320,19,07,61,312,29,08,25,119,22,09,82,077,16*77
$GPGSV,3,2,10,16,18,040,20,23,46,122,28,27,23,075,16,28,13,209,13*79
$GPGSV,3,3,10,30,35,275,16,03,02,170,*7D
$GLGSV,3,1,10,66,61,194,16,86,09,092,17,77,49,277,16,85,09,042,15*6E
$GLGSV,3,2,10,67,49,313,13,78,04,244,,76,52,014,,75,03,050,*64
$GLGSV,3,3,10,65,09,163,,68,00,000,*64
$GPGSV,3,1,10,05,08,320,19,07,61,312,29,08,25,119,22,09,82,077,16*77
$GPGSV,3,2,10,16,18,040,20,23,46,122,28,27,23,075,16,28,13,209,13*79
$GPGSV,3,3,10,30,35,275,16,03,02,170,*7D
$GLGSV,3,1,10,66,61,194,16,86,09,092,17,77,49,277,16,85,09,042,15*6E
$GLGSV,3,2,10,67,49,313,13,78,04,244,,76,52,014,,75,03,050,*64
$GLGSV,3,3,10,65,09,163,,68,00,000,*64
$GPGSA,A,3,05,07,08,09,16,23,27,28,30,,,,1.1,0.8,0.8*3B
$GPVTG,167.2,T,167.2,M,18.5,N,34.2,K,A*2A
$GPRMC,052017,A,3721.312818,N,12158.660547,W,18.5,167.2,111116,0.0,E,A*3E
$GPGGA,052017,3721.312818,N,12158.660547,W,1,09,0.8,23.0,M,-27.0,M,,*46
$GPGSV,3,1,10,05,08,320,19,07,61,312,29,08,25,119,18,09,82,077,16*7E
$GPGSV,3,2,10,16,18,040,16,23,46,122,29,27,23,075,14,28,13,209,13*7F
$GPGSV,3,3,10,30,35,275,17,03,02,170,*7C
$GLGSV,3,1,10,66,61,194,16,86,09,092,17,77,49,277,15,85,09,042,15*6D
$GLGSV,3,2,10,67,49,313,13,78,04,244,,76,52,014,,75,03,050,*64
$GLGSV,3,3,10,65,09,163,,68,00,000,*64
$GPGSV,3,1,10,05,08,320,19,07,61,312,29,08,25,119,18,09,82,077,16*7E
$GPGSV,3,2,10,16,18,040,16,23,46,122,29,27,23,075,14,28,13,209,13*7F
$GPGSV,3,3,10,30,35,275,17,03,02,170,*7C
$GLGSV,3,1,10,66,61,194,16,86,09,092,17,77,49,277,15,85,09,042,15*6D
$GLGSV,3,2,10,67,49,313,13,78,04,244,,76,52,014,,75,03,050,*64
$GLGSV,3,3,10,65,09,163,,68,00,000,*64
$GPGSA,A,3,05,07,08,09,16,23,27,28,30,,,,1.1,0.8,0.8*3B
$GPVTG,175.4,T,175.4,M,20.4,N,37.8,K,A*29
$GPRMC,052018,A,3721.303755,N,12158.664309,W,20.4,175.4,111116,0.0,E,A*30
$GPGGA,052018,3721.303755,N,12158.664309,W,1,09,0.8,23.0,M,-27.0,M,,*47
$GPGSV,3,1,10,05,08,320,19,07,61,312,29,08,25,119,23,09,82,077,18*78
$GPGSV,3,2,10,16,18,040,18,23,46,122,29,27,23,075,14,28,13,209,13*71
$GPGSV,3,3,10,30,35,275,17,03,02,170,*7C
$GLGSV,3,1,10,66,61,194,15,86,09,092,17,77,49,277,15,85,09,042,15*6E
$GLGSV,3,2,10,67,49,313,13,78,04,244,,76,52,014,,75,03,050,*64
$GLGSV,3,3,10,65,09,163,,68,00,000,*64
$GPGSV,3,1,10,05,08,320,19,07,61,312,29,08,25,119,23,09,82,077,18*78
$GPGSV,3,2,10,16,18,040,18,23,46,122,29,27,23,075,14,28,13,209,13*71
$GPGSV,3,3,10,30,35,275,17,03,02,170,*7C
$GLGSV,3,1,10,66,61,194,15,86,09,092,17,77,49,277,15,85,09,042,15*6E
$GLGSV,3,2,10,67,49,313,13,78,04,244,,76,52,014,,75,03,050,*64
$GLGSV,3,3,10,65,09,163,,68,00,000,*64
$GPGSA,A,3,05,07,08,09,16,23,27,28,30,,,,1.2,0.9,0.8*39
$GPVTG,169.4,T,169.4,M,19.0,N,35.1,K,A*2C
$GPRMC,052019,A,3721.301192,N,12158.660519,W,19.0,169.4,111116,0.0,E,A*3E
$GPGGA,052019,3721.301192,N,12158.660519,W,1,09,0.9,23.0,M,-27.0,M,,*4B
$GPGSV,3,1,10,05,08,320,19,07,61,312,29,08,25,119,23,09,82,077,20*73
$GPGSV,3,2,10,16,18,040,18,23,46,122,30,27,23,075,16,28,13,209,13*7B
$GPGSV,3,3,10,30,35,275,17,03,02,170,*7C
$GLGSV,3,1,10,66,61,194,15,86,09,092,17,77,49,277,15,85,09,042,15*6E
$GLGSV,3,2,10,67,49,313,13,78,04,244,,76,52,014,,75,03,050,*64
$GLGSV,3,3,10,65,09,163,,68,00,000,*64
$GPGSV,3,1,10,05,08,320,19,07,61,312,29,08,25,119,23,09,82,077,20*73
$GPGSV,3,2,10,16,18,040,18,23,46,122,30,27,23,075,16,28,13,209,13*7B
$GPGSV,3,3,10,30,35,275,17,03,02,170,*7C
$GLGSV,3,1,10,66,61,194,15,86,09,092,17,77,49,277,15,85,09,042,15*6E
$GLGSV,3,2,10,67,49,313,13,78,04,244,,76,52,014,,75,03,050,*64
$GLGSV,3,3,10,65,09,163,,68,00,000,*64
$GPGSA,A,3,05,07,08,09,16,23,27,28,30,,,,1.2,0.9,0.8*39
$GPVTG,170.4,T,170.4,M,19.4,N,36.0,K,A*2A
$GPRMC,052020,A,3721.294961,N,12158.659712,W,19.4,170.4,111116,0.0,E,A*32
$GPGGA,052020,3721.294961,N,12158.659712,W,1,09,0.9,23.0,M,-27.0,M,,*4B
$GPGSV,3,1,10,05,08,320,19,07,61,312,30,08,25,119,18,09,82,077,20*73
$GPGSV,3,2,10,16,18,040,17,23,46,122,28,27,23,075,16,28,13,209,13*7D
$GPGSV,3,3,10,30,35,275,16,03,02,170,*7D
$GLGSV,3,1,10,66,61,194,15,86,09,092,12,77,49,277,15,85,09,042,15*6B
$GLGSV,3,2,10,67,49,313,13,78,04,244,,76,52,014,,75,03,050,*64
$GLGSV,3,3,10,65,09,163,,68,00,000,*64
$GPGSV,3,1,10,05,08,320,19,07,61,312,30,08,25,119,18,09,82,077,20*73
$GPGSV,3,2,10,16,18,040,17,23,46,122,28,27,23,075,16,28,13,209,13*7D
$GPGSV,3,3,10,30,35,275,16,03,02,170,*7D
$GLGSV,3,1,10,66,61,194,15,86,09,092,12,77,49,277,15,85,09,042,15*6B
$GLGSV,3,2,10,67,49,313,13,78,04,244,,76,52,014,,75,03,050,*64
$GLGSV,3,3,10,65,09,163,,68,00,000,*64
$GPGSA,A,3,05,07,08,09,16,23,27,28,30,,,,1.2,0.9,0.8*39
$GPVTG,172.3,T,172.3,M,19.9,N,36.9,K,A*2E
$GPRMC,052021,A,3721.288309,N,12158.659283,W,19.9,172.3,111116,0.0,E,A*3F
$GPGGA,052021,3721.288309,N,12158.659283,W,1,09,0.9,24.0,M,-27.0,M,,*49
$GPGSV,3,1,10,05,08,320,19,07,61,312,30,08,25,119,25,09,82,077,20*7D
$GPGSV,3,2,10,16,18,040,17,23,46,122,30,27,23,075,16,28,13,209,13*74
$GPGSV,3,3,10,30,35,275,20,03,02,170,*78
$GLGSV,3,1,10,66,61,194,15,86,09,092,12,77,49,277,15,85,09,042,15*6B
$GLGSV,3,2,10,67,49,313,13,78,04,244,,76,52,014,,75,03,050,*64
$GLGSV,3,3,10,65,09,163,,68,00,000,*64
$GPGSV,3,1,10,05,08,320,19,07,61,312,30,08,25,119,25,09,82,077,20*7D
$GPGSV,3,2,10,16,18,040,17,23,46,122,30,27,23,075,16,28,13,209,13*74
$GPGSV,3,3,10,30,35,275,20,03,02,170,*78
$GLGSV,3,1,10,66,61,194,15,86,09,092,12,77,49,277,15,85,09,042,15*6B
$GLGSV,3,2,10,67,49,313,13,78,04,244,,76,52,014,,75,03,050,*64
$GLGSV,3,3,10,65,09,163,,68,00,000,*64
$GPGSA,A,3,05,07,08,09,16,23,27,28,30,,,,1.1,0.8,0.8*3B
$GPVTG,171.3,T,171.3,M,19.9,N,36.9,K,A*2E
$GPRMC,052022,A,3721.283164,N,12158.657051,W,19.9,171.3,111116,0.0,E,A*3E
$GPGGA,052022,3721.283164,N,12158.657051,W,1,09,0.8,25.0,M,-27.0,M,,*4B
$GPGSV,3,1,10,05,08,320,19,07,61,312,31,08,25,119,25,09,82,077,20*7C
$GPGSV,3,2,10,16,18,040,17,23,46,122,29,27,23,075,15,28,13,209,13*7F
$GPGSV,3,3,10,30,35,275,20,03,02,170,*78
$GLGSV,3,1,10,66,61,194,15,86,09,092,12,77,49,277,15,85,09,042,10*6E
$GLGSV,3,2,10,67,49,313,13,78,04,244,,76,52,014,,75,03,050,*64
$GLGSV,3,3,10,65,09,163,,68,00,000,*64
$GPGSV,3,1,10,05,08,320,19,07,61,312,31,08,25,119,25,09,82,077,20*7C
$GPGSV,3,2,10,16,18,040,17,23,46,122,29,27,23,075,15,28,13,209,13*7F
$GPGSV,3,3,10,30,35,275,20,03,02,170,*78
$GLGSV,3,1,10,66,61,194,15,86,09,092,12,77,49,277,15,85,09,042,10*6E
$GLGSV,3,2,10,67,49,313,13,78,04,244,,76,52,014,,75,03,050,*64
$GLGSV,3,3,10,65,09,163,,68,00,000,*64
$GPGSA,A,3,05,07,08,09,16,23,27,28,30,,,,1.3,1.0,0.9*31
$GPVTG,164.5,T,164.5,M,17.0,N,31.5,K,A*22
$GPRMC,052023,A,3721.283381,N,12158.652555,W,17.0,164.5,111116,0.0,E,A*37
$GPGGA,052023,3721.283381,N,12158.652555,W,1,09,1.0,25.0,M,-27.0,M,,*4E
$GPGSV,3,1,10,05,08,320,19,07,61,312,29,08,25,119,26,09,82,077,20*76
$GPGSV,3,2,10,16,18,040,14,23,46,122,28,27,23,075,19,28,13,209,13*71
$GPGSV,3,3,10,30,35,275,20,03,02,170,*78
$GLGSV,3,1,10,66,61,194,15,86,09,092,12,77,49,277,15,85,09,042,18*66
$GLGSV,3,2,10,67,49,313,12,78,04,244,,76,52,014,,75,03,050,*65
$GLGSV,3,3,10,65,09,163,,68,00,000,*64
$GPGSV,3,1,10,05,08,320,19,07,61,312,29,08,25,119,26,09,82,077,20*76
$GPGSV,3,2,10,16,18,040,14,23,46,122,28,27,23,075,19,28,13,209,13*71
$GPGSV,3,3,10,30,35,275,20,03,02,170,*78
$GLGSV,3,1,10,66,61,194,15,86,09,092,12,77,49,277,15,85,09,042,18*66
$GLGSV,3,2,10,67,49,313,12,78,04,244,,76,52,014,,75,03,050,*65
$GLGSV,3,3,10,65,09,163,,68,00,000,*64
$GPGSA,A,3,05,07,08,09,16,23,27,28,30,,,,1.3,1.0,0.9*31
$GPVTG,169.0,T,169.0,M,18.5,N,34.2,K,A*2A
$GPRMC,052024,A,3721.276094,N,12158.653436,W,18.5,169.0,111116,0.0,E,A*3A
$GPGGA,052024,3721.276094,N,12158.653436,W,1,09,1.0,26.0,M,-27.0,M,,*42
$GPGSV,3,1,10,05,08,320,19,07,61,312,30,08,25,119,24,09,82,077,14*7B
$GPGSV,3,2,10,16,18,040,18,23,46,122,28,27,23,075,19,28,13,209,13*7D
$GPGSV,3,3,10,30,35,275,19,03,02,170,*72
$GLGSV,3,1,10,66,61,194,15,86,09,092,12,77,49,277,15,85,09,042,18*66
$GLGSV,3,2,10,67,49,313,12,78,04,244,,76,52,014,,75,03,050,*65
$GLGSV,3,3,10,65,09,163,,68,00,000,*64
$GPGSV,3,1,10,05,08,320,19,07,61,312,30,08,25,119,24,09,82,077,14*7B
$GPGSV,3,2,10,16,18,040,18,23,46,122,28,27,23,075,19,28,13,209,13*7D
$GPGSV,3,3,10,30,35,275,19,03,02,170,*72
$GLGSV,3,1,10,66,61,194,15,86,09,092,12,77,49,277,15,85,09,042,18*66
$GLGSV,3,2,10,67,49,313,12,78,04,244,,76,52,014,,75,03,050,*65
$GLGSV,3,3,10,65,09,163,,68,00,000,*64
$GPGSA,A,3,05,07,08,09,16,23,27,28,30,,,,1.3,1.0,0.9*31
$GPVTG,173.8,T,173.8,M,20.4,N,37.8,K,A*29
$GPRMC,052025,A,3721.266883,N,12158.654603,W,20.4,173.8,111116,0.0,E,A*3E
$GPGGA,052025,3721.266883,N,12158.654603,W,1,09,1.0,26.0,M,-27.0,M,,*4F
$GPGSV,3,1,10,05,08,320,17,07,61,312,30,08,25,119,23,09,82,077,14*72
$GPGSV,3,2,10,16,18,040,18,23,46,122,28,27,23,075,16,28,13,209,13*72
$GPGSV,3,3,10,30,35,275,19,03,02,170,*72
$GLGSV,3,1,10,66,61,194,15,86,09,092,12,77,49,277,15,85,09,042,18*66
$GLGSV,3,2,10,67,49,313,12,78,04,244,,76,52,014,,75,03,050,*65
$GLGSV,3,3,10,65,09,163,,68,00,000,*64
$GPGSV,3,1,10,05,08,320,17,07,61,312,30,08,25,119,23,09,82,077,14*72
$GPGSV,3,2,10,16,18,040,18,23,46,122,28,27,23,075,16,28,13,209,13*72
$GPGSV,3,3,10,30,35,275,19,03,02,170,*72
$GLGSV,3,1,10,66,61,194,15,86,09,092,12,77,49,277,15,85,09,042,18*66
$GLGSV,3,2,10,67,49,313,12,78,04,244,,76,52,014,,75,03,050,*65
$GLGSV,3,3,10,65,09,163,,68,00,000,*64
$GPGSA,A,3,05,07,08,09,16,23,27,28,30,,,,1.2,0.9,0.8*39
$GPVTG,176.1,T,176.1,M,20.9,N,38.7,K,A*24
$GPRMC,052026,A,3721.260033,N,12158.654639,W,20.9,176.1,111116,0.0,E,A*30
$GPGGA,052026,3721.260033,N,12158.654639,W,1,09,0.9,28.0,M,-27.0,M,,*46
$GPGSV,3,1,10,05,08,320,17,07,61,312,29,08,25,119,22,09,82,077,14*7B
$GPGSV,3,2,10,16,18,040,20,23,46,122,29,27,23,075,16,28,13,209,13*78
$GPGSV,3,3,10,30,35,275,19,03,02,170,*72
$GLGSV,3,1,10,66,61,194,15,86,09,092,13,77,49,277,15,85,09,042,18*67
$GLGSV,3,2,10,67,49,313,16,78,04,244,,76,52,014,,75,03,050,*61
$GLGSV,3,3,10,65,09,163,,68,00,000,*64
$GPGSV,3,1,10,05,08,320,17,07,61,312,29,08,25,119,22,09,82,077,14*7B
$GPGSV,3,2,10,16,18,040,20,23,46,122,29,27,23,075,16,28,13,209,13*78
$GPGSV,3,3,10,30,35,275,19,03,02,170,*72
$GLGSV,3,1,10,66,61,194,15,86,09,092,13,77,49,277,15,85,09,042,18*67
$GLGSV,3,2,10,67,49,313,16,78,04,244,,76,52,014,,75,03,050,*61
$GLGSV,3,3,10,65,09,163,,68,00,000,*64
$GPGSA,A,3,05,07,08,09,16,23,27,28,30,,,,1.2,0.9,0.8*39
$GPVTG,176.2,T,176.2,M,19.9,N,36.9,K,A*2E
$GPRMC,052027,A,3721.256474,N,12158.653903,W,19.9,176.2,111116,0.0,E,A*3B
$GPGGA,052027,3721.256474,N,12158.653903,W,1,09,0.9,28.0,M,-27.0,M,,*44
$GPGSV,3,1,10,05,08,320,17,07,61,312,27,08,25,119,21,09,82,077,14*76
$GPGSV,3,2,10,16,18,040,20,23,46,122,30,27,23,075,16,28,13,209,13*70
$GPGSV,3,3,10,30,35,275,19,03,02,170,*72
$GLGSV,3,1,10,66,61,194,15,86,09,092,18,77,49,277,15,85,09,042,18*6C
$GLGSV,3,2,10,67,49,313,16,78,04,244,,76,52,014,,75,03,050,*61
$GLGSV,3,3,10,65,09,163,,68,00,000,*64
$GPGSV,3,1,10,05,08,320,17,07,61,312,27,08,25,119,21,09,82,077,14*76
$GPGSV,3,2,10,16,18,040,20,23,46,122,30,27,23,075,16,28,13,209,13*70
$GPGSV,3,3,10,30,35,275,19,03,02,170,*72
$GLGSV,3,1,10,66,61,194,15,86,09,092,18,77,49,277,15,85,09,042,18*6C
$GLGSV,3,2,10,67,49,313,16,78,04,244,,76,52,014,,75,03,050,*61
$GLGSV,3,3,10,65,09,163,,68,00,000,*64
$GPGSA,A,3,05,07,08,09,16,23,27,28,30,,,,1.2,0.9,0.8*39
$GPVTG,179.9,T,179.9,M,21.4,N,39.6,K,A*28
$GPRMC,052028,A,3721.248306,N,12158.655330,W,21.4,179.9,111116,0.0,E,A*37
$GPGGA,052028,3721.248306,N,12158.655330,W,1,09,0.9,28.0,M,-27.0,M,,*4A
$GPGSV,3,1,10,05,08,320,17,07,61,312,24,08,25,119,19,09,82,077,14*7E
$GPGSV,3,2,10,16,18,040,19,23,46,122,29,27,23,075,16,28,13,209,13*72
$GPGSV,3,3,10,30,35,275,14,03,02,170,*7F
$GLGSV,3,1,10,66,61,194,15,86,09,092,18,77,49,277,15,85,09,042,18*6C
$GLGSV,3,2,10,67,49,313,16,78,04,244,,76,52,014,,75,03,050,*61
$GLGSV,3,3,10,65,09,163,,68,00,000,*64
$GPGSV,3,1,10,05,08,320,17,07,61,312,24,08,25,119,19,09,82,077,14*7E
$GPGSV,3,2,10,16,18,040,19,23,46,122,29,27,23,075,16,28,13,209,13*72
$GPGSV,3,3,10,30,35,275,14,03,02,170,*7F
$GLGSV,3,1,10,66,61,194,15,86,09,092,18,77,49,277,15,85,09,042,18*6C
$GLGSV,3,2,10,67,49,313,16,78,04,244,,76,52,014,,75,03,050,*61
$GLGSV,3,3,10,65,09,163,,68,00,000,*64
$GPGSA,A,3,05,07,08,09,16,23,27,28,30,,,,1.3,1.0,0.8*30
$GPVTG,183.4,T,183.4,M,21.9,N,40.5,K,A*28
$GPRMC,052029,A,3721.240434,N,12158.656405,W,21.9,183.4,111116,0.0,E,A*3F
$GPGGA,052029,3721.240434,N,12158.656405,W,1,09,1.0,28.0,M,-27.0,M,,*4F
$GPGSV,3,1,10,05,08,320,17,07,61,312,25,08,25,119,18,09,82,077,14*7E
$GPGSV,3,2,10,16,18,040,18,23,46,122,29,27,23,075,16,28,13,209,13*73
$GPGSV,3,3,10,30,35,275,14,03,02,170,*7F
$GLGSV,3,1,10,66,61,194,15,86,09,092,18,77,49,277,15,85,09,042,18*6C
$GLGSV,3,2,10,67,49,313,16,78,04,244,,76,52,014,,75,03,050,*61
$GLGSV,3,3,10,65,09,163,,68,00,000,*64
$GPGSV,3,1,10,05,08,320,17,07,61,312,25,08,25,119,18,09,82,077,14*7E
$GPGSV,3,2,10,16,18,040,18,23,46,122,29,27,23,075,16,28,13,209,13*73
$GPGSV,3,3,10,30,35,275,14,03,02,170,*7F
$GLGSV,3,1,10,66,61,194,15,86,09,092,18,77,49,277,15,85,09,042,18*6C
$GLGSV,3,2,10,67,49,313,16,78,04,244,,76,52,014,,75,03,050,*61
$GLGSV,3,3,10,65,09,163,,68,00,000,*64
$GPGSA,A,3,05,07,08,09,16,23,27,28,30,,,,1.2,0.9,0.8*39
$GPVTG,183.5,T,183.5,M,23.8,N,44.1,K,A*2B
$GPRMC,052030,A,3721.231828,N,12158.658423,W,23.8,183.5,111116,0.0,E,A*38
$GPGGA,052030,3721.231828,N,12158.658423,W,1,09,0.9,28.0,M,-27.0,M,,*42
$GPGSV,3,1,10,05,08,320,17,07,61,312,26,08,25,119,17,09,82,077,14*72
$GPGSV,3,2,10,16,18,040,20,23,46,122,28,27,23,075,16,28,13,209,13*79
$GPGSV,3,3,10,30,35,275,14,03,02,170,*7F
$GLGSV,3,1,10,66,61,194,15,86,09,092,18,77,49,277,15,65,09,163,12*6A
$GLGSV,3,2,10,85,09,042,18,67,49,313,16,78,04,244,,76,52,014,*6E
$GLGSV,3,3,10,75,03,050,,68,00,000,*6E
$GPGSV,3,1,10,05,08,320,17,07,61,312,26,08,25,119,17,09,82,077,14*72
$GPGSV,3,2,10,16,18,040,20,23,46,122,28,27,23,075,16,28,13,209,13*79
$GPGSV,3,3,10,30,35,275,14,03,02,170,*7F
$GLGSV,3,1,10,66,61,194,15,86,09,092,18,77,49,277,15,65,09,163,12*6A
$GLGSV,3,2,10,85,09,042,18,67,49,313,16,78,04,244,,76,52,014,*6E
$GLGSV,3,3,10,75,03,050,,68,00,000,*6E
$GPGSA,A,3,05,07,08,09,16,23,27,28,30,,,,1.1,0.9,0.7*35
$GPVTG,187.4,T,187.4,M,24.8,N,45.9,K,A*25
$GPRMC,052031,A,3721.223369,N,12158.662195,W,24.8,187.4,111116,0.0,E,A*37
$GPGGA,052031,3721.223369,N,12158.662195,W,1,09,0.9,27.0,M,-27.0,M,,*40
$GPGSV,3,1,10,05,08,320,17,07,61,312,27,08,25,119,17,09,82,077,14*73
$GPGSV,3,2,10,16,18,040,20,23,46,122,30,27,23,075,16,28,13,209,13*70
$GPGSV,3,3,10,30,35,275,14,03,02,170,*7F
$GLGSV,3,1,10,66,61,194,12,86,09,092,18,77,49,277,15,65,09,163,13*6C
$GLGSV,3,2,10,85,09,042,18,67,49,313,16,78,04,244,,76,52,014,*6E
$GLGSV,3,3,10,75,03,050,,68,00,000,*6E
$GPGSV,3,1,10,05,08,320,17,07,61,312,27,08,25,119,17,09,82,077,14*73
$GPGSV,3,2,10,16,18,040,20,23,46,122,30,27,23,075,16,28,13,209,13*70
$GPGSV,3,3,10,30,35,275,14,03,02,170,*7F
$GLGSV,3,1,10,66,61,194,12,86,09,092,18,77,49,277,15,65,09,163,13*6C
$GLGSV,3,2,10,85,09,042,18,67,49,313,16,78,04,244,,76,52,014,*6E
$GLGSV,3,3,10,75,03,050,,68,00,000,*6E
$GPGSA,A,3,05,07,08,09,16,23,27,28,30,,,,1.2,0.9,0.8*39
$GPVTG,188.0,T,188.0,M,24.3,N,45.0,K,A*27
$GPRMC,052032,A,3721.216950,N,12158.664225,W,24.3,188.0,111116,0.0,E,A*3C
$GPGGA,052032,3721.216950,N,12158.664225,W,1,09,0.9,25.0,M,-27.0,M,,*49
$GPGSV,3,1,10,05,08,320,17,07,61,312,25,08,25,119,17,09,82,077,14*71
$GPGSV,3,2,10,16,18,040,21,23,46,122,28,27,23,075,12,28,13,209,13*7C
$GPGSV,3,3,10,30,35,275,14,03,02,170,*7F
$GLGSV,3,1,10,66,61,194,12,86,09,092,15,77,49,277,15,65,09,163,13*61
$GLGSV,3,2,10,85,09,042,18,67,49,313,16,78,04,244,,76,52,014,*6E
$GLGSV,3,3,10,75,03,050,,68,00,000,*6E
$GPGSV,3,1,10,05,08,320,17,07,61,312,25,08,25,119,17,09,82,077,14*71
$GPGSV,3,2,10,16,18,040,21,23,46,122,28,27,23,075,12,28,13,209,13*7C
$GPGSV,3,3,10,30,35,275,14,03,02,170,*7F
$GLGSV,3,1,10,66,61,194,12,86,09,092,15,77,49,277,15,65,09,163,13*61
$GLGSV,3,2,10,85,09,042,18,67,49,313,16,78,04,244,,76,52,014,*6E
$GLGSV,3,3,10,75,03,050,,68,00,000,*6E
$GPGSA,A,3,05,07,08,09,16,23,27,28,30,,,,1.3,0.9,0.8*38
$GPVTG,189.8,T,189.8,M,26.2,N,48.6,K,A*2F
$GPRMC,052033,A,3721.207572,N,12158.666912,W,26.2,189.8,111116,0.0,E,A*36
$GPGGA,052033,3721.207572,N,12158.666912,W,1,09,0.9,25.0,M,-27.0,M,,*49
$GPGSV,3,1,10,05,08,320,17,07,61,312,24,08,25,119,17,09,82,077,14*70
$GPGSV,3,2,10,16,18,040,17,23,46,122,29,27,23,075,12,28,13,209,13*78
$GPGSV,3,3,10,30,35,275,14,03,02,170,*7F
$GLGSV,3,1,10,66,61,194,12,86,09,092,15,77,49,277,15,65,09,163,13*61
$GLGSV,3,2,10,85,09,042,18,67,49,313,12,78,04,244,,76,52,014,*6A
$GLGSV,3,3,10,75,03,050,,68,00,000,*6E
$GPGSV,3,1,10,05,08,320,17,07,61,312,24,08,25,119,17,09,82,077,14*70
$GPGSV,3,2,10,16,18,040,17,23,46,122,29,27,23,075,12,28,13,209,13*78
$GPGSV,3,3,10,30,35,275,14,03,02,170,*7F
$GLGSV,3,1,10,66,61,194,12,86,09,092,15,77,49,277,15,65,09,163,13*61
$GLGSV,3,2,10,85,09,042,18,67,49,313,12,78,04,244,,76,52,014,*6A
$GLGSV,3,3,10,75,03,050,,68,00,000,*6E
$GPGSA,A,3,05,07,08,09,16,23,27,28,30,,,,1.3,0.9,0.8*38
$GPVTG,181.8,T,181.8,M,24.3,N,45.0,K,A*27
$GPRMC,052034,A,3721.202600,N,12158.664666,W,24.3,181.8,111116,0.0,E,A*37
$GPGGA,052034,3721.202600,N,12158.664666,W,1,09,0.9,25.0,M,-27.0,M,,*43
$GPGSV,3,1,10,05,08,320,17,07,61,312,24,08,25,119,17,09,82,077,14*70
$GPGSV,3,2,10,16,18,040,19,23,46,122,30,27,23,075,12,28,13,209,13*7E
$GPGSV,3,3,10,30,35,275,14,03,02,170,*7F
$GLGSV,3,1,10,66,61,194,12,86,09,092,15,77,49,277,15,65,09,163,13*61
$GLGSV,3,2,10,85,09,042,18,67,49,313,12,78,04,244,,76,52,014,*6A
$GLGSV,3,3,10,75,03,050,,68,00,000,*6E
$GPGSV,3,1,10,05,08,320,17,07,61,312,24,08,25,119,17,09,82,077,14*70
$GPGSV,3,2,10,16,18,040,19,23,46,122,30,27,23,075,12,28,13,209,13*7E
$GPGSV,3,3,10,30,35,275,14,03,02,170,*7F
$GLGSV,3,1,10,66,61,194,12,86,09,092,15,77,49,277,15,65,09,163,13*61
$GLGSV,3,2,10,85,09,042,18,67,49,313,12,78,04,244,,76,52,014,*6A
$GLGSV,3,3,10,75,03,050,,68,00,000,*6E
$GPGSA,A,3,05,07,08,09,16,23,27,28,30,,,,1.3,0.9,0.8*38
$GPVTG,174.4,T,174.4,M,24.8,N,45.9,K,A*25
$GPRMC,052035,A,3721.198496,N,12158.659527,W,24.8,174.4,111116,0.0,E,A*3E
$GPGGA,052035,3721.198496,N,12158.659527,W,1,09,0.9,25.0,M,-27.0,M,,*47
$GPGSV,3,1,09,05,08,320,17,07,61,312,26,08,25,119,17,09,82,077,13*7D
$GPGSV,3,2,09,16,18,040,19,23,46,122,30,27,23,075,12,30,35,275,14*77
$GPGSV,3,3,09,03,02,170,*47
$GLGSV,3,1,10,66,61,194,12,86,09,092,15,77,49,277,15,65,09,163,13*61
$GLGSV,3,2,10,85,09,042,18,67,49,313,12,78,04,244,,76,52,014,*6A
$GLGSV,3,3,10,75,03,050,,68,00,000,*6E
$GPGSV,3,1,09,05,08,320,17,07,61,312,26,08,25,119,17,09,82,077,13*7D
$GPGSV,3,2,09,16,18,040,19,23,46,122,30,27,23,075,12,30,35,275,14*77
$GPGSV,3,3,09,03,02,170,*47
$GLGSV,3,1,10,66,61,194,12,86,09,092,15,77,49,277,15,65,09,163,13*61
$GLGSV,3,2,10,85,09,042,18,67,49,313,12,78,04,244,,76,52,014,*6A
$GLGSV,3,3,10,75,03,050,,68,00,000,*6E
$GPGSA,A,3,05,07,08,09,16,23,27,30,,,,,1.2,0.9,0.8*33
$GPVTG,178.4,T,178.4,M,19.4,N,36.0,K,A*2A
$GPRMC,052036,A,3721.199864,N,12158.656123,W,19.4,178.4,111116,0.0,E,A*3C
$GPGGA,052036,3721.199864,N,12158.656123,W,1,08,0.9,24.0,M,-27.0,M,,*4B
$GPGSV,3,1,10,05,08,320,17,07,61,312,27,08,25,119,14,09,82,077,21*76
$GPGSV,3,2,10,16,18,040,18,23,46,122,30,27,23,075,13,30,35,275,14*7F
$GPGSV,3,3,10,03,02,170,,28,13,209,*7C
$GLGSV,3,1,10,66,61,194,12,86,09,092,15,77,49,277,15,65,09,163,13*61
$GLGSV,3,2,10,85,09,042,18,67,49,313,12,78,04,244,,76,52,014,*6A
$GLGSV,3,3,10,75,03,050,,68,00,000,*6E
$GPGSV,3,1,10,05,08,320,17,07,61,312,27,08,25,119,14,09,82,077,21*76
$GPGSV,3,2,10,16,18,040,18,23,46,122,30,27,23,075,13,30,35,275,14*7F
$GPGSV,3,3,10,03,02,170,,28,13,209,*7C
$GLGSV,3,1,10,66,61,194,12,86,09,092,15,77,49,277,15,65,09,163,13*61
$GLGSV,3,2,10,85,09,042,18,67,49,313,12,78,04,244,,76,52,014,*6A
$GLGSV,3,3,10,75,03,050,,68,00,000,*6E
$GPGSA,A,3,05,07,08,09,16,23,27,30,,,,,1.2,0.9,0.8*33
$GPVTG,182.9,T,182.9,M,18.5,N,34.2,K,A*2A
$GPRMC,052037,A,3721.195032,N,12158.659192,W,18.5,182.9,111116,0.0,E,A*37
$GPGGA,052037,3721.195032,N,12158.659192,W,1,08,0.9,24.0,M,-27.0,M,,*48
$GPGSV,3,1,10,05,08,320,17,07,61,312,29,08,25,119,16,09,82,077,21*7A
$GPGSV,3,2,10,16,18,040,18,23,46,122,30,27,23,075,13,30,35,275,14*7F
$GPGSV,3,3,10,03,02,170,,28,13,209,*7C
$GLGSV,3,1,10,66,61,194,12,86,09,092,15,77,49,277,15,65,09,163,13*61
$GLGSV,3,2,10,85,09,042,18,67,49,313,12,78,04,244,,76,52,014,*6A
$GLGSV,3,3,10,75,03,050,,68,00,000,*6E
$GPGSV,3,1,10,05,08,320,17,07,61,312,29,08,25,119,16,09,82,077,21*7A
$GPGSV,3,2,10,16,18,040,18,23,46,122,30,27,23,075,13,30,35,275,14*7F
$GPGSV,3,3,10,03,02,170,,28,13,209,*7C
$GLGSV,3,1,10,66,61,194,12,86,09,092,15,77,49,277,15,65,09,163,13*61
$GLGSV,3,2,10,85,09,042,18,67,49,313,12,78,04,244,,76,52,014,*6A
$GLGSV,3,3,10,75,03,050,,68,00,000,*6E
$GPGSA,A,3,05,07,08,09,16,23,27,30,,,,,1.3,0.9,0.8*32
$GPVTG,184.2,T,184.2,M,18.5,N,34.2,K,A*2A
$GPRMC,052038,A,3721.189666,N,12158.660334,W,18.5,184.2,111116,0.0,E,A*3B
$GPGGA,052038,3721.189666,N,12158.660334,W,1,08,0.9,24.0,M,-27.0,M,,*49
$GPGSV,3,1,10,05,08,320,17,07,61,312,25,08,25,119,16,09,82,077,20*77
$GPGSV,3,2,10,16,18,040,17,23,46,122,29,27,23,075,13,30,35,275,14*78
$GPGSV,3,3,10,03,02,170,,28,13,209,*7C
$GLGSV,3,1,10,66,61,194,12,86,09,092,15,77,49,277,15,65,09,163,13*61
$GLGSV,3,2,10,85,09,042,18,67,49,313,12,78,04,244,,76,52,014,*6A
$GLGSV,3,3,10,75,03,050,,68,00,000,*6E
$GPGSV,3,1,10,05,08,320,17,07,61,312,25,08,25,119,16,09,82,077,20*77
$GPGSV,3,2,10,16,18,040,17,23,46,122,29,27,23,075,13,30,35,275,14*78
$GPGSV,3,3,10,03,02,170,,28,13,209,*7C
$GLGSV,3,1,10,66,61,194,12,86,09,092,15,77,49,277,15,65,09,163,13*61
$GLGSV,3,2,10,85,09,042,18,67,49,313,12,78,04,244,,76,52,014,*6A
$GLGSV,3,3,10,75,03,050,,68,00,000,*6E
$GPGSA,A,3,05,07,08,09,16,23,27,30,,,,,1.3,1.0,0.8*3A
$GPVTG,181.8,T,181.8,M,20.4,N,37.8,K,A*29
$GPRMC,052039,A,3721.183232,N,12158.662071,W,20.4,181.8,111116,0.0,E,A*30
$GPGGA,052039,3721.183232,N,12158.662071,W,1,08,1.0,24.0,M,-27.0,M,,*4F
$GPGSV,3,1,10,05,08,320,17,07,61,312,28,08,25,119,16,09,82,077,21*7B
$GPGSV,3,2,10,16,18,040,17,23,46,122,29,27,23,075,14,30,35,275,14*7F
$GPGSV,3,3,10,03,02,170,,28,13,209,*7C
$GLGSV,3,1,10,66,61,194,12,86,09,092,15,77,49,277,15,65,09,163,13*61
$GLGSV,3,2,10,85,09,042,18,67,49,313,12,78,04,244,,76,52,014,*6A
$GLGSV,3,3,10,75,03,050,,68,00,000,*6E
$GPGSV,3,1,10,05,08,320,17,07,61,312,28,08,25,119,16,09,82,077,21*7B
$GPGSV,3,2,10,16,18,040,17,23,46,122,29,27,23,075,14,30,35,275,14*7F
$GPGSV,3,3,10,03,02,170,,28,13,209,*7C
$GLGSV,3,1,10,66,61,194,12,86,09,092,15,77,49,277,15,65,09,163,13*61
$GLGSV,3,2,10,85,09,042,18,67,49,313,12,78,04,244,,76,52,014,*6A
$GLGSV,3,3,10,75,03,050,,68,00,000,*6E
$GPGSA,A,3,05,07,08,09,16,23,27,30,,,,,1.3,1.0,0.8*3A
$GPVTG,196.3,T,196.3,M,17.0,N,31.5,K,A*22
$GPRMC,052040,A,3721.180865,N,12158.666924,W,17.0,196.3,111116,0.0,E,A*35
$GPGGA,052040,3721.180865,N,12158.666924,W,1,08,1.0,21.0,M,-27.0,M,,*42
$GPGSV,3,1,10,05,08,320,17,07,61,312,26,08,25,119,16,09,82,077,19*7E
$GPGSV,3,2,10,16,18,040,19,23,46,122,29,27,23,075,14,30,35,275,14*71
$GPGSV,3,3,10,03,02,170,,28,13,209,*7C
$GLGSV,3,1,10,66,61,194,12,86,09,092,15,77,49,277,15,65,09,163,13*61
$GLGSV,3,2,10,85,09,042,18,67,49,313,19,78,04,244,,76,52,014,*61
$GLGSV,3,3,10,75,03,050,,68,00,000,*6E
$GPGSV,3,1,10,05,08,320,17,07,61,312,26,08,25,119,16,09,82,077,19*7E
$GPGSV,3,2,10,16,18,040,19,23,46,122,29,27,23,075,14,30,35,275,14*71
$GPGSV,3,3,10,03,02,170,,28,13,209,*7C
$GLGSV,3,1,10,66,61,194,12,86,09,092,15,77,49,277,15,65,09,163,13*61
$GLGSV,3,2,10,85,09,042,18,67,49,313,19,78,04,244,,76,52,014,*61
$GLGSV,3,3,10,75,03,050,,68,00,000,*6E
$GPGSA,A,3,05,07,08,09,16,23,27,30,,,,,1.3,1.0,0.8*3A
$GPVTG,194.1,T,194.1,M,18.0,N,33.3,K,A*29
$GPRMC,052041,A,3721.174596,N,12158.668000,W,18.0,194.1,111116,0.0,E,A*30
$GPGGA,052041,3721.174596,N,12158.668000,W,1,08,1.0,21.0,M,-27.0,M,,*48
$GPGSV,3,1,10,05,08,320,17,07,61,312,27,08,25,119,14,09,82,077,20*77
$GPGSV,3,2,10,16,18,040,17,23,46,122,29,27,23,075,14,30,35,275,14*7F
$GPGSV,3,3,10,03,02,170,,28,13,209,*7C
$GLGSV,3,1,09,66,61,194,12,86,09,092,15,65,09,163,13,85,09,042,18*69
$GLGSV,3,2,09,67,49,313,19,78,04,244,,76,52,014,,75,03,050,*66
$GLGSV,3,3,09,68,00,000,*52
$GPGSV,3,1,10,05,08,320,17,07,61,312,27,08,25,119,14,09,82,077,20*77
$GPGSV,3,2,10,16,18,040,17,23,46,122,29,27,23,075,14,30,35,275,14*7F
$GPGSV,3,3,10,03,02,170,,28,13,209,*7C
$GLGSV,3,1,09,66,61,194,12,86,09,092,15,65,09,163,13,85,09,042,18*69
$GLGSV,3,2,09,67,49,313,19,78,04,244,,76,52,014,,75,03,050,*66
