$GPGSV,3,1,10,03,00,000,,05,09,319,,07,61,314,,08,26,118,*7C
$GPGSV,3,2,10,09,81,090,,16,17,040,,23,45,123,,27,23,074,*72
$GPGSV,3,3,10,28,15,209,,30,36,277,*79
$GLGSV,3,1,10,66,60,192,21,86,09,091,13,77,50,279,17,65,08,163,10*65
$GLGSV,3,2,10,85,09,040,18,67,50,312,12,68,02,333,12,78,04,244,*6E
$GLGSV,3,3,10,76,52,015,,75,02,050,*63
$GPGSA,A,1,,,,,,,,,,,,,,,*1E
$GPVTG,,T,,M,,N,,K,N*2C
$GPRMC,,V,,,,,,,,,,N*53
$GPGGA,,,,,,0,,,,,,,,*66
$GPGSV,3,1,10,03,00,000,,05,09,319,,07,61,314,,08,26,118,*7C
$GPGSV,3,2,10,09,81,090,,16,17,040,,23,45,123,,27,23,074,*72
$GPGSV,3,3,10,28,15,209,,30,36,277,*79
$GLGSV,3,1,10,78,05,246,,66,59,192,,86,10,091,,77,50,279,*64
$GLGSV,3,2,10,76,51,016,,75,02,050,,65,07,163,,85,09,040,*62
$GLGSV,3,3,10,67,51,312,,68,02,333,*6E
$GPGSA,A,1,,,,,,,,,,,,,,,*1E
$GPVTG,,T,,M,,N,,K,N*2C
$GPRMC,,V,,,,,,,,,,N*53
$GPGGA,,,,,,0,,,,,,,,*66
$GPGSV,3,1,10,07,61,314,18,03,00,000,,05,09,319,,08,26,118,*75
$GPGSV,3,2,10,09,81,090,,16,17,040,,23,45,123,,27,23,074,*72
$GPGSV,3,3,10,28,15,209,,30,36,277,*79
$GLGSV,3,1,10,66,59,192,21,78,05,246,,86,10,091,,77,50,279,*67
$GLGSV,3,2,10,76,51,016,,75,02,050,,65,07,163,,85,09,040,*62
$GLGSV,3,3,10,67,51,312,,68,02,333,*6E
$GPGSA,A,1,,,,,,,,,,,,,,,*1E
$GPVTG,,T,,M,,N,,K,N*2C
$GPRMC,,V,,,,,,,,,,N*53
$GPGGA,,,,,,0,,,,,,,,*66
$GPGSA,A,1,,,,,,,,,,,,,,,*1E
$GPVTG,,T,,M,,N,,K,N*2C
$GPRMC,,V,,,,,,,,,,N*53
$GPGGA,,,,,,0,,,,,,,,*66
$GPGSV,3,1,10,07,61,314,18,03,00,000,,05,09,319,,08,26,118,*75
$GPGSV,3,2,10,09,81,090,,16,17,040,,23,45,123,,27,23,074,*72
$GPGSV,3,3,10,28,15,209,,30,36,277,*79
$GLGSV,3,1,10,66,59,192,22,85,09,040,24,67,51,312,18,78,05,246,*60
$GLGSV,3,2,10,86,10,091,,77,50,279,,76,51,016,,75,02,050,*6C
$GLGSV,3,3,10,65,07,163,,68,02,333,*6B
$GPGSA,A,1,,,,,,,,,,,,,,,*1E
$GPVTG,,T,,M,,N,,K,N*2C
$GPRMC,,V,,,,,,,,,,N*53
$GPGGA,,,,,,0,,,,,,,,*66
$GPGSA,A,1,,,,,,,,,,,,,,,*1E
$GPVTG,,T,,M,,N,,K,N*2C
$GPRMC,,V,,,,,,,,,,N*53
$GPGGA,,,,,,0,,,,,,,,*66
$GPGSV,3,1,10,07,61,314,18,08,26,118,16,03,00,000,,05,09,319,*72
$GPGSV,3,2,10,09,81,090,,16,17,040,,23,45,123,,27,23,074,*72
$GPGSV,3,3,10,28,15,209,,30,36,277,*79
$GLGSV,3,1,10,66,59,192,22,85,09,040,24,67,51,312,18,78,05,246,*60
$GLGSV,3,2,10,86,10,091,,77,50,279,,76,51,016,,75,02,050,*6C
$GLGSV,3,3,10,65,07,163,,68,02,333,*6B
$GPGSA,A,1,,,,,,,,,,,,,,,*1E
$GPVTG,,T,,M,,N,,K,N*2C
$GPRMC,,V,,,,,,,,,,N*53
$GPGGA,,,,,,0,,,,,,,,*66
$GPGSV,3,1,10,07,61,314,18,08,26,118,16,09,81,091,20,03,00,000,*7F
$GPGSV,3,2,10,05,09,319,,16,17,040,,23,45,123,,27,23,073,*7B
$GPGSV,3,3,10,28,15,209,,30,36,277,*79
$GLGSV,3,1,10,66,59,192,20,85,09,040,24,67,51,312,16,78,05,246,*6C
$GLGSV,3,2,10,86,10,091,,77,50,279,,76,51,016,,75,02,050,*6C
$GLGSV,3,3,10,65,07,163,,68,02,333,*6B
$GPGSV,3,1,10,07,61,314,18,08,26,118,16,09,81,091,20,16,17,040,19*71
$GPGSV,3,2,10,03,00,000,,05,09,319,,23,45,123,,27,23,073,*7D
$GPGSV,3,3,10,28,15,209,,30,36,277,*79
$GLGSV,3,1,10,66,59,192,20,85,09,040,24,67,51,312,19,78,05,246,*63
$GLGSV,3,2,10,86,10,091,,77,50,281,,76,51,016,,75,02,050,*6B
$GLGSV,3,3,10,65,07,163,,68,02,333,*6B
$GPGSA,A,1,,,,,,,,,,,,,,,*1E
$GPVTG,,T,,M,,N,,K,N*2C
$GPRMC,,V,,,,,,,,,,N*53
$GPGGA,,,,,,0,,,,,,,,*66
$GPGSV,3,1,10,07,61,314,19,08,26,118,16,09,81,091,21,16,17,040,20*7B
$GPGSV,3,2,10,03,00,000,,05,09,319,,23,45,123,,27,23,073,*7D
$GPGSV,3,3,10,28,15,209,,30,36,277,*79
$GLGSV,3,1,10,66,59,192,20,85,09,040,24,67,51,312,18,78,05,246,*62
$GLGSV,3,2,10,86,10,091,,77,50,281,,76,51,016,,75,02,050,*6B
$GLGSV,3,3,10,65,07,163,,68,02,333,*6B
$GPGSA,A,1,,,,,,,,,,,,,,,*1E
$GPVTG,,T,,M,,N,,K,N*2C
$GPRMC,,V,,,,,,,,,,N*53
$GPGGA,,,,,,0,,,,,,,,*66
$GPGSV,3,1,10,05,09,319,17,07,61,314,18,08,26,118,16,09,81,091,20*7D
$GPGSV,3,2,10,16,17,040,19,28,15,209,15,03,00,000,,23,45,123,*76
$GPGSV,3,3,10,27,23,073,,30,36,277,*7C
$GLGSV,3,1,10,66,59,192,19,85,09,040,24,67,51,312,20,78,05,246,*63
$GLGSV,3,2,10,86,10,091,,77,50,281,,76,51,016,,75,02,050,*6B
$GLGSV,3,3,10,65,07,163,,68,02,333,*6B
$GPGSA,A,1,,,,,,,,,,,,,,,*1E
$GPVTG,,T,,M,,N,,K,N*2C
$GPRMC,,V,,,,,,,,,,N*53
$GPGGA,,,,,,0,,,,,,,,*66
$GPGSV,3,1,10,05,09,319,19,07,61,314,18,08,26,118,16,09,81,091,19*79
$GPGSV,3,2,10,16,17,040,19,28,15,209,17,03,00,000,,23,45,123,*74
$GPGSV,3,3,10,27,23,073,,30,36,277,*7C
$GLGSV,3,1,10,66,59,192,21,85,09,040,24,67,51,312,16,78,05,246,*6D
$GLGSV,3,2,10,86,10,091,,77,50,281,,76,51,016,,75,02,050,*6B
$GLGSV,3,3,10,65,07,163,,68,02,333,*6B
$GPGSV,3,1,10,05,09,319,19,07,61,314,18,08,26,118,16,09,81,091,19*79
$GPGSV,3,2,10,16,17,040,19,28,15,209,17,03,00,000,,23,45,123,*74
$GPGSV,3,3,10,27,23,073,,30,36,277,*7C
$GLGSV,3,1,10,66,59,192,21,85,09,040,24,67,51,312,16,78,05,246,*6D
$GLGSV,3,2,10,86,10,091,,77,50,281,,76,51,016,,75,02,050,*6B
$GLGSV,3,3,10,65,07,163,,68,02,333,*6B
$GPGSA,A,3,05,07,08,09,16,28,,,,,,,1.1,0.8,0.7*33
$GPVTG,90.2,T,90.2,M,22.4,N,41.4,K,A*26
$GPRMC,052325,A,3721.118958,N,12158.338148,W,22.4,90.2,111116,0.0,E,A*03
$GPGGA,052325,3721.118958,N,12158.338148,W,1,06,0.8,52.0,M,-27.0,M,,*43
$GPGSV,3,1,10,05,09,319,19,07,61,314,18,08,26,118,16,09,81,091,19*79
$GPGSV,3,2,10,16,17,040,19,27,23,073,13,28,15,209,16,03,00,000,*77
$GPGSV,3,3,10,23,45,123,,30,36,277,*7C
$GLGSV,3,1,10,66,59,192,21,86,10,091,12,85,09,040,12,67,51,312,16*66
$GLGSV,3,2,10,78,05,246,,77,50,281,,76,51,016,,75,02,050,*66
$GLGSV,3,3,10,65,07,163,,68,02,333,*6B
$GPGSV,3,1,10,05,09,319,19,07,61,314,18,08,26,118,16,09,81,091,19*79
$GPGSV,3,2,10,16,17,040,19,27,23,073,13,28,15,209,16,03,00,000,*77
$GPGSV,3,3,10,23,45,123,,30,36,277,*7C
$GLGSV,3,1,10,66,59,192,21,86,10,091,12,85,09,040,12,67,51,312,16*66
$GLGSV,3,2,10,78,05,246,,77,50,281,,76,51,016,,75,02,050,*66
$GLGSV,3,3,10,65,07,163,,68,02,333,*6B
$GPGSA,A,3,05,07,08,09,16,27,28,,,,,,1.1,0.8,0.7*36
$GPVTG,86.5,T,86.5,M,23.8,N,44.1,K,A*2B
$GPRMC,052326,A,3721.119659,N,12158.333182,W,23.8,86.5,111116,0.0,E,A*0F
$GPGGA,052326,3721.119659,N,12158.333182,W,1,07,0.8,7.0,M,-27.0,M,,*73
$GPGSV,3,1,10,05,09,319,19,07,61,314,18,08,26,118,16,09,81,091,20*73
$GPGSV,3,2,10,16,17,040,20,23,45,123,13,27,23,073,13,28,15,209,16*7C
$GPGSV,3,3,10,03,00,000,,30,36,277,*7F
$GLGSV,3,1,10,66,59,192,20,86,10,091,13,85,09,040,22,67,51,312,16*65
$GLGSV,3,2,10,78,05,246,,77,50,281,,76,51,016,,75,02,050,*66
$GLGSV,3,3,10,65,07,163,,68,02,333,*6B
$GPGSV,3,1,10,05,09,319,19,07,61,314,18,08,26,118,16,09,81,091,20*73
$GPGSV,3,2,10,16,17,040,20,23,45,123,13,27,23,073,13,28,15,209,16*7C
$GPGSV,3,3,10,03,00,000,,30,36,277,*7F
$GLGSV,3,1,10,66,59,192,20,86,10,091,13,85,09,040,22,67,51,312,16*65
$GLGSV,3,2,10,78,05,246,,77,50,281,,76,51,016,,75,02,050,*66
$GLGSV,3,3,10,65,07,163,,68,02,333,*6B
$GPGSA,A,3,05,07,08,09,16,23,27,28,,,,,1.1,0.8,0.7*37
$GPVTG,85.2,T,85.2,M,24.3,N,45.0,K,A*27
$GPRMC,052327,A,3721.116889,N,12158.329287,W,24.3,85.2,111116,0.0,E,A*07
$GPGGA,052327,3721.116889,N,12158.329287,W,1,08,0.8,-6.0,M,-27.0,M,,*50
$GPGSV,3,1,10,05,09,319,19,07,61,314,18,08,26,118,17,09,81,091,21*73
$GPGSV,3,2,10,16,17,040,20,23,45,123,13,27,23,073,13,28,15,209,17*7D
$GPGSV,3,3,10,03,00,000,,30,36,277,*7F
$GLGSV,3,1,10,66,59,192,18,86,10,091,13,85,09,040,22,67,51,312,16*6E
$GLGSV,3,2,10,78,05,246,,77,50,281,,76,51,016,,75,02,050,*66
$GLGSV,3,3,10,65,07,163,,68,02,333,*6B
$GPGSV,3,1,10,05,09,319,19,07,61,314,18,08,26,118,17,09,81,091,21*73
$GPGSV,3,2,10,16,17,040,20,23,45,123,13,27,23,073,13,28,15,209,17*7D
$GPGSV,3,3,10,03,00,000,,30,36,277,*7F
$GLGSV,3,1,10,66,59,192,18,86,10,091,13,85,09,040,22,67,51,312,16*6E
$GLGSV,3,2,10,78,05,246,,77,50,281,,76,51,016,,75,02,050,*66
$GLGSV,3,3,10,65,07,163,,68,02,333,*6B
$GPGSA,A,3,05,07,08,09,16,23,27,28,,,,,1.1,0.8,0.7*37
$GPVTG,85.7,T,85.7,M,23.8,N,44.1,K,A*2B
$GPRMC,052328,A,3721.116590,N,12158.325502,W,23.8,85.7,111116,0.0,E,A*02
$GPGGA,052328,3721.116590,N,12158.325502,W,1,08,0.8,-13.0,M,-27.0,M,,*68
$GPGSV,3,1,10,05,09,319,19,07,61,314,18,08,26,118,16,09,81,091,20*73
$GPGSV,3,2,10,16,17,040,20,23,45,123,13,27,23,073,13,28,15,209,17*7D
$GPGSV,3,3,10,03,00,000,,30,36,277,*7F
$GLGSV,3,1,10,66,59,192,18,86,10,091,13,85,09,040,16,67,51,312,13*6C
$GLGSV,3,2,10,78,05,246,,77,50,281,,76,51,016,,75,02,050,*66
$GLGSV,3,3,10,65,07,163,,68,02,333,*6B
$GPGSV,3,1,10,05,09,319,19,07,61,314,18,08,26,118,16,09,81,091,20*73
$GPGSV,3,2,10,16,17,040,20,23,45,123,13,27,23,073,13,28,15,209,17*7D
$GPGSV,3,3,10,03,00,000,,30,36,277,*7F
$GLGSV,3,1,10,66,59,192,18,86,10,091,13,85,09,040,16,67,51,312,13*6C
$GLGSV,3,2,10,78,05,246,,77,50,281,,76,51,016,,75,02,050,*66
$GLGSV,3,3,10,65,07,163,,68,02,333,*6B
$GPGSA,A,3,05,07,08,09,16,23,27,28,,,,,1.1,0.8,0.7*37
$GPVTG,80.7,T,80.7,M,20.4,N,37.8,K,A*29
$GPRMC,052329,A,3721.125906,N,12158.328350,W,20.4,80.7,111116,0.0,E,A*06
$GPGGA,052329,3721.125906,N,12158.328350,W,1,08,0.8,-2.0,M,-27.0,M,,*56
$GPGSV,3,1,10,05,09,319,19,07,61,314,20,08,26,118,16,09,81,091,20*78
$GPGSV,3,2,10,16,17,040,20,23,45,123,13,27,23,073,12,28,15,209,18*73
$GPGSV,3,3,10,03,00,000,,30,36,277,*7F
$GLGSV,3,1,10,66,59,192,14,86,10,091,12,85,09,040,27,67,51,312,18*68
$GLGSV,3,2,10,78,05,246,,77,50,281,,76,51,016,,75,02,050,*66
$GLGSV,3,3,10,65,07,163,,68,02,333,*6B
$GPGSV,3,1,10,05,09,319,19,07,61,314,20,08,26,118,16,09,81,091,20*78
$GPGSV,3,2,10,16,17,040,20,23,45,123,13,27,23,073,12,28,15,209,18*73
$GPGSV,3,3,10,03,00,000,,30,36,277,*7F
$GLGSV,3,1,10,66,59,192,14,86,10,091,12,85,09,040,27,67,51,312,18*68
$GLGSV,3,2,10,78,05,246,,77,50,281,,76,51,016,,75,02,050,*66
$GLGSV,3,3,10,65,07,163,,68,02,333,*6B
$GPGSA,A,3,05,07,08,09,16,23,27,28,,,,,1.1,0.8,0.7*37
$GPVTG,79.5,T,79.5,M,19.9,N,36.9,K,A*2E
$GPRMC,052330,A,3721.127748,N,12158.326478,W,19.9,79.5,111116,0.0,E,A*08
$GPGGA,052330,3721.127748,N,12158.326478,W,1,08,0.8,-14.0,M,-27.0,M,,*6C
$GPGSV,3,1,10,05,09,319,19,07,61,314,19,08,26,118,16,09,81,091,19*78
$GPGSV,3,2,10,16,17,040,13,23,45,123,13,27,23,073,12,28,15,209,19*72
$GPGSV,3,3,10,03,00,000,,30,36,277,*7F
$GLGSV,3,1,10,66,59,192,14,86,10,091,12,85,09,040,27,67,51,312,18*68
$GLGSV,3,2,10,78,05,246,,77,50,281,,76,51,016,,75,02,050,*66
$GLGSV,3,3,10,65,07,163,,68,02,333,*6B
$GPGSV,3,1,10,05,09,319,19,07,61,314,19,08,26,118,16,09,81,091,19*78
$GPGSV,3,2,10,16,17,040,13,23,45,123,13,27,23,073,12,28,15,209,19*72
$GPGSV,3,3,10,03,00,000,,30,36,277,*7F
$GLGSV,3,1,10,66,59,192,14,86,10,091,12,85,09,040,27,67,51,312,18*68
$GLGSV,3,2,10,78,05,246,,77,50,281,,76,51,016,,75,02,050,*66
$GLGSV,3,3,10,65,07,163,,68,02,333,*6B
$GPGSA,A,3,05,07,08,09,16,23,27,28,,,,,1.1,0.8,0.7*37
$GPVTG,84.0,T,84.0,M,21.4,N,39.6,K,A*28
$GPRMC,052331,A,3721.131259,N,12158.315165,W,21.4,84.0,111116,0.0,E,A*03
$GPGGA,052331,3721.131259,N,12158.315165,W,1,08,0.8,-2.0,M,-27.0,M,,*51
$GPGSV,3,1,10,05,09,319,19,07,61,314,19,08,26,118,16,09,81,091,21*73
$GPGSV,3,2,10,16,17,040,13,23,45,123,13,27,24,073,12,28,15,209,21*7E
$GPGSV,3,3,10,03,00,000,,30,36,277,*7F
$GLGSV,3,1,10,66,59,192,14,86,10,091,12,85,09,040,26,67,51,312,18*69
$GLGSV,3,2,10,78,05,246,,77,50,281,,76,51,016,,75,02,050,*66
$GLGSV,3,3,10,65,07,163,,68,02,333,*6B
$GPGSV,3,1,10,05,09,319,19,07,61,314,19,08,26,118,16,09,81,091,21*73
$GPGSV,3,2,10,16,17,040,13,23,45,123,13,27,24,073,12,28,15,209,21*7E
$GPGSV,3,3,10,03,00,000,,30,36,277,*7F
$GLGSV,3,1,10,66,59,192,14,86,10,091,12,85,09,040,26,67,51,312,18*69
$GLGSV,3,2,10,78,05,246,,77,50,281,,76,51,016,,75,02,050,*66
$GLGSV,3,3,10,65,07,163,,68,02,333,*6B
$GPGSA,A,3,05,07,08,09,16,23,27,28,,,,,1.0,0.7,0.7*39
$GPVTG,86.8,T,86.8,M,22.4,N,41.4,K,A*26
$GPRMC,052332,A,3721.135072,N,12158.307010,W,22.4,86.8,111116,0.0,E,A*06
$GPGGA,052332,3721.135072,N,12158.307010,W,1,08,0.7,9.0,M,-27.0,M,,*74
$GPGSV,3,1,10,05,09,319,11,07,61,314,15,08,26,118,16,09,81,091,18*7D
$GPGSV,3,2,10,16,17,040,13,23,45,123,13,27,24,073,12,28,15,209,21*7E
$GPGSV,3,3,10,03,00,000,,30,36,277,*7F
$GLGSV,3,1,10,66,59,192,14,86,10,091,12,65,07,163,17,85,09,040,23*66
$GLGSV,3,2,10,67,51,312,17,78,05,246,,77,50,281,,76,51,016,*60
$GLGSV,3,3,10,75,02,050,,68,02,333,*6E
$GPGSV,3,1,10,05,09,319,11,07,61,314,15,08,26,118,16,09,81,091,18*7D
$GPGSV,3,2,10,16,17,040,13,23,45,123,13,27,24,073,12,28,15,209,21*7E
$GPGSV,3,3,10,03,00,000,,30,36,277,*7F
$GLGSV,3,1,10,66,59,192,14,86,10,091,12,65,07,163,17,85,09,040,23*66
$GLGSV,3,2,10,67,51,312,17,78,05,246,,77,50,281,,76,51,016,*60
$GLGSV,3,3,10,75,02,050,,68,02,333,*6E
$GPGSA,A,3,05,07,08,09,16,23,27,28,,,,,1.0,0.7,0.7*39
$GPVTG,91.3,T,91.3,M,20.9,N,38.7,K,A*24
$GPRMC,052333,A,3721.135193,N,12158.299708,W,20.9,91.3,111116,0.0,E,A*03
$GPGGA,052333,3721.135193,N,12158.299708,W,1,08,0.7,5.0,M,-27.0,M,,*7F
$GPGSV,3,1,10,05,09,319,21,07,61,314,15,08,26,118,16,09,81,091,20*75
$GPGSV,3,2,10,16,17,040,15,23,45,123,20,27,24,073,12,28,15,209,19*73
$GPGSV,3,3,10,03,00,000,,30,36,277,*7F
$GLGSV,3,1,10,66,59,192,14,86,10,091,12,65,07,163,17,85,09,040,27*62
$GLGSV,3,2,10,67,51,312,17,78,05,246,,77,50,281,,76,51,016,*60
$GLGSV,3,3,10,75,02,050,,68,02,333,*6E
$GPGSV,3,1,10,05,09,319,21,07,61,314,15,08,26,118,16,09,81,091,20*75
$GPGSV,3,2,10,16,17,040,15,23,45,123,20,27,24,073,12,28,15,209,19*73
$GPGSV,3,3,10,03,00,000,,30,36,277,*7F
$GLGSV,3,1,10,66,59,192,14,86,10,091,12,65,07,163,17,85,09,040,27*62
$GLGSV,3,2,10,67,51,312,17,78,05,246,,77,50,281,,76,51,016,*60
$GLGSV,3,3,10,75,02,050,,68,02,333,*6E
$GPGSA,A,3,05,07,08,09,16,23,27,28,,,,,1.0,0.7,0.7*39
$GPVTG,93.8,T,93.8,M,24.3,N,45.0,K,A*27
$GPRMC,052334,A,3721.134419,N,12158.289387,W,24.3,93.8,111116,0.0,E,A*07
$GPGGA,052334,3721.134419,N,12158.289387,W,1,08,0.7,4.0,M,-27.0,M,,*7D
$GPGSV,3,1,10,05,09,319,20,07,61,314,15,08,26,118,16,09,81,091,17*70
$GPGSV,3,2,10,16,17,040,15,23,45,123,20,27,24,073,12,28,15,209,24*7D
$GPGSV,3,3,10,03,00,000,,30,36,277,*7F
$GLGSV,3,1,10,66,59,192,14,86,10,091,12,65,07,163,16,85,09,040,21*65
$GLGSV,3,2,10,67,51,312,17,78,05,246,,77,50,281,,76,51,016,*60
$GLGSV,3,3,10,75,02,050,,68,02,333,*6E
$GPGSV,3,1,10,05,09,319,20,07,61,314,15,08,26,118,16,09,81,091,17*70
$GPGSV,3,2,10,16,17,040,15,23,45,123,20,27,24,073,12,28,15,209,24*7D
$GPGSV,3,3,10,03,00,000,,30,36,277,*7F
$GLGSV,3,1,10,66,59,192,14,86,10,091,12,65,07,163,16,85,09,040,21*65
$GLGSV,3,2,10,67,51,312,17,78,05,246,,77,50,281,,76,51,016,*60
$GLGSV,3,3,10,75,02,050,,68,02,333,*6E
$GPGSA,A,3,05,07,08,09,16,23,27,28,,,,,1.0,0.7,0.7*39
$GPVTG,90.6,T,90.6,M,24.8,N,45.9,K,A*25
$GPRMC,052335,A,3721.136594,N,12158.281631,W,24.8,90.6,111116,0.0,E,A*06
$GPGGA,052335,3721.136594,N,12158.281631,W,1,08,0.7,7.0,M,-27.0,M,,*79
$GPGSV,3,1,10,05,09,319,19,07,61,314,15,08,26,118,16,09,81,091,17*7A
$GPGSV,3,2,10,16,17,040,15,23,45,123,18,27,24,073,12,28,15,209,24*76
$GPGSV,3,3,10,03,00,000,,30,36,277,*7F
$GLGSV,3,1,10,66,59,192,14,86,10,091,12,65,07,163,15,85,09,040,17*63
$GLGSV,3,2,10,67,51,312,16,78,05,246,,77,50,281,,76,51,016,*61
$GLGSV,3,3,10,75,02,050,,68,02,333,*6E
$GPGSV,3,1,10,05,09,319,19,07,61,314,15,08,26,118,16,09,81,091,17*7A
$GPGSV,3,2,10,16,17,040,15,23,45,123,18,27,24,073,12,28,15,209,24*76
$GPGSV,3,3,10,03,00,000,,30,36,277,*7F
$GLGSV,3,1,10,66,59,192,14,86,10,091,12,65,07,163,15,85,09,040,17*63
$GLGSV,3,2,10,67,51,312,16,78,05,246,,77,50,281,,76,51,016,*61
$GLGSV,3,3,10,75,02,050,,68,02,333,*6E
$GPGSA,A,3,05,07,08,09,16,23,27,28,,,,,1.0,0.7,0.7*39
$GPVTG,93.9,T,93.9,M,24.8,N,45.9,K,A*25
$GPRMC,052336,A,3721.136212,N,12158.274137,W,24.8,93.9,111116,0.0,E,A*0B
$GPGGA,052336,3721.136212,N,12158.274137,W,1,08,0.7,6.0,M,-27.0,M,,*79
$GPGSV,3,1,10,05,09,319,19,07,61,314,15,08,26,118,16,09,81,091,18*75
$GPGSV,3,2,10,16,17,040,15,23,45,123,18,27,24,073,12,28,15,209,17*76
$GPGSV,3,3,10,03,00,000,,30,36,277,*7F
$GLGSV,3,1,10,66,59,192,14,86,10,091,12,65,07,163,15,85,09,040,24*63
$GLGSV,3,2,10,67,51,312,16,78,05,246,,77,50,281,,76,51,016,*61
$GLGSV,3,3,10,75,02,050,,68,02,333,*6E
$GPGSV,3,1,10,05,09,319,19,07,61,314,15,08,26,118,16,09,81,091,18*75
$GPGSV,3,2,10,16,17,040,15,23,45,123,18,27,24,073,12,28,15,209,17*76
$GPGSV,3,3,10,03,00,000,,30,36,277,*7F
$GLGSV,3,1,10,66,59,192,14,86,10,091,12,65,07,163,15,85,09,040,24*63
$GLGSV,3,2,10,67,51,312,16,78,05,246,,77,50,281,,76,51,016,*61
$GLGSV,3,3,10,75,02,050,,68,02,333,*6E
$GPGSA,A,3,05,07,08,09,16,23,27,28,,,,,1.0,0.7,0.7*39
$GPVTG,89.4,T,89.4,M,23.8,N,44.1,K,A*2B
$GPRMC,052337,A,3721.137034,N,12158.267225,W,23.8,89.4,111116,0.0,E,A*0E
$GPGGA,052337,3721.137034,N,12158.267225,W,1,08,0.7,7.0,M,-27.0,M,,*7C
$GPGSV,3,1,10,05,09,319,15,07,61,314,15,08,26,118,15,09,81,091,19*7B
$GPGSV,3,2,10,16,17,040,15,23,45,123,17,27,24,073,12,28,15,209,17*79
$GPGSV,3,3,10,03,00,000,,30,36,277,*7F
$GLGSV,3,1,10,66,59,192,18,86,10,091,12,65,07,163,13,85,09,040,25*68
$GLGSV,3,2,10,67,51,312,16,78,05,246,,77,50,281,,76,51,016,*61
$GLGSV,3,3,10,75,02,050,,68,02,333,*6E
$GPGSV,3,1,10,05,09,319,15,07,61,314,15,08,26,118,15,09,81,091,19*7B
$GPGSV,3,2,10,16,17,040,15,23,45,123,17,27,24,073,12,28,15,209,17*79
$GPGSV,3,3,10,03,00,000,,30,36,277,*7F
$GLGSV,3,1,10,66,59,192,18,86,10,091,12,65,07,163,13,85,09,040,25*68
$GLGSV,3,2,10,67,51,312,16,78,05,246,,77,50,281,,76,51,016,*61
$GLGSV,3,3,10,75,02,050,,68,02,333,*6E
$GPGSA,A,3,05,07,08,09,16,23,27,28,,,,,1.0,0.7,0.7*39
$GPVTG,90.6,T,90.6,M,22.8,N,42.3,K,A*2E
$GPRMC,052338,A,3721.137483,N,12158.259357,W,22.8,90.6,111116,0.0,E,A*0B
$GPGGA,052338,3721.137483,N,12158.259357,W,1,08,0.7,7.0,M,-27.0,M,,*72
$GPGSV,3,1,10,05,09,319,19,07,61,314,15,08,26,118,15,09,81,091,20*7D
$GPGSV,3,2,10,16,17,040,15,23,45,123,17,27,24,073,12,28,15,209,18*76
$GPGSV,3,3,10,03,00,000,,30,36,277,*7F
$GLGSV,3,1,10,66,59,192,18,86,10,091,12,65,07,163,14,85,09,040,27*6D
$GLGSV,3,2,10,67,51,312,16,78,05,246,,77,50,281,,76,51,016,*61
$GLGSV,3,3,10,75,02,050,,68,02,333,*6E
$GPGSV,3,1,10,05,09,319,19,07,61,314,15,08,26,118,15,09,81,091,20*7D
$GPGSV,3,2,10,16,17,040,15,23,45,123,17,27,24,073,12,28,15,209,18*76
$GPGSV,3,3,10,03,00,000,,30,36,277,*7F
$GLGSV,3,1,10,66,59,192,18,86,10,091,12,65,07,163,14,85,09,040,27*6D
$GLGSV,3,2,10,67,51,312,16,78,05,246,,77,50,281,,76,51,016,*61
$GLGSV,3,3,10,75,02,050,,68,02,333,*6E
$GPGSA,A,3,05,07,08,09,16,23,27,28,,,,,1.1,0.8,0.7*37
$GPVTG,93.1,T,93.1,M,23.8,N,44.1,K,A*2B
$GPRMC,052339,A,3721.134387,N,12158.251391,W,23.8,93.1,111116,0.0,E,A*0D
$GPGGA,052339,3721.134387,N,12158.251391,W,1,08,0.8,2.0,M,-27.0,M,,*7B
$GPGSV,3,1,10,05,09,319,19,07,61,314,15,08,26,118,15,09,81,091,20*7D
$GPGSV,3,2,10,16,17,040,18,23,45,123,18,27,24,073,12,28,15,209,17*7B
$GPGSV,3,3,10,03,00,000,,30,36,277,*7F
$GLGSV,3,1,10,66,59,192,15,86,10,091,12,65,07,163,12,85,09,040,25*64
$GLGSV,3,2,10,67,51,312,16,78,05,246,,77,50,281,,76,51,016,*61
$GLGSV,3,3,10,75,02,050,,68,02,333,*6E
$GPGSV,3,1,10,05,09,319,19,07,61,314,15,08,26,118,15,09,81,091,20*7D
$GPGSV,3,2,10,16,17,040,18,23,45,123,18,27,24,073,12,28,15,209,17*7B
$GPGSV,3,3,10,03,00,000,,30,36,277,*7F
$GLGSV,3,1,10,66,59,192,15,86,10,091,12,65,07,163,12,85,09,040,25*64
$GLGSV,3,2,10,67,51,312,16,78,05,246,,77,50,281,,76,51,016,*61
$GLGSV,3,3,10,75,02,050,,68,02,333,*6E
$GPGSA,A,3,05,07,08,09,16,23,27,28,,,,,1.0,0.7,0.7*39
$GPVTG,88.9,T,88.9,M,26.2,N,48.6,K,A*2F
$GPRMC,052340,A,3721.135506,N,12158.242256,W,26.2,88.9,111116,0.0,E,A*08
$GPGGA,052340,3721.135506,N,12158.242256,W,1,08,0.7,2.0,M,-27.0,M,,*7C
$GPGSV,3,1,10,05,09,319,17,07,61,314,17,08,26,118,16,09,81,091,23*71
$GPGSV,3,2,10,16,17,040,19,23,45,123,18,27,24,073,12,28,15,209,18*75
$GPGSV,3,3,10,03,00,000,,30,36,277,*7F
$GLGSV,3,1,10,66,59,192,17,86,10,091,12,65,07,163,12,85,09,040,25*66
$GLGSV,3,2,10,67,51,312,16,78,05,246,,77,50,281,,76,51,016,*61
$GLGSV,3,3,10,75,02,050,,68,02,333,*6E
$GPGSV,3,1,10,05,09,319,17,07,61,314,17,08,26,118,16,09,81,091,23*71
$GPGSV,3,2,10,16,17,040,19,23,45,123,18,27,24,073,12,28,15,209,18*75
$GPGSV,3,3,10,03,00,000,,30,36,277,*7F
$GLGSV,3,1,10,66,59,192,17,86,10,091,12,65,07,163,12,85,09,040,25*66
$GLGSV,3,2,10,67,51,312,16,78,05,246,,77,50,281,,76,51,016,*61
$GLGSV,3,3,10,75,02,050,,68,02,333,*6E
$GPGSA,A,3,05,07,08,09,16,23,27,28,,,,,1.0,0.7,0.7*39
$GPVTG,91.8,T,91.8,M,26.7,N,49.5,K,A*28
$GPRMC,052341,A,3721.135550,N,12158.233172,W,26.7,91.8,111116,0.0,E,A*05
$GPGGA,052341,3721.135550,N,12158.233172,W,1,08,0.7,4.0,M,-27.0,M,,*7B
$GPGSV,3,1,10,05,09,319,17,07,61,314,18,08,26,118,16,09,81,091,20*7D
$GPGSV,3,2,10,16,17,040,19,23,45,123,18,27,24,073,12,28,15,209,18*75
$GPGSV,3,3,10,03,00,000,,30,36,277,*7F
$GLGSV,3,1,10,66,59,192,17,86,10,091,12,65,07,163,12,85,09,040,25*66
$GLGSV,3,2,10,67,51,312,16,78,05,246,,77,50,281,,76,51,016,*61
$GLGSV,3,3,10,75,02,050,,68,02,333,*6E
$GPGSV,3,1,10,05,09,319,17,07,61,314,18,08,26,118,16,09,81,091,20*7D
$GPGSV,3,2,10,16,17,040,19,23,45,123,18,27,24,073,12,28,15,209,18*75
$GPGSV,3,3,10,03,00,000,,30,36,277,*7F
$GLGSV,3,1,10,66,59,192,17,86,10,091,12,65,07,163,12,85,09,040,25*66
$GLGSV,3,2,10,67,51,312,16,78,05,246,,77,50,281,,76,51,016,*61
$GLGSV,3,3,10,75,02,050,,68,02,333,*6E
$GPGSA,A,3,05,07,08,09,16,23,27,28,,,,,1.0,0.7,0.7*39
$GPVTG,92.2,T,92.2,M,27.7,N,51.3,K,A*26
$GPRMC,052342,A,3721.135611,N,12158.223758,W,27.7,92.2,111116,0.0,E,A*07
$GPGGA,052342,3721.135611,N,12158.223758,W,1,08,0.7,3.0,M,-27.0,M,,*76
$GPGSV,3,1,10,05,09,319,16,07,61,314,18,08,26,118,17,09,81,091,23*7E
$GPGSV,3,2,10,16,17,040,20,23,45,123,18,27,24,073,12,28,15,209,16*71
$GPGSV,3,3,10,03,00,000,,30,36,277,*7F
$GLGSV,3,1,10,66,59,192,19,86,10,091,12,65,07,163,12,85,09,040,23*6E
$GLGSV,3,2,10,67,51,312,16,78,05,246,,77,50,281,,76,51,016,*61
$GLGSV,3,3,10,75,02,050,,68,02,333,*6E
$GPGSV,3,1,10,05,09,319,16,07,61,314,18,08,26,118,17,09,81,091,23*7E
$GPGSV,3,2,10,16,17,040,20,23,45,123,18,27,24,073,12,28,15,209,16*71
$GPGSV,3,3,10,03,00,000,,30,36,277,*7F
$GLGSV,3,1,10,66,59,192,19,86,10,091,12,65,07,163,12,85,09,040,23*6E
$GLGSV,3,2,10,67,51,312,16,78,05,246,,77,50,281,,76,51,016,*61
$GLGSV,3,3,10,75,02,050,,68,02,333,*6E
$GPGSA,A,3,05,07,08,09,16,23,27,28,,,,,1.0,0.7,0.7*39
$GPVTG,92.3,T,92.3,M,25.3,N,46.8,K,A*2D
$GPRMC,052343,A,3721.134813,N,12158.213249,W,25.3,92.3,111116,0.0,E,A*0A
$GPGGA,052343,3721.134813,N,12158.213249,W,1,08,0.7,3.0,M,-27.0,M,,*7C
$GPGSV,3,1,10,05,09,319,16,07,61,314,18,08,26,118,17,09,81,091,21*7C
$GPGSV,3,2,10,16,17,040,21,23,45,123,18,27,24,073,12,28,15,209,16*70
$GPGSV,3,3,10,03,00,000,,30,36,277,*7F
$GLGSV,3,1,10,66,59,192,20,86,10,091,17,65,07,163,13,85,09,040,20*63
$GLGSV,3,2,10,67,51,312,16,78,05,246,,77,50,281,,76,51,016,*61
$GLGSV,3,3,10,75,02,050,,68,02,333,*6E
$GPGSV,3,1,10,05,09,319,16,07,61,314,18,08,26,118,17,09,81,091,21*7C
$GPGSV,3,2,10,16,17,040,21,23,45,123,18,27,24,073,12,28,15,209,16*70
$GPGSV,3,3,10,03,00,000,,30,36,277,*7F
$GLGSV,3,1,10,66,59,192,20,86,10,091,17,65,07,163,13,85,09,040,20*63
$GLGSV,3,2,10,67,51,312,16,78,05,246,,77,50,281,,76,51,016,*61
$GLGSV,3,3,10,75,02,050,,68,02,333,*6E
$GPGSA,A,3,05,07,08,09,16,23,27,28,,,,,1.1,0.8,0.7*37
$GPVTG,93.0,T,93.0,M,25.3,N,46.8,K,A*2D
$GPRMC,052344,A,3721.134432,N,12158.204357,W,25.3,93.0,111116,0.0,E,A*08
$GPGGA,052344,3721.134432,N,12158.204357,W,1,08,0.8,4.0,M,-27.0,M,,*74
$GPGSV,3,1,10,05,09,319,19,07,61,314,18,08,26,118,17,09,81,091,21*73
$GPGSV,3,2,10,16,17,040,17,23,45,123,18,27,24,073,12,28,15,209,16*75
$GPGSV,3,3,10,03,00,000,,30,36,277,*7F
$GLGSV,3,1,10,66,59,192,17,86,10,091,17,65,07,163,13,85,09,040,19*6D
$GLGSV,3,2,10,67,51,312,16,78,05,246,,77,50,281,,76,51,016,*61
$GLGSV,3,3,10,75,02,050,,68,02,333,*6E
$GPGSV,3,1,10,05,09,319,19,07,61,314,18,08,26,118,17,09,81,091,21*73
$GPGSV,3,2,10,16,17,040,17,23,45,123,18,27,24,073,12,28,15,209,16*75
$GPGSV,3,3,10,03,00,000,,30,36,277,*7F
$GLGSV,3,1,10,66,59,192,17,86,10,091,17,65,07,163,13,85,09,040,19*6D
$GLGSV,3,2,10,67,51,312,16,78,05,246,,77,50,281,,76,51,016,*61
$GLGSV,3,3,10,75,02,050,,68,02,333,*6E
$GPGSA,A,3,05,07,08,09,16,23,27,28,,,,,1.1,0.8,0.7*37
$GPVTG,88.6,T,88.6,M,24.3,N,45.0,K,A*27
$GPRMC,052345,A,3721.134467,N,12158.195835,W,24.3,88.6,111116,0.0,E,A*00
$GPGGA,052345,3721.134467,N,12158.195835,W,1,08,0.8,5.0,M,-27.0,M,,*70
$GPGSV,3,1,10,05,09,319,17,07,61,314,16,08,26,118,17,09,81,091,17*76
$GPGSV,3,2,10,16,17,040,17,23,45,123,16,27,24,073,12,28,15,209,16*7B
$GPGSV,3,3,10,03,00,000,,30,36,277,*7F
$GLGSV,3,1,10,66,59,192,17,86,10,091,18,65,07,163,13,85,09,040,23*6B
$GLGSV,3,2,10,67,51,312,16,78,05,246,,77,50,281,,76,51,016,*61
$GLGSV,3,3,10,75,02,050,,68,02,333,*6E
$GPGSV,3,1,10,05,09,319,17,07,61,314,16,08,26,118,17,09,81,091,17*76
$GPGSV,3,2,10,16,17,040,17,23,45,123,16,27,24,073,12,28,15,209,16*7B
$GPGSV,3,3,10,03,00,000,,30,36,277,*7F
$GLGSV,3,1,10,66,59,192,17,86,10,091,18,65,07,163,13,85,09,040,23*6B
$GLGSV,3,2,10,67,51,312,16,78,05,246,,77,50,281,,76,51,016,*61
$GLGSV,3,3,10,75,02,050,,68,02,333,*6E
$GPGSA,A,3,05,07,08,09,16,23,27,28,,,,,1.1,0.8,0.7*37
$GPVTG,85.6,T,85.6,M,22.4,N,41.4,K,A*26
$GPRMC,052346,A,3721.135402,N,12158.187092,W,22.4,85.6,111116,0.0,E,A*0B
$GPGGA,052346,3721.135402,N,12158.187092,W,1,08,0.8,4.0,M,-27.0,M,,*76
$GPGSV,3,1,10,05,09,319,22,07,61,314,16,08,26,118,17,09,81,091,17*70
$GPGSV,3,2,10,16,17,040,19,23,45,123,16,27,24,073,12,28,15,209,15*76
$GPGSV,3,3,10,03,00,000,,30,36,277,*7F
$GLGSV,3,1,10,66,59,192,17,86,10,091,18,65,07,163,13,85,09,040,23*6B
$GLGSV,3,2,10,67,51,312,16,78,05,246,,77,50,281,,76,51,016,*61
$GLGSV,3,3,10,75,02,050,,68,02,333,*6E
$GPGSV,3,1,10,05,09,319,22,07,61,314,16,08,26,118,17,09,81,091,17*70
$GPGSV,3,2,10,16,17,040,19,23,45,123,16,27,24,073,12,28,15,209,15*76
$GPGSV,3,3,10,03,00,000,,30,36,277,*7F
$GLGSV,3,1,10,66,59,192,17,86,10,091,18,65,07,163,13,85,09,040,23*6B
$GLGSV,3,2,10,67,51,312,16,78,05,246,,77,50,281,,76,51,016,*61
$GLGSV,3,3,10,75,02,050,,68,02,333,*6E
$GPGSA,A,3,05,07,08,09,16,23,27,28,,,,,1.0,0.7,0.7*39
$GPVTG,86.8,T,86.8,M,20.4,N,37.8,K,A*29
$GPRMC,052347,A,3721.135211,N,12158.179583,W,20.4,86.8,111116,0.0,E,A*05
$GPGGA,052347,3721.135211,N,12158.179583,W,1,08,0.7,4.0,M,-27.0,M,,*78
$GPGSV,3,1,10,05,09,319,24,07,61,314,15,08,26,118,16,09,81,091,18*7B
$GPGSV,3,2,10,16,17,040,23,23,45,123,16,27,24,073,12,28,15,209,15*7F
$GPGSV,3,3,10,03,00,000,,30,36,277,*7F
$GLGSV,3,1,10,66,59,192,17,86,10,091,18,65,07,163,13,85,09,040,18*63
$GLGSV,3,2,10,67,51,312,11,78,05,246,,77,50,281,,76,51,016,*66
$GLGSV,3,3,10,75,02,050,,68,02,333,*6E
$GPGSV,3,1,10,05,09,319,24,07,61,314,15,08,26,118,16,09,81,091,18*7B
$GPGSV,3,2,10,16,17,040,23,23,45,123,16,27,24,073,12,28,15,209,15*7F
$GPGSV,3,3,10,03,00,000,,30,36,277,*7F
$GLGSV,3,1,10,66,59,192,17,86,10,091,18,65,07,163,13,85,09,040,18*63
$GLGSV,3,2,10,67,51,312,11,78,05,246,,77,50,281,,76,51,016,*66
$GLGSV,3,3,10,75,02,050,,68,02,333,*6E
$GPGSA,A,3,05,07,08,09,16,23,27,28,,,,,1.0,0.7,0.7*39
$GPVTG,88.9,T,88.9,M,19.0,N,35.1,K,A*2C
$GPRMC,052348,A,3721.135579,N,12158.174561,W,19.0,88.9,111116,0.0,E,A*03
$GPGGA,052348,3721.135579,N,12158.174561,W,1,08,0.7,6.0,M,-27.0,M,,*7D
$GPGSV,3,1,10,05,09,319,24,07,61,314,15,08,26,118,16,09,81,091,20*70
$GPGSV,3,2,10,16,17,040,22,23,45,123,16,27,24,073,12,28,15,209,16*7D
$GPGSV,3,3,10,03,00,000,,30,36,277,*7F
$GLGSV,3,1,10,66,59,192,17,86,10,091,18,65,07,163,13,85,09,040,22*6A
$GLGSV,3,2,10,67,51,312,16,78,05,246,,77,50,281,,76,51,016,*61
$GLGSV,3,3,10,75,02,050,,68,02,333,*6E
$GPGSV,3,1,10,05,09,319,24,07,61,314,15,08,26,118,16,09,81,091,20*70
$GPGSV,3,2,10,16,17,040,22,23,45,123,16,27,24,073,12,28,15,209,16*7D
$GPGSV,3,3,10,03,00,000,,30,36,277,*7F
$GLGSV,3,1,10,66,59,192,17,86,10,091,18,65,07,163,13,85,09,040,22*6A
$GLGSV,3,2,10,67,51,312,16,78,05,246,,77,50,281,,76,51,016,*61
$GLGSV,3,3,10,75,02,050,,68,02,333,*6E
$GPGSA,A,3,05,07,08,09,16,23,27,28,,,,,1.0,0.7,0.7*39
$GPVTG,92.0,T,92.0,M,18.0,N,33.3,K,A*29
$GPRMC,052349,A,3721.135426,N,12158.168132,W,18.0,92.0,111116,0.0,E,A*05
$GPGGA,052349,3721.135426,N,12158.168132,W,1,08,0.7,6.0,M,-27.0,M,,*78
$GPGSV,3,1,10,05,09,319,22,07,61,314,15,08,26,118,16,09,81,091,21*77
$GPGSV,3,2,10,16,17,040,16,23,45,123,16,27,24,073,12,28,15,209,18*74
$GPGSV,3,3,10,03,00,000,,30,36,277,*7F
$GLGSV,3,1,10,66,59,192,12,86,10,091,18,65,07,163,13,85,09,040,24*69
$GLGSV,3,2,10,67,51,312,19,78,05,246,,77,50,281,,76,51,016,*6E
$GLGSV,3,3,10,75,02,050,,68,02,333,*6E
$GPGSV,3,1,10,05,09,319,22,07,61,314,15,08,26,118,16,09,81,091,21*77
$GPGSV,3,2,10,16,17,040,16,23,45,123,16,27,24,073,12,28,15,209,18*74
$GPGSV,3,3,10,03,00,000,,30,36,277,*7F
$GLGSV,3,1,10,66,59,192,12,86,10,091,18,65,07,163,13,85,09,040,24*69
$GLGSV,3,2,10,67,51,312,19,78,05,246,,77,50,281,,76,51,016,*6E
$GLGSV,3,3,10,75,02,050,,68,02,333,*6E
$GPGSA,A,3,05,07,08,09,16,23,27,28,,,,,1.1,0.8,0.7*37
$GPVTG,86.8,T,86.8,M,17.5,N,32.4,K,A*25
$GPRMC,052350,A,3721.135591,N,12158.162040,W,17.5,86.8,111116,0.0,E,A*09
$GPGGA,052350,3721.135591,N,12158.162040,W,1,08,0.8,8.0,M,-27.0,M,,*72
$GPGSV,3,1,09,05,09,319,24,07,61,314,15,08,26,118,16,09,81,091,22*7A
$GPGSV,3,2,09,16,17,040,18,23,45,123,19,28,15,209,22,03,00,000,*73
$GPGSV,3,3,09,30,36,277,*44
$GLGSV,3,1,10,66,59,192,12,86,10,091,13,65,07,163,13,85,09,040,22*64
$GLGSV,3,2,10,67,51,312,17,78,05,246,,77,50,281,,76,51,016,*60
$GLGSV,3,3,10,75,02,050,,68,02,333,*6E
$GPGSV,3,1,09,05,09,319,24,07,61,314,15,08,26,118,16,09,81,091,22*7A
$GPGSV,3,2,09,16,17,040,18,23,45,123,19,28,15,209,22,03,00,000,*73
$GPGSV,3,3,09,30,36,277,*44
$GLGSV,3,1,10,66,59,192,12,86,10,091,13,65,07,163,13,85,09,040,22*64
$GLGSV,3,2,10,67,51,312,17,78,05,246,,77,50,281,,76,51,016,*60
$GLGSV,3,3,10,75,02,050,,68,02,333,*6E
$GPGSA,A,3,05,07,08,09,16,23,28,,,,,,1.1,0.8,0.7*32
$GPVTG,91.6,T,91.6,M,15.6,N,28.8,K,A*23
$GPRMC,052351,A,3721.136893,N,12158.157390,W,15.6,91.6,111116,0.0,E,A*05
$GPGGA,052351,3721.136893,N,12158.157390,W,1,07,0.8,8.0,M,-27.0,M,,*78
$GPGSV,3,1,10,05,09,319,24,07,61,314,15,08,26,118,16,09,81,091,21*71
$GPGSV,3,2,10,16,17,040,21,23,45,123,19,28,15,209,19,03,00,000,*79
$GPGSV,3,3,10,27,24,073,,30,36,277,*7B
$GLGSV,3,1,10,66,59,192,12,86,10,091,13,75,02,050,14,65,07,163,13*64
$GLGSV,3,2,10,85,09,040,21,67,51,312,18,78,05,246,,77,50,281,*6E
$GLGSV,3,3,10,76,51,016,,68,02,333,*69
$GPGSV,3,1,10,05,09,319,24,07,61,314,15,08,26,118,16,09,81,091,21*71
$GPGSV,3,2,10,16,17,040,21,23,45,123,19,28,15,209,19,03,00,000,*79
$GPGSV,3,3,10,27,24,073,,30,36,277,*7B
$GLGSV,3,1,10,66,59,192,12,86,10,091,13,75,02,050,14,65,07,163,13*64
$GLGSV,3,2,10,85,09,040,21,67,51,312,18,78,05,246,,77,50,281,*6E
$GLGSV,3,3,10,76,51,016,,68,02,333,*69
$GPGSA,A,3,05,07,08,09,16,23,28,,,,,,1.1,0.8,0.7*32
$GPVTG,86.2,T,86.2,M,15.1,N,27.9,K,A*2A
$GPRMC,052352,A,3721.138194,N,12158.151912,W,15.1,86.2,111116,0.0,E,A*05
$GPGGA,052352,3721.138194,N,12158.151912,W,1,07,0.8,8.0,M,-27.0,M,,*7D
$GPGSV,3,1,10,05,09,319,21,07,61,314,14,08,26,118,16,09,81,091,21*75
$GPGSV,3,2,10,16,17,040,21,23,45,123,19,28,15,209,18,03,00,000,*78
$GPGSV,3,3,10,27,24,073,,30,36,277,*7B
$GLGSV,3,1,10,66,59,192,16,86,10,091,18,75,02,050,13,65,07,163,13*6C
$GLGSV,3,2,10,85,09,040,24,67,51,312,17,78,05,246,,77,50,281,*64
$GLGSV,3,3,10,76,51,016,,68,02,333,*69
$GPGSV,3,1,10,05,09,319,21,07,61,314,14,08,26,118,16,09,81,091,21*75
$GPGSV,3,2,10,16,17,040,21,23,45,123,19,28,15,209,18,03,00,000,*78
$GPGSV,3,3,10,27,24,073,,30,36,277,*7B
$GLGSV,3,1,10,66,59,192,16,86,10,091,18,75,02,050,13,65,07,163,13*6C
$GLGSV,3,2,10,85,09,040,24,67,51,312,17,78,05,246,,77,50,281,*64
$GLGSV,3,3,10,76,51,016,,68,02,333,*69
$GPGSA,A,3,05,07,08,09,16,23,28,,,,,,1.1,0.8,0.7*32
$GPVTG,94.6,T,94.6,M,10.2,N,18.9,K,A*20
$GPRMC,052353,A,3721.137552,N,12158.148704,W,10.2,94.6,111116,0.0,E,A*05
$GPGGA,052353,3721.137552,N,12158.148704,W,1,07,0.8,7.0,M,-27.0,M,,*73
$GPGSV,3,1,10,05,09,319,21,07,61,314,14,08,26,118,16,09,81,091,21*75
$GPGSV,3,2,10,16,17,040,20,23,45,123,19,28,15,209,18,03,00,000,*79
$GPGSV,3,3,10,27,24,073,,30,36,277,*7B
$GLGSV,3,1,10,66,59,192,16,86,10,091,18,75,02,050,14,65,07,163,13*6B
$GLGSV,3,2,10,85,09,040,24,67,51,312,16,78,05,246,,77,50,281,*65
$GLGSV,3,3,10,76,51,016,,68,02,333,*69
$GPGSV,3,1,10,05,09,319,21,07,61,314,14,08,26,118,16,09,81,091,21*75
$GPGSV,3,2,10,16,17,040,20,23,45,123,19,28,15,209,18,03,00,000,*79
$GPGSV,3,3,10,27,24,073,,30,36,277,*7B
$GLGSV,3,1,10,66,59,192,16,86,10,091,18,75,02,050,14,65,07,163,13*6B
$GLGSV,3,2,10,85,09,040,24,67,51,312,16,78,05,246,,77,50,281,*65
$GLGSV,3,3,10,76,51,016,,68,02,333,*69
$GPGSA,A,3,05,07,08,09,16,23,28,,,,,,1.1,0.8,0.7*32
$GPVTG,88.1,T,88.1,M,9.7,N,18.0,K,A*14
$GPRMC,052354,A,3721.137834,N,12158.144221,W,9.7,88.1,111116,0.0,E,A*36
$GPGGA,052354,3721.137834,N,12158.144221,W,1,07,0.8,7.0,M,-27.0,M,,*77
$GPGSV,3,1,10,05,09,319,24,07,61,314,16,08,26,118,16,09,81,091,20*73
$GPGSV,3,2,10,16,17,040,22,23,45,123,19,28,15,209,18,03,00,000,*7B
$GPGSV,3,3,10,27,24,073,,30,36,277,*7B
$GLGSV,3,1,10,66,59,192,16,86,10,091,16,75,02,050,14,65,07,163,13*65
$GLGSV,3,2,10,85,09,040,24,67,51,312,16,78,05,246,,77,50,281,*65
$GLGSV,3,3,10,76,51,016,,68,02,333,*69
$GPGSV,3,1,10,05,09,319,24,07,61,314,16,08,26,118,16,09,81,091,20*73
$GPGSV,3,2,10,16,17,040,22,23,45,123,19,28,15,209,18,03,00,000,*7B
$GPGSV,3,3,10,27,24,073,,30,36,277,*7B
$GLGSV,3,1,10,66,59,192,16,86,10,091,16,75,02,050,14,65,07,163,13*65
$GLGSV,3,2,10,85,09,040,24,67,51,312,16,78,05,246,,77,50,281,*65
$GLGSV,3,3,10,76,51,016,,68,02,333,*69
$GPGSA,A,3,05,07,08,09,16,23,28,,,,,,1.1,0.9,0.7*33
$GPVTG,93.1,T,93.1,M,5.3,N,9.9,K,A*25
$GPRMC,052355,A,3721.137697,N,12158.143993,W,5.3,93.1,111116,0.0,E,A*37
$GPGGA,052355,3721.137697,N,12158.143993,W,1,07,0.9,8.0,M,-27.0,M,,*7A
$GPGSV,3,1,10,05,09,319,24,07,61,314,16,08,26,118,16,09,81,091,21*72
$GPGSV,3,2,10,16,17,040,22,23,45,123,19,28,15,209,14,03,00,000,*77
$GPGSV,3,3,10,27,24,073,,30,36,277,*7B
$GLGSV,3,1,10,66,59,192,16,86,10,091,16,75,02,050,14,65,07,163,13*65
$GLGSV,3,2,10,85,09,040,25,67,51,312,16,78,05,246,,77,50,281,*64
$GLGSV,3,3,10,76,51,016,,68,02,333,*69
$GPGSV,3,1,10,05,09,319,24,07,61,314,16,08,26,118,16,09,81,091,21*72
$GPGSV,3,2,10,16,17,040,22,23,45,123,19,28,15,209,14,03,00,000,*77
$GPGSV,3,3,10,27,24,073,,30,36,277,*7B
$GLGSV,3,1,10,66,59,192,16,86,10,091,16,75,02,050,14,65,07,163,13*65
$GLGSV,3,2,10,85,09,040,25,67,51,312,16,78,05,246,,77,50,281,*64
$GLGSV,3,3,10,76,51,016,,68,02,333,*69
$GPGSA,A,3,05,07,08,09,16,23,28,,,,,,1.1,0.8,0.7*32
$GPVTG,93.1,T,93.1,M,2.9,N,5.4,K,A*29
$GPRMC,052356,A,3721.137153,N,12158.143413,W,2.9,93.1,111116,0.0,E,A*33
$GPGGA,052356,3721.137153,N,12158.143413,W,1,07,0.8,9.0,M,-27.0,M,,*73
$GPGSV,3,1,10,05,09,319,24,07,61,314,15,08,26,118,14,09,81,091,22*70
$GPGSV,3,2,10,16,17,040,20,23,45,123,15,28,15,209,14,03,00,000,*79
$GPGSV,3,3,10,27,24,073,,30,36,277,*7B
$GLGSV,3,1,10,66,59,192,16,86,10,091,16,77,50,281,18,75,02,050,17*63
$GLGSV,3,2,10,65,07,163,13,85,09,040,25,67,51,312,16,78,05,246,*68
$GLGSV,3,3,10,76,51,016,,68,02,333,*69
$GPGSV,3,1,10,05,09,319,24,07,61,314,15,08,26,118,14,09,81,091,22*70
$GPGSV,3,2,10,16,17,040,20,23,45,123,15,28,15,209,14,03,00,000,*79
$GPGSV,3,3,10,27,24,073,,30,36,277,*7B
$GLGSV,3,1,10,66,59,192,16,86,10,091,16,77,50,281,18,75,02,050,17*63
$GLGSV,3,2,10,65,07,163,13,85,09,040,25,67,51,312,16,78,05,246,*68
$GLGSV,3,3,10,76,51,016,,68,02,333,*69
$GPGSA,A,3,05,07,08,09,16,23,28,,,,,,1.1,0.8,0.7*32
$GPVTG,118.4,T,118.4,M,2.4,N,4.5,K,A*24
$GPRMC,052357,A,3721.136442,N,12158.142472,W,2.4,118.4,111116,0.0,E,A*0A
$GPGGA,052357,3721.136442,N,12158.142472,W,1,07,0.8,9.0,M,-27.0,M,,*70
$GPGSV,3,1,10,05,09,319,25,07,61,314,17,08,26,118,14,09,81,091,23*72
$GPGSV,3,2,10,16,17,040,20,23,45,123,15,28,15,209,14,03,00,000,*79
$GPGSV,3,3,10,27,24,073,,30,36,277,*7B
$GLGSV,3,1,10,66,59,192,16,86,10,091,16,77,50,281,17,75,02,050,18*63
$GLGSV,3,2,10,65,07,163,13,85,09,040,26,67,51,312,16,78,05,246,*6B
$GLGSV,3,3,10,76,51,016,,68,02,333,*69
$GPGSV,3,1,10,05,09,319,25,07,61,314,17,08,26,118,14,09,81,091,23*72
$GPGSV,3,2,10,16,17,040,20,23,45,123,15,28,15,209,14,03,00,000,*79
$GPGSV,3,3,10,27,24,073,,30,36,277,*7B
$GLGSV,3,1,10,66,59,192,16,86,10,091,16,77,50,281,17,75,02,050,18*63
$GLGSV,3,2,10,65,07,163,13,85,09,040,26,67,51,312,16,78,05,246,*6B
$GLGSV,3,3,10,76,51,016,,68,02,333,*69
$GPGSA,A,3,05,07,08,09,16,23,28,,,,,,1.1,0.8,0.7*32
$GPVTG,101.0,T,101.0,M,1.5,N,2.7,K,A*22
$GPRMC,052358,A,3721.136863,N,12158.142363,W,1.5,101.0,111116,0.0,E,A*03
$GPGGA,052358,3721.136863,N,12158.142363,W,1,07,0.8,11.0,M,-27.0,M,,*4E
$GPGSV,3,1,10,05,09,319,22,07,61,314,17,08,26,118,14,09,81,091,21*77
$GPGSV,3,2,10,16,17,040,16,23,45,123,15,28,15,209,14,03,00,000,*7C
$GPGSV,3,3,10,27,24,073,,30,36,277,*7B
$GLGSV,3,1,10,66,59,192,16,86,10,091,14,77,50,281,16,75,02,050,18*60
$GLGSV,3,2,10,65,07,163,13,85,09,040,25,67,51,312,16,78,05,246,*68
$GLGSV,3,3,10,76,51,016,,68,02,333,*69
$GPGSV,3,1,10,05,09,319,22,07,61,314,17,08,26,118,14,09,81,091,21*77
$GPGSV,3,2,10,16,17,040,16,23,45,123,15,28,15,209,14,03,00,000,*7C
$GPGSV,3,3,10,27,24,073,,30,36,277,*7B
$GLGSV,3,1,10,66,59,192,16,86,10,091,14,77,50,281,16,75,02,050,18*60
$GLGSV,3,2,10,65,07,163,13,85,09,040,25,67,51,312,16,78,05,246,*68
$GLGSV,3,3,10,76,51,016,,68,02,333,*69
$GPGSA,A,3,05,07,08,09,16,23,28,,,,,,1.1,0.8,0.7*32
$GPVTG,68.5,T,68.5,M,1.9,N,3.6,K,A*2E
$GPRMC,052359,A,3721.136839,N,12158.142279,W,1.9,68.5,111116,0.0,E,A*30
$GPGGA,052359,3721.136839,N,12158.142279,W,1,07,0.8,11.0,M,-27.0,M,,*4A
$GPGSV,3,1,10,05,09,319,22,07,61,314,17,08,26,118,14,09,81,091,23*75
$GPGSV,3,2,10,16,17,040,22,23,45,123,15,28,15,209,14,03,00,000,*7B
$GPGSV,3,3,10,27,24,073,,30,36,277,*7B
$GLGSV,3,1,10,66,59,192,16,86,10,091,14,77,50,281,15,75,02,050,16*6D
$GLGSV,3,2,10,65,07,163,13,85,09,040,25,67,51,312,16,78,05,246,*68
$GLGSV,3,3,10,76,51,016,,68,02,333,*69
$GPGSV,3,1,10,05,09,319,22,07,61,314,17,08,26,118,14,09,81,091,23*75
$GPGSV,3,2,10,16,17,040,22,23,45,123,15,28,15,209,14,03,00,000,*7B
$GPGSV,3,3,10,27,24,073,,30,36,277,*7B
$GLGSV,3,1,10,66,59,192,16,86,10,091,14,77,50,281,15,75,02,050,16*6D
$GLGSV,3,2,10,65,07,163,13,85,09,040,25,67,51,312,16,78,05,246,*68
$GLGSV,3,3,10,76,51,016,,68,02,333,*69
$GPGSA,A,3,05,07,08,09,16,23,28,,,,,,1.1,0.8,0.7*32
$GPVTG,68.5,T,68.5,M,0.5,N,0.9,K,A*2F
$GPRMC,052400,A,3721.136663,N,12158.140929,W,0.5,68.5,111116,0.0,E,A*3B
$GPGGA,052400,3721.136663,N,12158.140929,W,1,07,0.8,10.0,M,-27.0,M,,*4D
$GPGSV,3,1,10,05,09,319,21,07,61,314,18,08,26,118,14,09,81,091,22*78
$GPGSV,3,2,10,16,17,040,19,23,45,123,15,28,15,209,14,03,00,000,*73
$GPGSV,3,3,10,27,24,073,,30,36,277,*7B
$GLGSV,3,1,10,66,59,192,16,86,10,091,14,77,50,281,14,75,02,050,16*6C
$GLGSV,3,2,10,65,07,163,13,85,09,040,24,67,51,312,16,78,05,246,*69
$GLGSV,3,3,10,76,51,016,,68,02,333,*69
$GPGSV,3,1,10,05,09,319,21,07,61,314,18,08,26,118,14,09,81,091,22*78
$GPGSV,3,2,10,16,17,040,19,23,45,123,15,28,15,209,14,03,00,000,*73
$GPGSV,3,3,10,27,24,073,,30,36,277,*7B
$GLGSV,3,1,10,66,59,192,16,86,10,091,14,77,50,281,14,75,02,050,16*6C
$GLGSV,3,2,10,65,07,163,13,85,09,040,24,67,51,312,16,78,05,246,*69
$GLGSV,3,3,10,76,51,016,,68,02,333,*69
$GPGSA,A,3,05,07,08,09,16,23,28,,,,,,1.1,0.8,0.7*32
$GPVTG,68.5,T,68.5,M,1.5,N,2.7,K,A*22
$GPRMC,052401,A,3721.137152,N,12158.141495,W,1.5,68.5,111116,0.0,E,A*34
$GPGGA,052401,3721.137152,N,12158.141495,W,1,07,0.8,10.0,M,-27.0,M,,*43
$GPGSV,3,1,10,05,09,319,22,07,61,314,19,08,26,118,14,09,81,091,21*79
$GPGSV,3,2,10,16,17,040,22,23,45,123,15,28,15,209,14,03,00,000,*7B
$GPGSV,3,3,10,27,24,073,,30,36,277,*7B
$GLGSV,3,1,10,66,59,192,16,86,10,091,14,77,50,281,14,75,02,050,16*6C
$GLGSV,3,2,10,65,07,163,13,85,09,040,25,67,51,312,18,78,05,246,*66
$GLGSV,3,3,10,76,51,016,,68,02,333,*69
$GPGSV,3,1,10,05,09,319,22,07,61,314,19,08,26,118,14,09,81,091,21*79
$GPGSV,3,2,10,16,17,040,22,23,45,123,15,28,15,209,14,03,00,000,*7B
$GPGSV,3,3,10,27,24,073,,30,36,277,*7B
$GLGSV,3,1,10,66,59,192,16,86,10,091,14,77,50,281,14,75,02,050,16*6C
$GLGSV,3,2,10,65,07,163,13,85,09,040,25,67,51,312,18,78,05,246,*66
$GLGSV,3,3,10,76,51,016,,68,02,333,*69
$GPGSA,A,3,05,07,08,09,16,23,28,,,,,,1.1,0.8,0.7*32
$GPVTG,17.2,T,17.2,M,3.9,N,7.2,K,A*2C
$GPRMC,052402,A,3721.137975,N,12158.141200,W,3.9,17.2,111116,0.0,E,A*31
$GPGGA,052402,3721.137975,N,12158.141200,W,1,07,0.8,10.0,M,-27.0,M,,*47
$GPGSV,3,1,10,05,09,319,19,07,61,314,19,08,26,118,14,09,81,091,22*72
$GPGSV,3,2,10,16,17,040,19,23,45,123,14,28,15,209,14,03,00,000,*72
$GPGSV,3,3,10,27,24,073,,30,36,277,*7B
$GLGSV,3,1,09,66,59,192,16,86,10,091,14,77,50,281,14,75,02,050,16*64
$GLGSV,3,2,09,85,09,040,24,67,51,312,18,78,05,246,,76,51,016,*6F
$GLGSV,3,3,09,68,02,333,*53
$GPGSV,3,1,10,05,09,319,19,07,61,314,19,08,26,118,14,09,81,091,22*72
$GPGSV,3,2,10,16,17,040,19,23,45,123,14,28,15,209,14,03,00,000,*72
$GPGSV,3,3,10,27,24,073,,30,36,277,*7B
$GLGSV,3,1,09,66,59,192,16,86,10,091,14,77,50,281,14,75,02,050,16*64
$GLGSV,3,2,09,85,09,040,24,67,51,312,18,78,05,246,,76,51,016,*6F
$GLGSV,3,3,09,68,02,333,*53
$GPGSA,A,3,05,07,08,09,16,23,28,,,,,,1.4,1.1,0.8*30
$GPVTG,17.2,T,17.2,M,0.5,N,0.9,K,A*2F
$GPRMC,052403,A,3721.137082,N,12158.141005,W,0.5,17.2,111116,0.0,E,A*39
$GPGGA,052403,3721.137082,N,12158.141005,W,1,07,1.1,10.0,M,-27.0,M,,*48
$GPGSV,3,1,10,05,09,319,19,07,61,314,17,08,26,118,14,09,81,091,22*7C
$GPGSV,3,2,10,16,17,040,20,23,45,123,14,27,24,073,12,28,15,209,14*7F
$GPGSV,3,3,10,03,00,000,,30,36,277,*7F
$GLGSV,3,1,10,66,59,192,16,86,10,091,15,77,50,281,14,75,02,050,14*6F
$GLGSV,3,2,10,85,09,040,25,67,51,312,17,78,05,246,,76,51,016,*69
$GLGSV,3,3,10,65,07,163,,68,02,333,*6B
$GPGSV,3,1,10,05,09,319,19,07,61,314,17,08,26,118,14,09,81,091,22*7C
$GPGSV,3,2,10,16,17,040,20,23,45,123,14,27,24,073,12,28,15,209,14*7F
$GPGSV,3,3,10,03,00,000,,30,36,277,*7F
$GLGSV,3,1,10,66,59,192,16,86,10,091,15,77,50,281,14,75,02,050,14*6F
$GLGSV,3,2,10,85,09,040,25,67,51,312,17,78,05,246,,76,51,016,*69
$GLGSV,3,3,10,65,07,163,,68,02,333,*6B
$GPGSA,A,3,05,07,08,09,16,23,27,28,,,,,1.5,1.2,0.9*36
$GPVTG,17.2,T,17.2,M,1.0,N,1.8,K,A*2B
$GPRMC,052404,A,3721.136786,N,12158.141425,W,1.0,17.2,111116,0.0,E,A*3E
$GPGGA,052404,3721.136786,N,12158.141425,W,1,08,1.2,12.0,M,-27.0,M,,*45
$GPGSV,3,1,10,05,09,319,22,07,61,314,19,08,26,118,14,09,81,091,21*79
$GPGSV,3,2,10,16,17,040,19,23,45,123,14,27,24,073,12,28,15,209,14*75
$GPGSV,3,3,10,03,00,000,,30,36,277,*7F
$GLGSV,3,1,10,66,59,192,16,86,10,091,15,77,50,281,14,75,02,050,14*6F
$GLGSV,3,2,10,85,09,040,24,67,51,312,19,78,05,246,,76,51,016,*66
$GLGSV,3,3,10,65,07,163,,68,02,333,*6B
$GPGSV,3,1,10,05,09,319,22,07,61,314,19,08,26,118,14,09,81,091,21*79
$GPGSV,3,2,10,16,17,040,19,23,45,123,14,27,24,073,12,28,15,209,14*75
$GPGSV,3,3,10,03,00,000,,30,36,277,*7F
$GLGSV,3,1,10,66,59,192,16,86,10,091,15,77,50,281,14,75,02,050,14*6F
$GLGSV,3,2,10,85,09,040,24,67,51,312,19,78,05,246,,76,51,016,*66
$GLGSV,3,3,10,65,07,163,,68,02,333,*6B
$GPGSA,A,3,05,07,08,09,16,23,27,28,,,,,1.5,1.2,0.9*36
$GPVTG,17.2,T,17.2,M,0.5,N,0.9,K,A*2F
$GPRMC,052405,A,3721.137035,N,12158.141537,W,0.5,17.2,111116,0.0,E,A*37
$GPGGA,052405,3721.137035,N,12158.141537,W,1,08,1.2,13.0,M,-27.0,M,,*49
$GPGSV,3,1,10,05,09,319,20,07,61,314,19,08,26,118,14,09,81,091,21*7B
$GPGSV,3,2,10,16,17,040,21,23,45,123,16,27,24,073,12,28,15,209,14*7C
$GPGSV,3,3,10,03,00,000,,30,36,277,*7F
$GLGSV,3,1,10,66,59,192,16,86,10,091,16,77,50,281,15,75,02,050,14*6D
$GLGSV,3,2,10,85,09,040,23,67,51,312,17,78,05,246,,76,51,016,*6F
$GLGSV,3,3,10,65,07,163,,68,02,333,*6B
$GPGSV,3,1,10,05,09,319,20,07,61,314,19,08,26,118,14,09,81,091,21*7B
$GPGSV,3,2,10,16,17,040,21,23,45,123,16,27,24,073,12,28,15,209,14*7C
$GPGSV,3,3,10,03,00,000,,30,36,277,*7F
$GLGSV,3,1,10,66,59,192,16,86,10,091,16,77,50,281,15,75,02,050,14*6D
$GLGSV,3,2,10,85,09,040,23,67,51,312,17,78,05,246,,76,51,016,*6F
$GLGSV,3,3,10,65,07,163,,68,02,333,*6B
$GPGSA,A,3,05,07,08,09,16,23,27,28,,,,,1.5,1.2,0.9*36
$GPVTG,17.2,T,17.2,M,1.0,N,1.8,K,A*2B
$GPRMC,052406,A,3721.137231,N,12158.141689,W,1.0,17.2,111116,0.0,E,A*30
$GPGGA,052406,3721.137231,N,12158.141689,W,1,08,1.2,12.0,M,-27.0,M,,*4B
$GPGSV,3,1,10,05,09,319,21,07,61,314,21,08,26,118,14,09,81,091,24*74
$GPGSV,3,2,10,16,17,040,23,23,45,123,16,27,24,073,12,28,15,209,14*7E
$GPGSV,3,3,10,03,00,000,,30,36,277,*7F
$GLGSV,3,1,10,66,59,192,16,86,10,091,16,77,50,281,15,75,02,050,16*6F
$GLGSV,3,2,10,85,09,040,24,67,51,312,18,78,05,246,,76,51,016,*67
$GLGSV,3,3,10,65,07,163,,68,02,333,*6B
$GPGSV,3,1,10,05,09,319,21,07,61,314,21,08,26,118,14,09,81,091,24*74
$GPGSV,3,2,10,16,17,040,23,23,45,123,16,27,24,073,12,28,15,209,14*7E
$GPGSV,3,3,10,03,00,000,,30,36,277,*7F
$GLGSV,3,1,10,66,59,192,16,86,10,091,16,77,50,281,15,75,02,050,16*6F
$GLGSV,3,2,10,85,09,040,24,67,51,312,18,78,05,246,,76,51,016,*67
$GLGSV,3,3,10,65,07,163,,68,02,333,*6B
$GPGSA,A,3,05,07,08,09,16,23,27,28,,,,,1.5,1.2,0.9*36
$GPVTG,,T,,M,0.0,N,0.0,K,A*23
$GPRMC,052407,A,3721.136907,N,12158.142005,W,0.0,,111116,0.0,E,A*24
$GPGGA,052407,3721.136907,N,12158.142005,W,1,08,1.2,12.0,M,-27.0,M,,*44
$GPGSV,3,1,10,05,09,319,22,07,61,314,22,08,26,118,13,09,81,091,23*74
$GPGSV,3,2,10,16,17,040,22,23,45,123,16,27,24,073,15,28,15,209,14*78
$GPGSV,3,3,10,03,00,000,,30,36,277,*7F
$GLGSV,3,1,10,66,59,192,16,86,10,091,16,77,50,281,15,75,02,050,19*60
$GLGSV,3,2,10,85,09,040,26,67,51,312,19,78,05,246,,76,51,016,*64
$GLGSV,3,3,10,65,07,163,,68,02,333,*6B
$GPGSV,3,1,10,05,09,319,22,07,61,314,22,08,26,118,13,09,81,091,23*74
$GPGSV,3,2,10,16,17,040,22,23,45,123,16,27,24,073,15,28,15,209,14*78
$GPGSV,3,3,10,03,00,000,,30,36,277,*7F
$GLGSV,3,1,10,66,59,192,16,86,10,091,16,77,50,281,15,75,02,050,19*60
$GLGSV,3,2,10,85,09,040,26,67,51,312,19,78,05,246,,76,51,016,*64
$GLGSV,3,3,10,65,07,163,,68,02,333,*6B
$GPGSA,A,3,05,07,08,09,16,23,27,28,,,,,1.4,1.1,0.8*35
$GPVTG,,T,,M,0.0,N,0.0,K,A*23
$GPRMC,052408,A,3721.136579,N,12158.142647,W,0.0,,111116,0.0,E,A*2E
$GPGGA,052408,3721.136579,N,12158.142647,W,1,08,1.1,12.0,M,-27.0,M,,*4D
$GPGSV,3,1,10,05,09,319,20,07,61,314,20,08,26,118,13,09,81,091,22*75
$GPGSV,3,2,10,16,17,040,21,23,45,123,16,27,24,073,15,28,15,209,14*7B
$GPGSV,3,3,10,03,00,000,,30,36,277,*7F
$GLGSV,3,1,10,66,59,192,16,86,10,091,16,77,50,281,15,75,02,050,19*60
$GLGSV,3,2,10,85,09,040,27,67,51,312,20,78,05,246,,76,51,016,*6F
$GLGSV,3,3,10,65,07,163,,68,02,333,*6B
$GPGSV,3,1,10,05,09,319,20,07,61,314,20,08,26,118,13,09,81,091,22*75
$GPGSV,3,2,10,16,17,040,21,23,45,123,16,27,24,073,15,28,15,209,14*7B
$GPGSV,3,3,10,03,00,000,,30,36,277,*7F
$GLGSV,3,1,10,66,59,192,16,86,10,091,16,77,50,281,15,75,02,050,19*60
$GLGSV,3,2,10,85,09,040,27,67,51,312,20,78,05,246,,76,51,016,*6F
$GLGSV,3,3,10,65,07,163,,68,02,333,*6B
$GPGSA,A,3,05,07,08,09,16,23,27,28,,,,,1.1,0.8,0.7*37
$GPVTG,,T,,M,0.0,N,0.0,K,A*23
$GPRMC,052409,A,3721.136354,N,12158.142627,W,0.0,,111116,0.0,E,A*20
$GPGGA,052409,3721.136354,N,12158.142627,W,1,08,0.8,11.0,M,-27.0,M,,*48
$GPGSV,3,1,10,05,09,319,21,07,61,314,19,08,26,118,13,09,81,091,23*7F
$GPGSV,3,2,10,16,17,040,19,23,45,123,16,27,24,073,15,28,15,209,14*70
$GPGSV,3,3,10,03,00,000,,30,36,277,*7F
$GLGSV,3,1,10,78,05,246,17,66,59,192,16,86,10,091,16,77,50,281,15*61
$GLGSV,3,2,10,75,02,050,19,85,09,040,25,67,51,312,18,76,51,016,*61
$GLGSV,3,3,10,65,07,163,,68,02,333,*6B
$GPGSV,3,1,10,05,09,319,21,07,61,314,19,08,26,118,13,09,81,091,23*7F
$GPGSV,3,2,10,16,17,040,19,23,45,123,16,27,24,073,15,28,15,209,14*70
$GPGSV,3,3,10,03,00,000,,30,36,277,*7F
$GLGSV,3,1,10,78,05,246,17,66,59,192,16,86,10,091,16,77,50,281,15*61
$GLGSV,3,2,10,75,02,050,19,85,09,040,25,67,51,312,18,76,51,016,*61
$GLGSV,3,3,10,65,07,163,,68,02,333,*6B
$GPGSA,A,3,05,07,08,09,16,23,27,28,,,,,1.1,0.8,0.7*37
$GPVTG,,T,,M,0.0,N,0.0,K,A*23
$GPRMC,052410,A,3721.136225,N,12158.142657,W,0.0,,111116,0.0,E,A*28
$GPGGA,052410,3721.136225,N,12158.142657,W,1,08,0.8,11.0,M,-27.0,M,,*40
$GPGSV,3,1,10,05,09,319,23,07,61,314,19,08,26,118,16,09,81,091,22*79
$GPGSV,3,2,10,16,17,040,18,23,45,123,14,27,24,073,16,28,15,209,14*70
$GPGSV,3,3,10,03,00,000,,30,36,277,*7F
$GLGSV,3,1,10,78,05,246,16,66,59,192,16,86,10,091,16,77,50,281,15*60
$GLGSV,3,2,10,75,02,050,19,85,09,040,24,67,51,312,19,76,51,016,*61
$GLGSV,3,3,10,65,07,163,,68,02,333,*6B
$GPGSV,3,1,10,05,09,319,23,07,61,314,19,08,26,118,16,09,81,091,22*79
$GPGSV,3,2,10,16,17,040,18,23,45,123,14,27,24,073,16,28,15,209,14*70
$GPGSV,3,3,10,03,00,000,,30,36,277,*7F
$GLGSV,3,1,10,78,05,246,16,66,59,192,16,86,10,091,16,77,50,281,15*60
$GLGSV,3,2,10,75,02,050,19,85,09,040,24,67,51,312,19,76,51,016,*61
$GLGSV,3,3,10,65,07,163,,68,02,333,*6B
$GPGSA,A,3,05,07,08,09,16,23,27,28,,,,,1.1,0.8,0.7*37
$GPVTG,,T,,M,0.0,N,0.0,K,A*23
$GPRMC,052411,A,3721.136319,N,12158.142729,W,0.0,,111116,0.0,E,A*2F
$GPGGA,052411,3721.136319,N,12158.142729,W,1,08,0.8,12.0,M,-27.0,M,,*44
$GPGSV,3,1,10,05,09,319,23,07,61,314,18,08,26,118,18,09,81,091,23*77
$GPGSV,3,2,10,16,17,040,18,23,45,123,14,27,24,073,19,28,15,209,14*7F
$GPGSV,3,3,10,03,00,000,,30,36,277,*7F
$GLGSV,3,1,10,78,05,246,17,66,59,192,16,86,10,091,16,77,50,281,15*61
$GLGSV,3,2,10,75,02,050,19,85,09,040,23,67,51,312,19,76,51,016,*66
$GLGSV,3,3,10,65,07,163,,68,02,333,*6B
$GPGSV,3,1,10,05,09,319,23,07,61,314,18,08,26,118,18,09,81,091,23*77
$GPGSV,3,2,10,16,17,040,18,23,45,123,14,27,24,073,19,28,15,209,14*7F
$GPGSV,3,3,10,03,00,000,,30,36,277,*7F
$GLGSV,3,1,10,78,05,246,17,66,59,192,16,86,10,091,16,77,50,281,15*61
$GLGSV,3,2,10,75,02,050,19,85,09,040,23,67,51,312,19,76,51,016,*66
$GLGSV,3,3,10,65,07,163,,68,02,333,*6B
$GPGSA,A,3,05,07,08,09,16,23,27,28,,,,,1.1,0.8,0.7*37
$GPVTG,,T,,M,0.0,N,0.0,K,A*23
$GPRMC,052412,A,3721.136693,N,12158.142925,W,0.0,,111116,0.0,E,A*29
$GPGGA,052412,3721.136693,N,12158.142925,W,1,08,0.8,12.0,M,-27.0,M,,*42
$GPGSV,3,1,10,05,09,319,24,07,61,314,20,08,26,118,18,09,81,091,23*7B
$GPGSV,3,2,10,16,17,040,18,23,45,123,14,27,24,073,19,28,15,209,14*7F
$GPGSV,3,3,10,03,00,000,,30,36,277,*7F
$GLGSV,3,1,10,78,05,246,17,66,59,192,16,86,10,091,16,77,50,281,15*61
$GLGSV,3,2,10,75,02,050,16,85,09,040,23,67,51,312,19,76,51,016,*69
$GLGSV,3,3,10,65,07,163,,68,02,333,*6B
$GPGSV,3,1,10,05,09,319,24,07,61,314,20,08,26,118,18,09,81,091,23*7B
$GPGSV,3,2,10,16,17,040,18,23,45,123,14,27,24,073,19,28,15,209,14*7F
$GPGSV,3,3,10,03,00,000,,30,36,277,*7F
$GLGSV,3,1,10,78,05,246,17,66,59,192,16,86,10,091,16,77,50,281,15*61
$GLGSV,3,2,10,75,02,050,16,85,09,040,23,67,51,312,19,76,51,016,*69
$GLGSV,3,3,10,65,07,163,,68,02,333,*6B
$GPGSA,A,3,05,07,08,09,16,23,27,28,,,,,1.1,0.8,0.7*37
$GPVTG,,T,,M,0.0,N,0.0,K,A*23
$GPRMC,052413,A,3721.137101,N,12158.143191,W,0.0,,111116,0.0,E,A*23
$GPGGA,052413,3721.137101,N,12158.143191,W,1,08,0.8,12.0,M,-27.0,M,,*48
$GPGSV,3,1,10,05,09,319,22,07,61,314,18,08,26,118,19,09,81,091,22*76
$GPGSV,3,2,10,16,17,040,18,23,45,123,14,27,24,073,19,28,15,209,14*7F
$GPGSV,3,3,10,03,00,000,,30,36,277,*7F
$GLGSV,3,1,10,78,05,246,16,66,59,192,16,86,10,091,18,77,50,281,15*6E
$GLGSV,3,2,10,75,02,050,16,85,09,040,24,67,51,312,18,76,51,016,*6F
$GLGSV,3,3,10,65,07,163,,68,02,333,*6B
$GPGSV,3,1,10,05,09,319,22,07,61,314,18,08,26,118,19,09,81,091,22*76
$GPGSV,3,2,10,16,17,040,18,23,45,123,14,27,24,073,19,28,15,209,14*7F
$GPGSV,3,3,10,03,00,000,,30,36,277,*7F
$GLGSV,3,1,10,78,05,246,16,66,59,192,16,86,10,091,18,77,50,281,15*6E
$GLGSV,3,2,10,75,02,050,16,85,09,040,24,67,51,312,18,76,51,016,*6F
$GLGSV,3,3,10,65,07,163,,68,02,333,*6B
$GPGSA,A,3,05,07,08,09,16,23,27,28,,,,,1.1,0.8,0.7*37
$GPVTG,,T,,M,0.0,N,0.0,K,A*23
$GPRMC,052414,A,3721.137145,N,12158.143479,W,0.0,,111116,0.0,E,A*27
$GPGGA,052414,3721.137145,N,12158.143479,W,1,08,0.8,12.0,M,-27.0,M,,*4C
$GPGSV,3,1,10,05,09,319,22,07,61,314,18,08,26,118,19,09,81,091,23*77
$GPGSV,3,2,10,16,17,040,19,23,45,123,14,27,24,073,21,28,15,209,14*75
$GPGSV,3,3,10,03,00,000,,30,36,277,*7F
$GLGSV,3,1,10,78,05,246,17,66,59,192,16,86,10,091,18,77,50,281,15*6F
$GLGSV,3,2,10,75,02,050,16,85,09,040,23,67,51,312,17,76,51,016,*67
$GLGSV,3,3,10,65,07,163,,68,02,333,*6B
$GPGSV,3,1,10,05,09,319,22,07,61,314,18,08,26,118,19,09,81,091,23*77
$GPGSV,3,2,10,16,17,040,19,23,45,123,14,27,24,073,21,28,15,209,14*75
$GPGSV,3,3,10,03,00,000,,30,36,277,*7F
$GLGSV,3,1,10,78,05,246,17,66,59,192,16,86,10,091,18,77,50,281,15*6F
$GLGSV,3,2,10,75,02,050,16,85,09,040,23,67,51,312,17,76,51,016,*67
$GLGSV,3,3,10,65,07,163,,68,02,333,*6B
$GPGSA,A,3,05,07,08,09,16,23,27,28,,,,,1.1,0.8,0.7*37
$GPVTG,,T,,M,0.0,N,0.0,K,A*23
$GPRMC,052415,A,3721.137214,N,12158.143526,W,0.0,,111116,0.0,E,A*2A
$GPGGA,052415,3721.137214,N,12158.143526,W,1,08,0.8,13.0,M,-27.0,M,,*40
$GPGSV,3,1,10,05,09,319,22,07,61,314,18,08,26,118,20,09,81,091,24*7A
$GPGSV,3,2,10,16,17,040,19,23,45,123,14,27,24,073,19,28,15,209,14*7E
$GPGSV,3,3,10,03,00,000,,30,36,277,*7F
$GLGSV,3,1,10,78,05,246,16,66,59,192,16,86,10,091,17,77,50,281,15*61
$GLGSV,3,2,10,75,02,050,16,85,09,040,23,67,51,312,18,76,51,016,*68
$GLGSV,3,3,10,65,07,163,,68,02,333,*6B
$GPGSV,3,1,10,05,09,319,22,07,61,314,18,08,26,118,20,09,81,091,24*7A
$GPGSV,3,2,10,16,17,040,19,23,45,123,14,27,24,073,19,28,15,209,14*7E
$GPGSV,3,3,10,03,00,000,,30,36,277,*7F
$GLGSV,3,1,10,78,05,246,16,66,59,192,16,86,10,091,17,77,50,281,15*61
$GLGSV,3,2,10,75,02,050,16,85,09,040,23,67,51,312,18,76,51,016,*68
$GLGSV,3,3,10,65,07,163,,68,02,333,*6B
$GPGSA,A,3,05,07,08,09,16,23,27,28,,,,,1.1,0.8,0.7*37
$GPVTG,,T,,M,0.0,N,0.0,K,A*23
$GPRMC,052416,A,3721.137753,N,12158.143784,W,0.0,,111116,0.0,E,A*25
$GPGGA,052416,3721.137753,N,12158.143784,W,1,08,0.8,13.0,M,-27.0,M,,*4F
$GPGSV,3,1,10,05,09,319,24,07,61,314,18,08,26,118,18,09,81,091,25*76
$GPGSV,3,2,10,16,17,040,18,23,45,123,15,27,24,073,19,28,15,209,14*7E
$GPGSV,3,3,10,03,00,000,,30,36,277,*7F
$GLGSV,3,1,09,78,05,246,16,86,10,091,17,77,50,281,15,75,02,050,16*6A
$GLGSV,3,2,09,85,09,040,25,67,51,312,17,76,51,016,,65,07,163,*6B
$GLGSV,3,3,09,68,02,333,*53
$GPGSV,3,1,10,05,09,319,24,07,61,314,18,08,26,118,18,09,81,091,25*76
$GPGSV,3,2,10,16,17,040,18,23,45,123,15,27,24,073,19,28,15,209,14*7E
$GPGSV,3,3,10,03,00,000,,30,36,277,*7F
$GLGSV,3,1,09,78,05,246,16,86,10,091,17,77,50,281,15,75,02,050,16*6A
$GLGSV,3,2,09,85,09,040,25,67,51,312,17,76,51,016,,65,07,163,*6B
$GLGSV,3,3,09,68,02,333,*53
$GPGSA,A,3,05,07,08,09,16,23,27,28,,,,,1.1,0.8,0.7*37
$GPVTG,,T,,M,0.0,N,0.0,K,A*23
$GPRMC,052417,A,3721.138158,N,12158.144094,W,0.0,,111116,0.0,E,A*27
$GPGGA,052417,3721.138158,N,12158.144094,W,1,08,0.8,13.0,M,-27.0,M,,*4D
$GPGSV,3,1,10,05,09,319,23,07,61,314,18,08,26,118,19,09,81,091,22*77
$GPGSV,3,2,10,16,17,040,17,23,45,123,15,27,24,073,19,28,15,209,14*71
$GPGSV,3,3,10,03,00,000,,30,36,277,*7F
$GLGSV,3,1,10,78,05,246,16,86,10,091,17,77,50,281,12,75,02,050,14*67
$GLGSV,3,2,10,85,09,040,24,67,51,312,17,66,59,192,,76,51,016,*64
$GLGSV,3,3,10,65,07,163,,68,02,333,*6B
$GPGSV,3,1,10,05,09,319,23,07,61,314,18,08,26,118,19,09,81,091,22*77
$GPGSV,3,2,10,16,17,040,17,23,45,123,15,27,24,073,19,28,15,209,14*71
$GPGSV,3,3,10,03,00,000,,30,36,277,*7F
$GLGSV,3,1,10,78,05,246,16,86,10,091,17,77,50,281,12,75,02,050,14*67
$GLGSV,3,2,10,85,09,040,24,67,51,312,17,66,59,192,,76,51,016,*64
$GLGSV,3,3,10,65,07,163,,68,02,333,*6B
$GPGSA,A,3,05,07,08,09,16,23,27,28,,,,,1.1,0.8,0.7*37
$GPVTG,,T,,M,0.0,N,0.0,K,A*23
$GPRMC,052418,A,3721.138217,N,12158.144261,W,0.0,,111116,0.0,E,A*28
$GPGGA,052418,3721.138217,N,12158.144261,W,1,08,0.8,13.0,M,-27.0,M,,*42
$GPGSV,3,1,10,05,09,319,25,07,61,314,19,08,26,118,19,09,81,091,24*76
$GPGSV,3,2,10,16,17,040,18,23,45,123,15,27,24,073,18,28,15,209,14*7F
$GPGSV,3,3,10,03,00,000,,30,36,277,*7F
$GLGSV,3,1,10,78,05,246,16,86,10,091,17,77,50,281,12,75,02,050,14*67
$GLGSV,3,2,10,85,09,040,22,67,51,312,19,66,59,192,,76,51,016,*6C
$GLGSV,3,3,10,65,07,163,,68,02,333,*6B
$GPGSV,3,1,10,05,09,319,25,07,61,314,19,08,26,118,19,09,81,091,24*76
$GPGSV,3,2,10,16,17,040,18,23,45,123,15,27,24,073,18,28,15,209,14*7F
$GPGSV,3,3,10,03,00,000,,30,36,277,*7F
$GLGSV,3,1,10,78,05,246,16,86,10,091,17,77,50,281,12,75,02,050,14*67
$GLGSV,3,2,10,85,09,040,22,67,51,312,19,66,59,192,,76,51,016,*6C
$GLGSV,3,3,10,65,07,163,,68,02,333,*6B
$GPGSA,A,3,05,07,08,09,16,23,27,28,,,,,1.1,0.8,0.7*37
$GPVTG,,T,,M,0.0,N,0.0,K,A*23
$GPRMC,052419,A,3721.138445,N,12158.144393,W,0.0,,111116,0.0,E,A*24
$GPGGA,052419,3721.138445,N,12158.144393,W,1,08,0.8,13.0,M,-27.0,M,,*4E
$GPGSV,3,1,09,05,09,319,26,07,61,314,19,08,26,118,20,09,81,091,24*77
$GPGSV,3,2,09,16,17,040,21,23,45,123,18,27,24,073,19,03,00,000,*72
$GPGSV,3,3,09,30,36,277,*44
$GLGSV,3,1,10,78,05,246,15,86,10,091,15,77,50,281,12,75,02,050,14*66
$GLGSV,3,2,10,85,09,040,23,67,51,312,19,66,59,192,,76,51,016,*6D
$GLGSV,3,3,10,65,07,163,,68,02,333,*6B
$GPGSV,3,1,09,05,09,319,26,07,61,314,19,08,26,118,20,09,81,091,24*77
$GPGSV,3,2,09,16,17,040,21,23,45,123,18,27,24,073,19,03,00,000,*72
$GPGSV,3,3,09,30,36,277,*44
$GLGSV,3,1,10,78,05,246,15,86,10,091,15,77,50,281,12,75,02,050,14*66
$GLGSV,3,2,10,85,09,040,23,67,51,312,19,66,59,192,,76,51,016,*6D
$GLGSV,3,3,10,65,07,163,,68,02,333,*6B
$GPGSA,A,3,05,07,08,09,16,23,27,,,,,,1.1,0.8,0.7*3D
$GPVTG,,T,,M,0.0,N,0.0,K,A*23
$GPRMC,052420,A,3721.138628,N,12158.144468,W,0.0,,111116,0.0,E,A*24
$GPGGA,052420,3721.138628,N,12158.144468,W,1,07,0.8,14.0,M,-27.0,M,,*46
$GPGSV,3,1,10,05,09,319,23,07,61,314,15,08,26,118,19,09,81,091,25*7D
$GPGSV,3,2,10,16,17,040,19,23,45,123,18,27,24,073,19,03,00,000,*71
$GPGSV,3,3,10,28,15,209,,30,36,277,*79
$GLGSV,3,1,10,78,05,246,15,86,10,091,15,77,50,281,12,75,02,050,14*66
$GLGSV,3,2,10,85,09,040,23,67,51,312,18,66,59,192,,76,51,016,*6C
$GLGSV,3,3,10,65,07,163,,68,02,333,*6B
$GPGSV,3,1,10,05,09,319,23,07,61,314,15,08,26,118,19,09,81,091,25*7D
$GPGSV,3,2,10,16,17,040,19,23,45,123,18,27,24,073,19,03,00,000,*71
$GPGSV,3,3,10,28,15,209,,30,36,277,*79
$GLGSV,3,1,10,78,05,246,15,86,10,091,15,77,50,281,12,75,02,050,14*66
$GLGSV,3,2,10,85,09,040,23,67,51,312,18,66,59,192,,76,51,016,*6C
$GLGSV,3,3,10,65,07,163,,68,02,333,*6B
$GPGSA,A,3,05,07,08,09,16,23,27,,,,,,1.1,0.8,0.7*3D
$GPVTG,,T,,M,0.0,N,0.0,K,A*23
$GPRMC,052421,A,3721.138752,N,12158.144510,W,0.0,,111116,0.0,E,A*27
$GPGGA,052421,3721.138752,N,12158.144510,W,1,07,0.8,14.0,M,-27.0,M,,*45
$GPGSV,3,1,10,05,09,319,21,07,61,314,17,08,26,118,19,09,81,091,21*79
$GPGSV,3,2,10,16,17,040,19,23,45,123,18,27,24,073,17,03,00,000,*7F
$GPGSV,3,3,10,28,15,209,,30,36,277,*79
$GLGSV,3,1,10,78,05,246,15,86,10,091,15,77,50,281,12,75,02,050,15*67
$GLGSV,3,2,10,85,09,040,22,67,51,312,17,66,59,192,,76,51,016,*62
$GLGSV,3,3,10,65,07,163,,68,02,333,*6B
$GPGSV,3,1,10,05,09,319,21,07,61,314,17,08,26,118,19,09,81,091,21*79
$GPGSV,3,2,10,16,17,040,19,23,45,123,18,27,24,073,17,03,00,000,*7F
$GPGSV,3,3,10,28,15,209,,30,36,277,*79
$GLGSV,3,1,10,78,05,246,15,86,10,091,15,77,50,281,12,75,02,050,15*67
$GLGSV,3,2,10,85,09,040,22,67,51,312,17,66,59,192,,76,51,016,*62
$GLGSV,3,3,10,65,07,163,,68,02,333,*6B
$GPGSA,A,3,05,07,08,09,16,23,27,,,,,,1.1,0.8,0.7*3D
$GPVTG,,T,,M,0.0,N,0.0,K,A*23
$GPRMC,052422,A,3721.138803,N,12158.144534,W,0.0,,111116,0.0,E,A*29
$GPGGA,052422,3721.138803,N,12158.144534,W,1,07,0.8,14.0,M,-27.0,M,,*4B
$GPGSV,3,1,10,05,09,319,19,07,61,314,17,08,26,118,19,09,81,091,21*72
$GPGSV,3,2,10,16,17,040,16,23,45,123,18,27,24,073,17,03,00,000,*70
$GPGSV,3,3,10,28,15,209,,30,36,277,*79
$GLGSV,3,1,10,78,05,246,16,86,10,091,14,77,50,281,12,75,02,050,15*65
$GLGSV,3,2,10,85,09,040,23,67,51,312,17,66,59,192,,76,51,016,*63
$GLGSV,3,3,10,65,07,163,,68,02,333,*6B
$GPGSV,3,1,10,05,09,319,19,07,61,314,17,08,26,118,19,09,81,091,21*72
$GPGSV,3,2,10,16,17,040,16,23,45,123,18,27,24,073,17,03,00,000,*70
$GPGSV,3,3,10,28,15,209,,30,36,277,*79
$GLGSV,3,1,10,78,05,246,16,86,10,091,14,77,50,281,12,75,02,050,15*65
$GLGSV,3,2,10,85,09,040,23,67,51,312,17,66,59,192,,76,51,016,*63
$GLGSV,3,3,10,65,07,163,,68,02,333,*6B
$GPGSA,A,3,05,07,08,09,16,23,27,,,,,,1.1,0.8,0.7*3D
$GPVTG,,T,,M,0.0,N,0.0,K,A*23
$GPRMC,052423,A,3721.138833,N,12158.144546,W,0.0,,111116,0.0,E,A*2E
$GPGGA,052423,3721.138833,N,12158.144546,W,1,07,0.8,14.0,M,-27.0,M,,*4C
$GPGSV,3,1,10,05,09,319,19,07,61,314,17,08,26,118,16,09,81,091,22*7E
$GPGSV,3,2,10,16,17,040,16,23,45,123,18,27,24,073,17,03,00,000,*70
$GPGSV,3,3,10,28,15,209,,30,36,277,*79
$GLGSV,3,1,10,78,05,246,16,86,10,091,14,77,50,281,12,75,02,050,17*67
$GLGSV,3,2,10,85,09,040,23,67,51,312,17,66,59,192,,76,51,016,*63
$GLGSV,3,3,10,65,07,163,,68,02,333,*6B
$GPGSV,3,1,10,05,09,319,19,07,61,314,17,08,26,118,16,09,81,091,22*7E
$GPGSV,3,2,10,16,17,040,16,23,45,123,18,27,24,073,17,03,00,000,*70
$GPGSV,3,3,10,28,15,209,,30,36,277,*79
$GLGSV,3,1,10,78,05,246,16,86,10,091,14,77,50,281,12,75,02,050,17*67
$GLGSV,3,2,10,85,09,040,23,67,51,312,17,66,59,192,,76,51,016,*63
$GLGSV,3,3,10,65,07,163,,68,02,333,*6B
$GPGSA,A,3,05,07,08,09,16,23,27,,,,,,1.1,0.8,0.7*3D
$GPVTG,,T,,M,0.0,N,0.0,K,A*23
$GPRMC,052424,A,3721.138846,N,12158.144542,W,0.0,,111116,0.0,E,A*2F
$GPGGA,052424,3721.138846,N,12158.144542,W,1,07,0.8,14.0,M,-27.0,M,,*4D
$GPGSV,3,1,10,05,09,319,19,07,61,314,16,08,26,118,19,09,81,091,24*76
$GPGSV,3,2,10,16,17,040,16,23,45,123,17,27,24,073,16,30,36,277,15*7D
$GPGSV,3,3,10,03,00,000,,28,15,209,*7E
$GLGSV,3,1,10,78,05,246,16,86,10,091,14,77,50,281,12,75,02,050,17*67
