$GPGSV,3,1,10,07,60,306,23,08,23,122,22,09,82,049,22,23,49,119,30*7F
$GPGSV,3,2,10,27,23,078,22,03,04,171,,05,07,322,,16,21,040,*73
$GPGSV,3,3,10,28,11,208,,30,33,272,*7C
$GLGSV,3,1,09,85,08,045,22,67,47,317,19,78,02,241,,66,65,195,*61
$GLGSV,3,2,09,86,07,095,,77,48,272,,76,55,009,,75,06,047,*6C
$GLGSV,3,3,09,65,12,163,*58
$GPGSA,A,1,,,,,,,,,,,,,,,*1E
$GPVTG,,T,,M,,N,,K,N*2C
$GPRMC,,V,,,,,,,,,,N*53
$GPGGA,,,,,,0,,,,,,,,*66
$GPGSV,3,1,10,07,60,306,23,08,23,122,22,09,82,049,22,23,49,119,30*7F
$GPGSV,3,2,10,27,23,078,22,03,04,171,,05,07,322,,16,21,040,*73
$GPGSV,3,3,10,28,11,208,,30,33,272,*7C
$GLGSV,3,1,09,66,65,195,20,77,48,272,22,65,12,163,26,67,47,317,24*68
$GLGSV,3,2,09,78,02,241,,86,07,095,,76,55,009,,75,06,047,*6D
$GLGSV,3,3,09,85,08,045,*58
$GPGSA,A,1,,,,,,,,,,,,,,,*1E
$GPVTG,,T,,M,,N,,K,N*2C
$GPRMC,,V,,,,,,,,,,N*53
$GPGGA,,,,,,0,,,,,,,,*66
$GPGSV,3,1,10,07,60,306,23,08,23,122,21,09,82,049,19,16,21,040,22*72
$GPGSV,3,2,10,23,48,119,28,27,23,078,23,03,04,171,,05,07,322,*7C
$GPGSV,3,3,10,28,11,208,,30,33,272,*7C
$GLGSV,3,1,09,66,65,195,20,77,48,272,22,65,12,163,26,67,47,317,24*68
$GLGSV,3,2,09,78,02,241,,86,07,095,,76,55,009,,75,06,047,*6D
$GLGSV,3,3,09,85,08,045,*58
$GPGSV,3,1,10,07,60,306,23,08,23,122,21,09,82,049,19,16,21,040,22*72
$GPGSV,3,2,10,23,48,119,28,27,23,078,23,03,04,171,,05,07,322,*7C
$GPGSV,3,3,10,28,11,208,,30,33,272,*7C
$GLGSV,3,1,09,66,65,195,20,77,48,272,22,65,12,163,26,67,47,317,24*68
$GLGSV,3,2,09,78,02,241,,86,07,095,,76,55,009,,75,06,047,*6D
$GLGSV,3,3,09,85,08,045,*58
$GPGSA,A,3,07,08,09,16,23,27,,,,,,,1.4,1.1,0.9*3B
$GPVTG,189.0,T,189.0,M,6.3,N,11.7,K,A*11
$GPRMC,051348,A,3722.809380,N,12158.682446,W,6.3,189.0,111116,0.0,E,A*0B
$GPGGA,051348,3722.809380,N,12158.682446,W,1,06,1.1,12.0,M,-27.0,M,,*4D
$GPGSV,3,1,10,07,60,306,23,08,23,122,20,09,82,049,23,16,21,040,21*79
$GPGSV,3,2,10,23,48,119,27,27,23,078,17,03,04,171,,05,07,322,*74
$GPGSV,3,3,10,28,11,208,,30,33,272,*7C
$GLGSV,3,1,09,66,65,195,21,77,48,272,16,65,12,163,20,67,47,317,23*6F
$GLGSV,3,2,09,78,02,241,,86,07,095,,76,55,009,,75,06,047,*6D
$GLGSV,3,3,09,85,08,045,*58
$GPGSV,3,1,10,07,60,306,23,08,23,122,20,09,82,049,23,16,21,040,21*79
$GPGSV,3,2,10,23,48,119,27,27,23,078,17,03,04,171,,05,07,322,*74
$GPGSV,3,3,10,28,11,208,,30,33,272,*7C
$GLGSV,3,1,09,66,65,195,21,77,48,272,16,65,12,163,20,67,47,317,23*6F
$GLGSV,3,2,09,78,02,241,,86,07,095,,76,55,009,,75,06,047,*6D
$GLGSV,3,3,09,85,08,045,*58
$GPGSA,A,3,07,08,09,16,23,27,,,,,,,1.4,1.1,0.9*3B
$GPVTG,183.1,T,183.1,M,5.8,N,10.8,K,A*17
$GPRMC,051349,A,3722.809539,N,12158.680834,W,5.8,183.1,111116,0.0,E,A*06
$GPGGA,051349,3722.809539,N,12158.680834,W,1,06,1.1,11.0,M,-27.0,M,,*40
$GPGSV,3,1,10,07,60,306,24,08,23,122,25,09,82,049,23,16,21,040,21*7B
$GPGSV,3,2,10,23,48,119,26,27,23,078,17,30,33,272,18,03,04,171,*79
$GPGSV,3,3,10,05,07,322,,28,11,208,*79
$GLGSV,3,1,09,66,65,195,21,77,48,272,16,65,12,163,20,67,47,317,24*68
$GLGSV,3,2,09,78,02,241,,86,07,095,,76,55,009,,75,06,047,*6D
$GLGSV,3,3,09,85,08,045,*58
$GPGSV,3,1,10,07,60,306,24,08,23,122,25,09,82,049,23,16,21,040,21*7B
$GPGSV,3,2,10,23,48,119,26,27,23,078,17,30,33,272,18,03,04,171,*79
$GPGSV,3,3,10,05,07,322,,28,11,208,*79
$GLGSV,3,1,09,66,65,195,21,77,48,272,16,65,12,163,20,67,47,317,24*68
$GLGSV,3,2,09,78,02,241,,86,07,095,,76,55,009,,75,06,047,*6D
$GLGSV,3,3,09,85,08,045,*58
$GPGSA,A,3,07,08,09,16,23,27,30,,,,,,1.1,0.8,0.8*34
$GPVTG,182.0,T,182.0,M,5.8,N,10.8,K,A*17
$GPRMC,051350,A,3722.808151,N,12158.681654,W,5.8,182.0,111116,0.0,E,A*0C
$GPGGA,051350,3722.808151,N,12158.681654,W,1,07,0.8,12.0,M,-27.0,M,,*40
$GPGSV,3,1,10,07,60,306,21,08,23,122,27,09,82,049,23,16,21,040,19*77
$GPGSV,3,2,10,23,48,119,19,27,23,078,17,28,11,208,15,30,33,272,20*7A
$GPGSV,3,3,10,03,04,171,,05,07,322,*79
$GLGSV,3,1,09,66,65,195,20,86,07,095,17,77,48,272,16,65,12,163,20*6B
$GLGSV,3,2,09,85,08,045,17,67,47,317,16,78,02,241,,76,55,009,*6D
$GLGSV,3,3,09,75,06,047,*5B
$GPGSV,3,1,10,07,60,306,21,08,23,122,27,09,82,049,23,16,21,040,19*77
$GPGSV,3,2,10,23,48,119,19,27,23,078,17,28,11,208,15,30,33,272,20*7A
$GPGSV,3,3,10,03,04,171,,05,07,322,*79
$GLGSV,3,1,09,66,65,195,20,86,07,095,17,77,48,272,16,65,12,163,20*6B
$GLGSV,3,2,09,85,08,045,17,67,47,317,16,78,02,241,,76,55,009,*6D
$GLGSV,3,3,09,75,06,047,*5B
$GPGSA,A,3,07,08,09,16,23,27,28,30,,,,,1.0,0.7,0.7*3F
$GPVTG,185.4,T,185.4,M,5.8,N,10.8,K,A*17
$GPRMC,051351,A,3722.805647,N,12158.681037,W,5.8,185.4,111116,0.0,E,A*00
$GPGGA,051351,3722.805647,N,12158.681037,W,1,08,0.7,12.0,M,-27.0,M,,*4F
$GPGSV,3,1,10,07,60,306,22,08,23,122,29,09,82,049,23,16,21,040,18*7B
$GPGSV,3,2,10,23,48,119,19,27,23,078,16,28,11,208,16,30,33,272,22*7A
$GPGSV,3,3,10,03,04,171,,05,07,322,*79
$GLGSV,3,1,09,66,65,195,20,86,07,095,17,77,48,272,13,65,12,163,20*6E
$GLGSV,3,2,09,85,08,045,16,67,47,317,16,78,02,241,,76,55,009,*6C
$GLGSV,3,3,09,75,06,047,*5B
$GPGSV,3,1,10,07,60,306,22,08,23,122,29,09,82,049,23,16,21,040,18*7B
$GPGSV,3,2,10,23,48,119,19,27,23,078,16,28,11,208,16,30,33,272,22*7A
$GPGSV,3,3,10,03,04,171,,05,07,322,*79
$GLGSV,3,1,09,66,65,195,20,86,07,095,17,77,48,272,13,65,12,163,20*6E
$GLGSV,3,2,09,85,08,045,16,67,47,317,16,78,02,241,,76,55,009,*6C
$GLGSV,3,3,09,75,06,047,*5B
$GPGSA,A,3,07,08,09,16,23,27,28,30,,,,,1.0,0.7,0.7*3F
$GPVTG,179.6,T,179.6,M,4.9,N,9.0,K,A*27
$GPRMC,051352,A,3722.805500,N,12158.678628,W,4.9,179.6,111116,0.0,E,A*0C
$GPGGA,051352,3722.805500,N,12158.678628,W,1,08,0.7,14.0,M,-27.0,M,,*44
$GPGSV,3,1,10,07,60,306,20,08,23,122,26,09,82,049,21,16,21,040,18*74
$GPGSV,3,2,10,23,48,119,21,27,23,078,16,28,11,208,15,30,33,272,18*7B
$GPGSV,3,3,10,03,04,171,,05,07,322,*79
$GLGSV,3,1,09,66,65,195,20,86,07,095,16,77,48,272,13,75,06,047,15*6A
$GLGSV,3,2,09,65,12,163,20,85,08,045,16,67,47,317,18,78,02,241,*6C
$GLGSV,3,3,09,76,55,009,*54
$GPGSV,3,1,10,07,60,306,20,08,23,122,26,09,82,049,21,16,21,040,18*74
$GPGSV,3,2,10,23,48,119,21,27,23,078,16,28,11,208,15,30,33,272,18*7B
$GPGSV,3,3,10,03,04,171,,05,07,322,*79
$GLGSV,3,1,09,66,65,195,20,86,07,095,16,77,48,272,13,75,06,047,15*6A
$GLGSV,3,2,09,65,12,163,20,85,08,045,16,67,47,317,18,78,02,241,*6C
$GLGSV,3,3,09,76,55,009,*54
$GPGSA,A,3,07,08,09,16,23,27,28,30,,,,,1.0,0.7,0.7*3F
$GPVTG,185.6,T,185.6,M,5.8,N,10.8,K,A*17
$GPRMC,051353,A,3722.802633,N,12158.678922,W,5.8,185.6,111116,0.0,E,A*0F
$GPGGA,051353,3722.802633,N,12158.678922,W,1,08,0.7,14.0,M,-27.0,M,,*44
$GPGSV,3,1,10,07,60,306,20,08,23,122,24,09,82,049,24,16,21,040,19*72
$GPGSV,3,2,10,23,48,119,26,27,23,078,16,28,11,208,15,30,33,272,19*7D
$GPGSV,3,3,10,03,04,171,,05,07,322,*79
$GLGSV,3,1,09,66,65,195,20,86,07,095,16,77,48,272,13,75,06,047,15*6A
$GLGSV,3,2,09,65,12,163,20,85,08,045,15,67,47,317,17,78,02,241,*60
$GLGSV,3,3,09,76,55,009,*54
$GPGSV,3,1,10,07,60,306,20,08,23,122,24,09,82,049,24,16,21,040,19*72
$GPGSV,3,2,10,23,48,119,26,27,23,078,16,28,11,208,15,30,33,272,19*7D
$GPGSV,3,3,10,03,04,171,,05,07,322,*79
$GLGSV,3,1,09,66,65,195,20,86,07,095,16,77,48,272,13,75,06,047,15*6A
$GLGSV,3,2,09,65,12,163,20,85,08,045,15,67,47,317,17,78,02,241,*60
$GLGSV,3,3,09,76,55,009,*54
$GPGSA,A,3,07,08,09,16,23,27,28,30,,,,,1.0,0.7,0.7*3F
$GPVTG,151.9,T,151.9,M,1.5,N,2.7,K,A*22
$GPRMC,051354,A,3722.805371,N,12158.676116,W,1.5,151.9,111116,0.0,E,A*02
$GPGGA,051354,3722.805371,N,12158.676116,W,1,08,0.7,15.0,M,-27.0,M,,*47
$GPGSV,3,1,10,07,60,306,20,08,23,122,26,09,82,049,23,16,21,040,23*7E
$GPGSV,3,2,10,23,48,119,28,27,23,078,14,28,11,208,15,30,33,272,19*71
$GPGSV,3,3,10,03,04,171,,05,07,322,*79
$GLGSV,3,1,09,66,65,195,20,86,07,095,17,77,48,272,13,75,06,047,15*6B
$GLGSV,3,2,09,65,12,163,20,85,08,045,15,67,47,317,17,78,02,241,*60
$GLGSV,3,3,09,76,55,009,*54
$GPGSV,3,1,10,07,60,306,20,08,23,122,26,09,82,049,23,16,21,040,23*7E
$GPGSV,3,2,10,23,48,119,28,27,23,078,14,28,11,208,15,30,33,272,19*71
$GPGSV,3,3,10,03,04,171,,05,07,322,*79
$GLGSV,3,1,09,66,65,195,20,86,07,095,17,77,48,272,13,75,06,047,15*6B
$GLGSV,3,2,09,65,12,163,20,85,08,045,15,67,47,317,17,78,02,241,*60
$GLGSV,3,3,09,76,55,009,*54
$GPGSA,A,3,07,08,09,16,23,27,28,30,,,,,1.0,0.7,0.7*3F
$GPVTG,151.9,T,151.9,M,1.0,N,1.8,K,A*2B
$GPRMC,051355,A,3722.805250,N,12158.675523,W,1.0,151.9,111116,0.0,E,A*05
$GPGGA,051355,3722.805250,N,12158.675523,W,1,08,0.7,16.0,M,-27.0,M,,*46
$GPGSV,3,1,10,07,60,306,20,08,23,122,25,09,82,049,19,16,21,040,23*74
$GPGSV,3,2,10,23,48,119,29,27,23,078,14,28,11,208,15,30,33,272,19*70
$GPGSV,3,3,10,03,04,171,,05,07,322,*79
$GLGSV,3,1,09,66,65,195,20,86,07,095,16,77,48,272,13,75,06,047,15*6A
$GLGSV,3,2,09,65,12,163,12,85,08,045,15,67,47,316,17,78,02,241,*60
$GLGSV,3,3,09,76,55,009,*54
$GPGSV,3,1,10,07,60,306,20,08,23,122,25,09,82,049,19,16,21,040,23*74
$GPGSV,3,2,10,23,48,119,29,27,23,078,14,28,11,208,15,30,33,272,19*70
$GPGSV,3,3,10,03,04,171,,05,07,322,*79
$GLGSV,3,1,09,66,65,195,20,86,07,095,16,77,48,272,13,75,06,047,15*6A
$GLGSV,3,2,09,65,12,163,12,85,08,045,15,67,47,316,17,78,02,241,*60
$GLGSV,3,3,09,76,55,009,*54
$GPGSA,A,3,07,08,09,16,23,27,28,30,,,,,1.0,0.7,0.7*3F
$GPVTG,240.8,T,240.8,M,1.5,N,2.7,K,A*22
$GPRMC,051356,A,3722.803739,N,12158.676399,W,1.5,240.8,111116,0.0,E,A*09
$GPGGA,051356,3722.803739,N,12158.676399,W,1,08,0.7,17.0,M,-27.0,M,,*4C
$GPGSV,3,1,10,07,60,306,20,08,23,122,26,09,82,049,21,16,21,040,23*7C
$GPGSV,3,2,10,23,48,119,29,27,23,078,14,28,11,208,15,30,33,272,16*7F
$GPGSV,3,3,10,03,04,171,,05,07,322,*79
$GLGSV,3,1,09,66,65,195,20,86,07,095,16,77,48,272,13,75,06,047,15*6A
$GLGSV,3,2,09,65,12,163,12,85,08,045,15,67,47,316,17,78,02,241,*60
$GLGSV,3,3,09,76,55,009,*54
$GPGSV,3,1,10,07,60,306,20,08,23,122,26,09,82,049,21,16,21,040,23*7C
$GPGSV,3,2,10,23,48,119,29,27,23,078,14,28,11,208,15,30,33,272,16*7F
$GPGSV,3,3,10,03,04,171,,05,07,322,*79
$GLGSV,3,1,09,66,65,195,20,86,07,095,16,77,48,272,13,75,06,047,15*6A
$GLGSV,3,2,09,65,12,163,12,85,08,045,15,67,47,316,17,78,02,241,*60
$GLGSV,3,3,09,76,55,009,*54
$GPGSA,A,3,07,08,09,16,23,27,28,30,,,,,1.1,0.7,0.8*31
$GPVTG,240.8,T,240.8,M,1.5,N,2.7,K,A*22
$GPRMC,051357,A,3722.803761,N,12158.676536,W,1.5,240.8,111116,0.0,E,A*06
$GPGGA,051357,3722.803761,N,12158.676536,W,1,08,0.7,16.0,M,-27.0,M,,*42
$GPGSV,3,1,10,07,60,306,20,08,23,122,27,09,82,049,21,16,21,040,25*7B
$GPGSV,3,2,10,23,48,119,29,27,23,078,16,28,11,208,15,30,33,272,21*79
$GPGSV,3,3,10,03,04,171,,05,07,322,*79
$GLGSV,3,1,09,66,65,195,20,86,07,095,15,77,48,272,13,75,06,047,14*68
$GLGSV,3,2,09,65,12,163,16,85,08,045,15,67,47,316,12,78,02,241,*61
$GLGSV,3,3,09,76,55,009,*54
$GPGSV,3,1,10,07,60,306,20,08,23,122,27,09,82,049,21,16,21,040,25*7B
$GPGSV,3,2,10,23,48,119,29,27,23,078,16,28,11,208,15,30,33,272,21*79
$GPGSV,3,3,10,03,04,171,,05,07,322,*79
$GLGSV,3,1,09,66,65,195,20,86,07,095,15,77,48,272,13,75,06,047,14*68
$GLGSV,3,2,09,65,12,163,16,85,08,045,15,67,47,316,12,78,02,241,*61
$GLGSV,3,3,09,76,55,009,*54
$GPGSA,A,3,07,08,09,16,23,27,28,30,,,,,1.1,0.7,0.8*31
$GPVTG,,T,,M,0.0,N,0.0,K,A*23
$GPRMC,051358,A,3722.804613,N,12158.676527,W,0.0,,111116,0.0,E,A*2E
$GPGGA,051358,3722.804613,N,12158.676527,W,1,08,0.7,16.0,M,-27.0,M,,*4E
$GPGSV,3,1,10,07,60,306,20,08,23,122,27,09,82,050,21,16,21,040,25*73
$GPGSV,3,2,10,23,48,119,30,27,23,078,16,28,11,208,14,30,33,272,19*7B
$GPGSV,3,3,10,03,04,171,,05,07,322,*79
$GLGSV,3,1,09,66,65,195,20,86,07,095,15,77,48,272,13,75,06,047,14*68
$GLGSV,3,2,09,65,12,163,16,85,08,045,16,67,47,316,17,78,02,241,*67
$GLGSV,3,3,09,76,55,009,*54
$GPGSV,3,1,10,07,60,306,20,08,23,122,27,09,82,050,21,16,21,040,25*73
$GPGSV,3,2,10,23,48,119,30,27,23,078,16,28,11,208,14,30,33,272,19*7B
$GPGSV,3,3,10,03,04,171,,05,07,322,*79
$GLGSV,3,1,09,66,65,195,20,86,07,095,15,77,48,272,13,75,06,047,14*68
$GLGSV,3,2,09,65,12,163,16,85,08,045,16,67,47,316,17,78,02,241,*67
$GLGSV,3,3,09,76,55,009,*54
$GPGSA,A,3,07,08,09,16,23,27,28,30,,,,,1.1,0.7,0.8*31
$GPVTG,,T,,M,0.0,N,0.0,K,A*23
$GPRMC,051359,A,3722.804751,N,12158.676357,W,0.0,,111116,0.0,E,A*29
$GPGGA,051359,3722.804751,N,12158.676357,W,1,08,0.7,16.0,M,-27.0,M,,*49
$GPGSV,3,1,10,07,60,306,20,08,23,122,28,09,82,050,22,16,21,040,26*7C
$GPGSV,3,2,10,23,48,119,31,27,23,078,16,28,11,208,14,30,33,272,22*72
$GPGSV,3,3,10,03,04,171,,05,07,322,*79
$GLGSV,3,1,09,66,65,195,20,86,07,095,14,77,48,272,13,75,05,047,13*6D
$GLGSV,3,2,09,65,12,163,16,85,08,045,16,67,47,316,17,78,02,241,*67
$GLGSV,3,3,09,76,54,009,*55
$GPGSV,3,1,10,07,60,306,20,08,23,122,28,09,82,050,22,16,21,040,26*7C
$GPGSV,3,2,10,23,48,119,31,27,23,078,16,28,11,208,14,30,33,272,22*72
$GPGSV,3,3,10,03,04,171,,05,07,322,*79
$GLGSV,3,1,09,66,65,195,20,86,07,095,14,77,48,272,13,75,05,047,13*6D
$GLGSV,3,2,09,65,12,163,16,85,08,045,16,67,47,316,17,78,02,241,*67
$GLGSV,3,3,09,76,54,009,*55
$GPGSA,A,3,07,08,09,16,23,27,28,30,,,,,1.1,0.8,0.8*3E
$GPVTG,,T,,M,0.0,N,0.0,K,A*23
$GPRMC,051400,A,3722.804425,N,12158.675769,W,0.0,,111116,0.0,E,A*28
$GPGGA,051400,3722.804425,N,12158.675769,W,1,08,0.8,18.0,M,-27.0,M,,*49
$GPGSV,3,1,10,07,60,306,20,08,23,122,27,09,82,050,22,16,21,040,25*70
$GPGSV,3,2,10,23,48,119,30,27,23,078,18,28,11,208,14,30,33,272,19*75
$GPGSV,3,3,10,03,04,171,,05,07,322,*79
$GLGSV,3,1,09,66,65,195,20,86,07,095,14,77,48,272,13,75,05,047,13*6D
$GLGSV,3,2,09,65,12,163,16,85,08,045,22,67,47,316,14,78,02,241,*63
$GLGSV,3,3,09,76,54,009,*55
$GPGSV,3,1,10,07,60,306,20,08,23,122,27,09,82,050,22,16,21,040,25*70
$GPGSV,3,2,10,23,48,119,30,27,23,078,18,28,11,208,14,30,33,272,19*75
$GPGSV,3,3,10,03,04,171,,05,07,322,*79
$GLGSV,3,1,09,66,65,195,20,86,07,095,14,77,48,272,13,75,05,047,13*6D
$GLGSV,3,2,09,65,12,163,16,85,08,045,22,67,47,316,14,78,02,241,*63
$GLGSV,3,3,09,76,54,009,*55
$GPGSA,A,3,07,08,09,16,23,27,28,30,,,,,1.1,0.8,0.8*3E
$GPVTG,,T,,M,0.0,N,0.0,K,A*23
$GPRMC,051401,A,3722.804159,N,12158.675118,W,0.0,,111116,0.0,E,A*27
$GPGGA,051401,3722.804159,N,12158.675118,W,1,08,0.8,18.0,M,-27.0,M,,*46
$GPGSV,3,1,10,07,60,306,20,08,23,122,27,09,82,050,22,16,21,040,26*73
$GPGSV,3,2,10,23,48,119,29,27,23,078,18,28,11,208,14,30,33,272,20*77
$GPGSV,3,3,10,03,04,171,,05,07,322,*79
$GLGSV,3,1,09,66,65,195,20,86,07,095,14,77,48,272,13,75,05,047,13*6D
$GLGSV,3,2,09,65,12,163,16,85,08,045,19,67,47,316,14,78,02,241,*6B
$GLGSV,3,3,09,76,54,009,*55
$GPGSV,3,1,10,07,60,306,20,08,23,122,27,09,82,050,22,16,21,040,26*73
$GPGSV,3,2,10,23,48,119,29,27,23,078,18,28,11,208,14,30,33,272,20*77
$GPGSV,3,3,10,03,04,171,,05,07,322,*79
$GLGSV,3,1,09,66,65,195,20,86,07,095,14,77,48,272,13,75,05,047,13*6D
$GLGSV,3,2,09,65,12,163,16,85,08,045,19,67,47,316,14,78,02,241,*6B
$GLGSV,3,3,09,76,54,009,*55
$GPGSA,A,3,07,08,09,16,23,27,28,30,,,,,1.0,0.7,0.7*3F
$GPVTG,,T,,M,0.0,N,0.0,K,A*23
$GPRMC,051402,A,3722.804131,N,12158.674510,W,0.0,,111116,0.0,E,A*27
$GPGGA,051402,3722.804131,N,12158.674510,W,1,08,0.7,17.0,M,-27.0,M,,*46
$GPGSV,3,1,10,07,60,306,20,08,23,122,26,09,82,050,23,16,21,040,26*73
$GPGSV,3,2,10,23,48,119,29,27,23,078,17,28,11,208,15,30,33,272,19*73
$GPGSV,3,3,10,03,04,171,,05,07,322,*79
$GLGSV,3,1,09,66,65,195,07,86,07,095,14,77,48,272,13,75,05,047,13*68
$GLGSV,3,2,09,65,12,163,16,85,08,045,19,67,47,316,14,78,02,241,*6B
$GLGSV,3,3,09,76,54,009,*55
$GPGSV,3,1,10,07,60,306,20,08,23,122,26,09,82,050,23,16,21,040,26*73
$GPGSV,3,2,10,23,48,119,29,27,23,078,17,28,11,208,15,30,33,272,19*73
$GPGSV,3,3,10,03,04,171,,05,07,322,*79
$GLGSV,3,1,09,66,65,195,07,86,07,095,14,77,48,272,13,75,05,047,13*68
$GLGSV,3,2,09,65,12,163,16,85,08,045,19,67,47,316,14,78,02,241,*6B
$GLGSV,3,3,09,76,54,009,*55
$GPGSA,A,3,07,08,09,16,23,27,28,30,,,,,1.0,0.7,0.7*3F
$GPVTG,,T,,M,0.0,N,0.0,K,A*23
$GPRMC,051403,A,3722.803813,N,12158.674401,W,0.0,,111116,0.0,E,A*29
$GPGGA,051403,3722.803813,N,12158.674401,W,1,08,0.7,17.0,M,-27.0,M,,*48
$GPGSV,3,1,10,07,60,306,20,08,23,122,27,09,82,050,21,16,21,040,24*72
$GPGSV,3,2,10,23,48,119,29,27,23,078,21,28,11,208,15,30,33,272,19*76
$GPGSV,3,3,10,03,04,171,,05,07,322,*79
$GLGSV,3,1,09,66,65,195,07,86,07,095,14,77,48,272,13,75,05,047,13*68
$GLGSV,3,2,09,65,12,163,16,85,08,045,19,67,47,316,14,78,02,241,*6B
$GLGSV,3,3,09,76,54,009,*55
$GPGSV,3,1,10,07,60,306,20,08,23,122,27,09,82,050,21,16,21,040,24*72
$GPGSV,3,2,10,23,48,119,29,27,23,078,21,28,11,208,15,30,33,272,19*76
$GPGSV,3,3,10,03,04,171,,05,07,322,*79
$GLGSV,3,1,09,66,65,195,07,86,07,095,14,77,48,272,13,75,05,047,13*68
$GLGSV,3,2,09,65,12,163,16,85,08,045,19,67,47,316,14,78,02,241,*6B
$GLGSV,3,3,09,76,54,009,*55
$GPGSA,A,3,07,08,09,16,23,27,28,30,,,,,1.1,0.8,0.7*31
$GPVTG,,T,,M,0.0,N,0.0,K,A*23
$GPRMC,051404,A,3722.803381,N,12158.674318,W,0.0,,111116,0.0,E,A*21
$GPGGA,051404,3722.803381,N,12158.674318,W,1,08,0.8,17.0,M,-27.0,M,,*4F
$GPGSV,3,1,10,07,60,306,20,08,23,122,27,09,82,050,21,16,21,040,22*74
$GPGSV,3,2,10,23,48,119,30,27,23,078,22,28,11,208,17,30,33,272,19*7F
$GPGSV,3,3,10,03,04,171,,05,07,322,*79
$GLGSV,3,1,09,66,65,195,07,86,07,095,14,77,48,272,13,75,05,047,13*68
$GLGSV,3,2,09,65,12,163,16,85,08,045,19,67,47,316,15,78,02,241,*6A
$GLGSV,3,3,09,76,54,009,*55
$GPGSV,3,1,10,07,60,306,20,08,23,122,27,09,82,050,21,16,21,040,22*74
$GPGSV,3,2,10,23,48,119,30,27,23,078,22,28,11,208,17,30,33,272,19*7F
$GPGSV,3,3,10,03,04,171,,05,07,322,*79
$GLGSV,3,1,09,66,65,195,07,86,07,095,14,77,48,272,13,75,05,047,13*68
$GLGSV,3,2,09,65,12,163,16,85,08,045,19,67,47,316,15,78,02,241,*6A
$GLGSV,3,3,09,76,54,009,*55
$GPGSA,A,3,07,08,09,16,23,27,28,30,,,,,1.1,0.8,0.7*31
$GPVTG,,T,,M,0.0,N,0.0,K,A*23
$GPRMC,051405,A,3722.803464,N,12158.674302,W,0.0,,111116,0.0,E,A*27
$GPGGA,051405,3722.803464,N,12158.674302,W,1,08,0.8,17.0,M,-27.0,M,,*49
$GPGSV,3,1,10,07,60,306,20,08,23,122,23,09,82,050,22,16,21,040,22*73
$GPGSV,3,2,10,23,48,119,29,27,23,078,22,28,11,208,17,30,33,272,17*79
$GPGSV,3,3,10,03,04,171,,05,07,322,*79
$GLGSV,3,1,09,66,65,195,07,86,07,095,14,77,48,272,13,75,05,047,13*68
$GLGSV,3,2,09,65,12,163,16,85,08,045,15,67,47,316,19,78,02,241,*6A
$GLGSV,3,3,09,76,54,009,*55
$GPGSV,3,1,10,07,60,306,20,08,23,122,23,09,82,050,22,16,21,040,22*73
$GPGSV,3,2,10,23,48,119,29,27,23,078,22,28,11,208,17,30,33,272,17*79
$GPGSV,3,3,10,03,04,171,,05,07,322,*79
$GLGSV,3,1,09,66,65,195,07,86,07,095,14,77,48,272,13,75,05,047,13*68
$GLGSV,3,2,09,65,12,163,16,85,08,045,15,67,47,316,19,78,02,241,*6A
$GLGSV,3,3,09,76,54,009,*55
$GPGSA,A,3,07,08,09,16,23,27,28,30,,,,,1.1,0.8,0.7*31
$GPVTG,,T,,M,0.0,N,0.0,K,A*23
$GPRMC,051406,A,3722.803508,N,12158.674085,W,0.0,,111116,0.0,E,A*23
$GPGGA,051406,3722.803508,N,12158.674085,W,1,08,0.8,17.0,M,-27.0,M,,*4D
$GPGSV,3,1,10,03,04,171,13,07,60,306,17,08,23,122,24,09,82,050,22*72
$GPGSV,3,2,10,16,21,040,16,23,48,119,31,27,23,078,16,28,11,208,17*72
$GPGSV,3,3,10,30,33,272,17,05,07,322,*7B
$GLGSV,3,1,09,66,65,195,07,86,07,095,14,77,48,272,13,75,05,047,13*68
$GLGSV,3,2,09,65,12,163,16,85,08,045,15,67,47,316,19,78,02,241,*6A
$GLGSV,3,3,09,76,54,009,*55
$GPGSV,3,1,10,03,04,171,13,07,60,306,17,08,23,122,24,09,82,050,22*72
$GPGSV,3,2,10,16,21,040,16,23,48,119,31,27,23,078,16,28,11,208,17*72
$GPGSV,3,3,10,30,33,272,17,05,07,322,*7B
$GLGSV,3,1,09,66,65,195,07,86,07,095,14,77,48,272,13,75,05,047,13*68
$GLGSV,3,2,09,65,12,163,16,85,08,045,15,67,47,316,19,78,02,241,*6A
$GLGSV,3,3,09,76,54,009,*55
$GPGSA,A,3,03,07,08,09,16,23,27,28,30,,,,1.0,0.7,0.7*3C
$GPVTG,,T,,M,0.0,N,0.0,K,A*23
$GPRMC,051407,A,3722.803652,N,12158.674058,W,0.0,,111116,0.0,E,A*2E
$GPGGA,051407,3722.803652,N,12158.674058,W,1,09,0.7,18.0,M,-27.0,M,,*41
$GPGSV,3,1,10,03,04,171,12,07,60,306,18,08,23,122,24,09,82,050,23*7D
$GPGSV,3,2,10,16,21,040,21,23,48,119,33,27,23,078,18,28,11,208,17*7A
$GPGSV,3,3,10,30,33,272,22,05,07,322,*7D
$GLGSV,3,1,09,66,65,195,15,86,07,095,14,77,48,272,13,75,05,047,13*6B
$GLGSV,3,2,09,65,12,163,10,85,08,045,15,67,47,316,25,78,02,241,*63
$GLGSV,3,3,09,76,54,009,*55
$GPGSV,3,1,10,03,04,171,12,07,60,306,18,08,23,122,24,09,82,050,23*7D
$GPGSV,3,2,10,16,21,040,21,23,48,119,33,27,23,078,18,28,11,208,17*7A
$GPGSV,3,3,10,30,33,272,22,05,07,322,*7D
$GLGSV,3,1,09,66,65,195,15,86,07,095,14,77,48,272,13,75,05,047,13*6B
$GLGSV,3,2,09,65,12,163,10,85,08,045,15,67,47,316,25,78,02,241,*63
$GLGSV,3,3,09,76,54,009,*55
$GPGSA,A,3,03,07,08,09,16,23,27,28,30,,,,1.0,0.7,0.7*3C
$GPVTG,,T,,M,0.0,N,0.0,K,A*23
$GPRMC,051408,A,3722.803622,N,12158.674154,W,0.0,,111116,0.0,E,A*2B
$GPGGA,051408,3722.803622,N,12158.674154,W,1,09,0.7,19.0,M,-27.0,M,,*45
$GPGSV,3,1,10,03,04,171,13,07,60,306,26,08,23,122,23,09,82,050,22*77
$GPGSV,3,2,10,16,21,040,18,23,48,119,29,27,23,078,18,28,11,208,17*7B
$GPGSV,3,3,10,30,33,272,22,05,07,322,*7D
$GLGSV,3,1,09,66,65,195,22,86,07,095,14,77,48,272,13,75,05,047,13*6F
$GLGSV,3,2,09,65,12,163,10,85,08,045,18,67,47,316,23,78,02,241,*68
$GLGSV,3,3,09,76,54,009,*55
$GPGSV,3,1,10,03,04,171,13,07,60,306,26,08,23,122,23,09,82,050,22*77
$GPGSV,3,2,10,16,21,040,18,23,48,119,29,27,23,078,18,28,11,208,17*7B
$GPGSV,3,3,10,30,33,272,22,05,07,322,*7D
$GLGSV,3,1,09,66,65,195,22,86,07,095,14,77,48,272,13,75,05,047,13*6F
$GLGSV,3,2,09,65,12,163,10,85,08,045,18,67,47,316,23,78,02,241,*68
$GLGSV,3,3,09,76,54,009,*55
$GPGSA,A,3,03,07,08,09,16,23,27,28,30,,,,1.0,0.7,0.7*3C
$GPVTG,,T,,M,0.0,N,0.0,K,A*23
$GPRMC,051409,A,3722.803798,N,12158.673771,W,0.0,,111116,0.0,E,A*2C
$GPGGA,051409,3722.803798,N,12158.673771,W,1,09,0.7,17.0,M,-27.0,M,,*4C
$GPGSV,3,1,10,03,04,171,13,07,60,306,27,08,23,122,20,09,82,050,22*75
$GPGSV,3,2,10,16,21,040,18,23,48,119,26,27,23,078,17,28,11,208,17*7B
$GPGSV,3,3,10,30,33,272,15,05,07,322,*79
$GLGSV,3,1,09,66,65,195,22,86,07,095,14,77,48,272,13,75,05,047,13*6F
$GLGSV,3,2,09,65,12,163,10,85,08,045,20,67,47,316,20,78,02,241,*60
$GLGSV,3,3,09,76,54,009,*55
$GPGSV,3,1,10,03,04,171,13,07,60,306,27,08,23,122,20,09,82,050,22*75
$GPGSV,3,2,10,16,21,040,18,23,48,119,26,27,23,078,17,28,11,208,17*7B
$GPGSV,3,3,10,30,33,272,15,05,07,322,*79
$GLGSV,3,1,09,66,65,195,22,86,07,095,14,77,48,272,13,75,05,047,13*6F
$GLGSV,3,2,09,65,12,163,10,85,08,045,20,67,47,316,20,78,02,241,*60
$GLGSV,3,3,09,76,54,009,*55
$GPGSA,A,3,03,07,08,09,16,23,27,28,30,,,,1.0,0.7,0.7*3C
$GPVTG,,T,,M,0.0,N,0.0,K,A*23
$GPRMC,051410,A,3722.803799,N,12158.673561,W,0.0,,111116,0.0,E,A*26
$GPGGA,051410,3722.803799,N,12158.673561,W,1,09,0.7,17.0,M,-27.0,M,,*46
$GPGSV,3,1,10,03,04,171,12,07,60,306,25,08,23,122,22,09,82,050,18*7D
$GPGSV,3,2,10,16,21,040,17,23,48,119,26,27,23,078,21,28,11,208,17*71
$GPGSV,3,3,10,30,33,272,20,05,07,322,*7F
$GLGSV,3,1,09,66,65,195,22,86,07,095,14,77,48,272,13,75,05,047,13*6F
$GLGSV,3,2,09,65,12,163,10,85,08,045,18,67,47,316,21,78,02,241,*6A
$GLGSV,3,3,09,76,54,009,*55
$GPGSV,3,1,10,03,04,171,12,07,60,306,25,08,23,122,22,09,82,050,18*7D
$GPGSV,3,2,10,16,21,040,17,23,48,119,26,27,23,078,21,28,11,208,17*71
$GPGSV,3,3,10,30,33,272,20,05,07,322,*7F
$GLGSV,3,1,09,66,65,195,22,86,07,095,14,77,48,272,13,75,05,047,13*6F
$GLGSV,3,2,09,65,12,163,10,85,08,045,18,67,47,316,21,78,02,241,*6A
$GLGSV,3,3,09,76,54,009,*55
$GPGSA,A,3,03,07,08,09,16,23,27,28,30,,,,1.0,0.7,0.7*3C
$GPVTG,,T,,M,0.0,N,0.0,K,A*23
$GPRMC,051411,A,3722.803755,N,12158.673599,W,0.0,,111116,0.0,E,A*20
$GPGGA,051411,3722.803755,N,12158.673599,W,1,09,0.7,17.0,M,-27.0,M,,*40
$GPGSV,3,1,10,03,04,171,13,07,60,306,25,08,23,122,24,09,82,050,20*71
$GPGSV,3,2,10,16,21,040,17,23,48,119,29,27,23,078,20,28,11,208,17*7F
$GPGSV,3,3,10,30,33,272,17,05,07,322,*7B
$GLGSV,3,1,09,66,65,195,17,86,07,095,14,77,48,272,13,75,05,047,13*69
$GLGSV,3,2,09,65,12,163,10,85,08,045,18,67,47,316,21,78,02,241,*6A
$GLGSV,3,3,09,76,54,009,*55
$GPGSV,3,1,10,03,04,171,13,07,60,306,25,08,23,122,24,09,82,050,20*71
$GPGSV,3,2,10,16,21,040,17,23,48,119,29,27,23,078,20,28,11,208,17*7F
$GPGSV,3,3,10,30,33,272,17,05,07,322,*7B
$GLGSV,3,1,09,66,65,195,17,86,07,095,14,77,48,272,13,75,05,047,13*69
$GLGSV,3,2,09,65,12,163,10,85,08,045,18,67,47,316,21,78,02,241,*6A
$GLGSV,3,3,09,76,54,009,*55
$GPGSA,A,3,03,07,08,09,16,23,27,28,30,,,,1.1,0.8,0.7*32
$GPVTG,,T,,M,0.0,N,0.0,K,A*23
$GPRMC,051412,A,3722.803641,N,12158.673654,W,0.0,,111116,0.0,E,A*25
$GPGGA,051412,3722.803641,N,12158.673654,W,1,09,0.8,17.0,M,-27.0,M,,*4A
$GPGSV,3,1,10,03,04,171,13,07,60,306,27,08,23,122,24,09,82,050,21*72
$GPGSV,3,2,10,16,21,040,19,23,48,119,27,27,23,078,23,28,11,208,14*7F
$GPGSV,3,3,10,30,33,272,21,05,07,322,*7E
$GLGSV,3,1,09,66,65,195,23,86,07,095,14,77,48,272,13,75,05,047,13*6E
$GLGSV,3,2,09,65,12,163,10,85,08,045,18,67,47,316,22,78,02,241,*69
$GLGSV,3,3,09,76,54,009,*55
$GPGSV,3,1,10,03,04,171,13,07,60,306,27,08,23,122,24,09,82,050,21*72
$GPGSV,3,2,10,16,21,040,19,23,48,119,27,27,23,078,23,28,11,208,14*7F
$GPGSV,3,3,10,30,33,272,21,05,07,322,*7E
$GLGSV,3,1,09,66,65,195,23,86,07,095,14,77,48,272,13,75,05,047,13*6E
$GLGSV,3,2,09,65,12,163,10,85,08,045,18,67,47,316,22,78,02,241,*69
$GLGSV,3,3,09,76,54,009,*55
$GPGSA,A,3,03,07,08,09,16,23,27,28,30,,,,1.0,0.7,0.7*3C
$GPVTG,168.1,T,168.1,M,6.8,N,12.6,K,A*18
$GPRMC,051413,A,3722.801798,N,12158.673198,W,6.8,168.1,111116,0.0,E,A*0A
$GPGGA,051413,3722.801798,N,12158.673198,W,1,09,0.7,17.0,M,-27.0,M,,*44
$GPGSV,3,1,10,03,04,171,13,07,60,306,24,08,23,122,18,09,82,050,19*75
$GPGSV,3,2,10,16,21,040,17,23,48,119,26,27,23,078,18,28,11,208,14*78
$GPGSV,3,3,10,30,33,272,21,05,07,322,*7E
$GLGSV,3,1,09,66,65,195,24,86,07,095,14,77,48,272,11,75,05,047,13*6B
$GLGSV,3,2,09,65,12,163,10,85,08,045,18,67,47,316,23,78,02,241,*68
$GLGSV,3,3,09,76,54,009,*55
$GPGSV,3,1,10,03,04,171,13,07,60,306,24,08,23,122,18,09,82,050,19*75
$GPGSV,3,2,10,16,21,040,17,23,48,119,26,27,23,078,18,28,11,208,14*78
$GPGSV,3,3,10,30,33,272,21,05,07,322,*7E
$GLGSV,3,1,09,66,65,195,24,86,07,095,14,77,48,272,11,75,05,047,13*6B
$GLGSV,3,2,09,65,12,163,10,85,08,045,18,67,47,316,23,78,02,241,*68
$GLGSV,3,3,09,76,54,009,*55
$GPGSA,A,3,03,07,08,09,16,23,27,28,30,,,,1.0,0.7,0.7*3C
$GPVTG,172.3,T,172.3,M,17.0,N,31.5,K,A*22
$GPRMC,051414,A,3722.793166,N,12158.674329,W,17.0,172.3,111116,0.0,E,A*30
$GPGGA,051414,3722.793166,N,12158.674329,W,1,09,0.7,17.0,M,-27.0,M,,*4F
$GPGSV,3,1,10,03,04,171,13,07,60,306,22,08,23,122,24,09,82,050,19*7C
$GPGSV,3,2,10,16,21,040,24,23,48,119,25,27,23,078,18,28,11,208,14*7B
$GPGSV,3,3,10,30,33,272,20,05,07,322,*7F
$GLGSV,3,1,09,66,65,195,22,86,07,095,14,77,48,272,18,75,05,047,13*64
$GLGSV,3,2,09,65,12,163,10,85,08,045,14,67,47,316,22,78,02,241,*65
$GLGSV,3,3,09,76,54,009,*55
$GPGSV,3,1,10,03,04,171,13,07,60,306,22,08,23,122,24,09,82,050,19*7C
$GPGSV,3,2,10,16,21,040,24,23,48,119,25,27,23,078,18,28,11,208,14*7B
$GPGSV,3,3,10,30,33,272,20,05,07,322,*7F
$GLGSV,3,1,09,66,65,195,22,86,07,095,14,77,48,272,18,75,05,047,13*64
$GLGSV,3,2,09,65,12,163,10,85,08,045,14,67,47,316,22,78,02,241,*65
$GLGSV,3,3,09,76,54,009,*55
$GPGSA,A,3,03,07,08,09,16,23,27,28,30,,,,1.1,0.8,0.7*32
$GPVTG,176.7,T,176.7,M,21.4,N,39.6,K,A*28
$GPRMC,051415,A,3722.782761,N,12158.677833,W,21.4,176.7,111116,0.0,E,A*32
$GPGGA,051415,3722.782761,N,12158.677833,W,1,09,0.8,16.0,M,-27.0,M,,*42
$GPGSV,3,1,10,03,04,171,13,07,60,306,20,08,23,122,24,09,82,050,16*71
$GPGSV,3,2,10,16,21,040,21,23,48,119,27,27,23,078,18,28,11,208,14*7C
$GPGSV,3,3,10,30,33,272,17,05,07,322,*7B
$GLGSV,3,1,09,66,65,195,19,86,07,095,14,77,48,272,21,75,05,047,13*66
$GLGSV,3,2,09,65,12,163,10,85,08,045,14,67,47,316,18,78,02,241,*6C
$GLGSV,3,3,09,76,54,009,*55
$GPGSV,3,1,10,03,04,171,13,07,60,306,20,08,23,122,24,09,82,050,16*71
$GPGSV,3,2,10,16,21,040,21,23,48,119,27,27,23,078,18,28,11,208,14*7C
$GPGSV,3,3,10,30,33,272,17,05,07,322,*7B
$GLGSV,3,1,09,66,65,195,19,86,07,095,14,77,48,272,21,75,05,047,13*66
$GLGSV,3,2,09,65,12,163,10,85,08,045,14,67,47,316,18,78,02,241,*6C
$GLGSV,3,3,09,76,54,009,*55
$GPGSA,A,3,03,07,08,09,16,23,27,28,30,,,,1.0,0.8,0.7*33
$GPVTG,180.3,T,180.3,M,23.3,N,43.2,K,A*24
$GPRMC,051416,A,3722.775079,N,12158.678376,W,23.3,180.3,111116,0.0,E,A*3A
$GPGGA,051416,3722.775079,N,12158.678376,W,1,09,0.8,15.0,M,-27.0,M,,*41
$GPGSV,3,1,10,03,04,171,13,07,60,306,18,08,23,122,23,09,82,050,16*7D
$GPGSV,3,2,10,16,21,040,20,23,48,119,27,27,23,078,18,28,11,208,14*7D
$GPGSV,3,3,10,30,33,272,18,05,07,322,*74
$GLGSV,3,1,09,66,65,195,19,86,07,095,14,77,48,272,21,75,05,047,14*61
$GLGSV,3,2,09,65,12,163,10,85,08,045,14,67,47,316,18,78,02,241,*6C
$GLGSV,3,3,09,76,54,009,*55
$GPGSV,3,1,10,03,04,171,13,07,60,306,18,08,23,122,23,09,82,050,16*7D
$GPGSV,3,2,10,16,21,040,20,23,48,119,27,27,23,078,18,28,11,208,14*7D
$GPGSV,3,3,10,30,33,272,18,05,07,322,*74
$GLGSV,3,1,09,66,65,195,19,86,07,095,14,77,48,272,21,75,05,047,14*61
$GLGSV,3,2,09,65,12,163,10,85,08,045,14,67,47,316,18,78,02,241,*6C
$GLGSV,3,3,09,76,54,009,*55
$GPGSA,A,3,03,07,08,09,16,23,27,28,30,,,,1.0,0.8,0.7*33
$GPVTG,180.3,T,180.3,M,24.3,N,45.0,K,A*27
$GPRMC,051417,A,3722.767373,N,12158.678762,W,24.3,180.3,111116,0.0,E,A*37
$GPGGA,051417,3722.767373,N,12158.678762,W,1,09,0.8,17.0,M,-27.0,M,,*49
$GPGSV,3,1,10,03,04,171,13,07,60,306,18,08,23,122,26,09,82,050,16*78
$GPGSV,3,2,10,16,21,040,20,23,48,119,24,27,23,078,18,28,11,208,14*7E
$GPGSV,3,3,10,30,33,272,20,05,07,322,*7F
$GLGSV,3,1,09,66,65,195,19,86,07,095,14,77,48,272,15,75,05,047,14*66
$GLGSV,3,2,09,65,12,163,10,85,08,045,14,67,47,316,18,78,02,241,*6C
$GLGSV,3,3,09,76,54,009,*55
$GPGSV,3,1,10,03,04,171,13,07,60,306,18,08,23,122,26,09,82,050,16*78
$GPGSV,3,2,10,16,21,040,20,23,48,119,24,27,23,078,18,28,11,208,14*7E
$GPGSV,3,3,10,30,33,272,20,05,07,322,*7F
$GLGSV,3,1,09,66,65,195,19,86,07,095,14,77,48,272,15,75,05,047,14*66
$GLGSV,3,2,09,65,12,163,10,85,08,045,14,67,47,316,18,78,02,241,*6C
$GLGSV,3,3,09,76,54,009,*55
$GPGSA,A,3,03,07,08,09,16,23,27,28,30,,,,1.0,0.7,0.7*3C
$GPVTG,178.1,T,178.1,M,25.3,N,46.8,K,A*2D
$GPRMC,051418,A,3722.759693,N,12158.678367,W,25.3,178.1,111116,0.0,E,A*3B
$GPGGA,051418,3722.759693,N,12158.678367,W,1,09,0.7,15.0,M,-27.0,M,,*4C
$GPGSV,3,1,10,03,04,171,13,07,60,306,18,08,23,122,23,09,82,050,16*7D
$GPGSV,3,2,10,16,21,040,18,23,48,119,25,27,23,078,18,28,11,208,14*74
$GPGSV,3,3,10,30,33,272,20,05,07,322,*7F
$GLGSV,3,1,09,66,65,195,19,86,07,095,14,77,48,272,15,75,05,047,14*66
$GLGSV,3,2,09,65,12,163,10,85,08,045,14,67,47,316,18,78,02,241,*6C
$GLGSV,3,3,09,76,54,009,*55
$GPGSV,3,1,10,03,04,171,13,07,60,306,18,08,23,122,23,09,82,050,16*7D
$GPGSV,3,2,10,16,21,040,18,23,48,119,25,27,23,078,18,28,11,208,14*74
$GPGSV,3,3,10,30,33,272,20,05,07,322,*7F
$GLGSV,3,1,09,66,65,195,19,86,07,095,14,77,48,272,15,75,05,047,14*66
$GLGSV,3,2,09,65,12,163,10,85,08,045,14,67,47,316,18,78,02,241,*6C
$GLGSV,3,3,09,76,54,009,*55
$GPGSA,A,3,03,07,08,09,16,23,27,28,30,,,,1.0,0.7,0.7*3C
$GPVTG,178.0,T,178.0,M,26.2,N,48.6,K,A*2F
$GPRMC,051419,A,3722.751354,N,12158.678169,W,26.2,178.0,111116,0.0,E,A*33
$GPGGA,051419,3722.751354,N,12158.678169,W,1,09,0.7,16.0,M,-27.0,M,,*44
$GPGSV,3,1,10,03,04,171,13,07,60,306,15,08,23,122,27,09,82,050,13*71
$GPGSV,3,2,10,16,21,040,21,23,48,119,25,27,23,078,12,28,11,208,14*74
$GPGSV,3,3,10,30,33,272,20,05,07,322,*7F
$GLGSV,3,1,09,66,65,195,19,86,07,095,14,77,48,272,15,75,05,047,14*66
$GLGSV,3,2,09,65,12,163,10,85,08,045,14,67,47,316,18,78,02,241,*6C
$GLGSV,3,3,09,76,54,009,*55
$GPGSV,3,1,10,03,04,171,13,07,60,306,15,08,23,122,27,09,82,050,13*71
$GPGSV,3,2,10,16,21,040,21,23,48,119,25,27,23,078,12,28,11,208,14*74
$GPGSV,3,3,10,30,33,272,20,05,07,322,*7F
$GLGSV,3,1,09,66,65,195,19,86,07,095,14,77,48,272,15,75,05,047,14*66
$GLGSV,3,2,09,65,12,163,10,85,08,045,14,67,47,316,18,78,02,241,*6C
$GLGSV,3,3,09,76,54,009,*55
$GPGSA,A,3,03,07,08,09,16,23,27,28,30,,,,1.1,0.8,0.8*3D
$GPVTG,176.4,T,176.4,M,27.7,N,51.3,K,A*26
$GPRMC,051420,A,3722.742314,N,12158.677300,W,27.7,176.4,111116,0.0,E,A*33
$GPGGA,051420,3722.742314,N,12158.677300,W,1,09,0.8,15.0,M,-27.0,M,,*46
$GPGSV,3,1,10,03,04,171,13,07,60,306,18,08,23,122,26,09,82,050,16*78
$GPGSV,3,2,10,16,21,040,22,23,48,119,26,27,23,078,12,28,11,208,14*74
$GPGSV,3,3,10,30,33,272,15,05,07,322,*79
$GLGSV,3,1,09,66,65,195,19,86,07,095,14,77,48,272,15,75,05,047,14*66
$GLGSV,3,2,09,65,12,163,10,85,08,045,14,67,47,316,18,78,02,241,*6C
$GLGSV,3,3,09,76,54,009,*55
$GPGSV,3,1,10,03,04,171,13,07,60,306,18,08,23,122,26,09,82,050,16*78
$GPGSV,3,2,10,16,21,040,22,23,48,119,26,27,23,078,12,28,11,208,14*74
$GPGSV,3,3,10,30,33,272,15,05,07,322,*79
$GLGSV,3,1,09,66,65,195,19,86,07,095,14,77,48,272,15,75,05,047,14*66
$GLGSV,3,2,09,65,12,163,10,85,08,045,14,67,47,316,18,78,02,241,*6C
$GLGSV,3,3,09,76,54,009,*55
$GPGSA,A,3,03,07,08,09,16,23,27,28,30,,,,1.1,0.8,0.8*3D
$GPVTG,182.4,T,182.4,M,25.8,N,47.7,K,A*28
$GPRMC,051421,A,3722.734867,N,12158.677680,W,25.8,182.4,111116,0.0,E,A*37
$GPGGA,051421,3722.734867,N,12158.677680,W,1,09,0.8,15.0,M,-27.0,M,,*44
$GPGSV,3,1,10,03,04,171,13,07,60,306,20,08,23,122,27,09,82,050,19*7D
$GPGSV,3,2,10,16,21,040,21,23,48,119,27,27,23,078,12,28,11,208,14*76
$GPGSV,3,3,10,30,33,272,24,05,07,322,*7B
$GLGSV,3,1,09,66,65,195,19,86,07,095,14,77,48,272,15,75,05,047,14*66
$GLGSV,3,2,09,65,12,163,10,85,08,045,14,67,47,316,18,78,02,241,*6C
$GLGSV,3,3,09,76,54,009,*55
$GPGSV,3,1,10,03,04,171,13,07,60,306,20,08,23,122,27,09,82,050,19*7D
$GPGSV,3,2,10,16,21,040,21,23,48,119,27,27,23,078,12,28,11,208,14*76
$GPGSV,3,3,10,30,33,272,24,05,07,322,*7B
$GLGSV,3,1,09,66,65,195,19,86,07,095,14,77,48,272,15,75,05,047,14*66
$GLGSV,3,2,09,65,12,163,10,85,08,045,14,67,47,316,18,78,02,241,*6C
$GLGSV,3,3,09,76,54,009,*55
$GPGSA,A,3,03,07,08,09,16,23,27,28,30,,,,1.2,0.8,0.8*3E
$GPVTG,180.9,T,180.9,M,25.3,N,46.8,K,A*2D
$GPRMC,051422,A,3722.728456,N,12158.675717,W,25.3,180.9,111116,0.0,E,A*3E
$GPGGA,051422,3722.728456,N,12158.675717,W,1,09,0.8,14.0,M,-27.0,M,,*48
$GPGSV,3,1,10,03,04,171,13,07,60,306,22,08,23,122,25,09,82,050,19*7D
$GPGSV,3,2,10,16,21,040,21,23,48,119,26,27,23,078,15,28,11,208,14*70
$GPGSV,3,3,10,30,33,272,23,05,07,322,*7C
$GLGSV,3,1,09,66,65,195,19,86,07,095,14,77,48,272,15,75,05,047,14*66
$GLGSV,3,2,09,65,12,163,10,85,08,045,14,67,47,316,18,78,02,241,*6C
$GLGSV,3,3,09,76,54,009,*55
$GPGSV,3,1,10,03,04,171,13,07,60,306,22,08,23,122,25,09,82,050,19*7D
$GPGSV,3,2,10,16,21,040,21,23,48,119,26,27,23,078,15,28,11,208,14*70
$GPGSV,3,3,10,30,33,272,23,05,07,322,*7C
$GLGSV,3,1,09,66,65,195,19,86,07,095,14,77,48,272,15,75,05,047,14*66
$GLGSV,3,2,09,65,12,163,10,85,08,045,14,67,47,316,18,78,02,241,*6C
$GLGSV,3,3,09,76,54,009,*55
$GPGSA,A,3,03,07,08,09,16,23,27,28,30,,,,1.2,0.9,0.8*3F
$GPVTG,178.4,T,178.4,M,24.3,N,45.0,K,A*27
$GPRMC,051423,A,3722.721700,N,12158.673906,W,24.3,178.4,111116,0.0,E,A*35
$GPGGA,051423,3722.721700,N,12158.673906,W,1,09,0.9,16.0,M,-27.0,M,,*4B
$GPGSV,3,1,10,03,04,171,13,07,60,306,19,08,23,122,26,09,82,050,15*7A
$GPGSV,3,2,10,16,21,040,18,23,48,119,25,27,23,078,15,28,11,208,14*79
$GPGSV,3,3,10,30,33,272,21,05,07,322,*7E
$GLGSV,3,1,09,66,65,195,19,86,07,095,14,77,48,272,10,75,05,047,14*63
$GLGSV,3,2,09,65,12,163,10,85,08,045,14,67,47,316,10,78,02,241,*64
$GLGSV,3,3,09,76,54,009,*55
$GPGSV,3,1,10,03,04,171,13,07,60,306,19,08,23,122,26,09,82,050,15*7A
$GPGSV,3,2,10,16,21,040,18,23,48,119,25,27,23,078,15,28,11,208,14*79
$GPGSV,3,3,10,30,33,272,21,05,07,322,*7E
$GLGSV,3,1,09,66,65,195,19,86,07,095,14,77,48,272,10,75,05,047,14*63
$GLGSV,3,2,09,65,12,163,10,85,08,045,14,67,47,316,10,78,02,241,*64
$GLGSV,3,3,09,76,54,009,*55
$GPGSA,A,3,03,07,08,09,16,23,27,28,30,,,,1.2,0.9,0.8*3F
$GPVTG,181.7,T,181.7,M,26.2,N,48.6,K,A*2F
$GPRMC,051424,A,3722.714675,N,12158.672766,W,26.2,181.7,111116,0.0,E,A*38
$GPGGA,051424,3722.714675,N,12158.672766,W,1,09,0.9,17.0,M,-27.0,M,,*41
$GPGSV,3,1,10,03,04,171,13,07,60,306,19,08,23,122,23,09,82,050,17*7D
$GPGSV,3,2,10,16,21,040,20,23,48,119,26,27,23,078,15,28,11,208,14*71
$GPGSV,3,3,10,30,33,272,23,05,07,322,*7C
$GLGSV,3,1,09,66,65,195,19,86,07,095,14,77,48,272,10,75,05,047,14*63
$GLGSV,3,2,09,65,12,163,10,85,08,045,14,67,47,316,10,78,02,241,*64
$GLGSV,3,3,09,76,54,009,*55
$GPGSV,3,1,10,03,04,171,13,07,60,306,19,08,23,122,23,09,82,050,17*7D
$GPGSV,3,2,10,16,21,040,20,23,48,119,26,27,23,078,15,28,11,208,14*71
$GPGSV,3,3,10,30,33,272,23,05,07,322,*7C
$GLGSV,3,1,09,66,65,195,19,86,07,095,14,77,48,272,10,75,05,047,14*63
$GLGSV,3,2,09,65,12,163,10,85,08,045,14,67,47,316,10,78,02,241,*64
$GLGSV,3,3,09,76,54,009,*55
$GPGSA,A,3,03,07,08,09,16,23,27,28,30,,,,1.4,1.1,0.9*31
$GPVTG,182.1,T,182.1,M,26.2,N,48.6,K,A*2F
$GPRMC,051425,A,3722.707626,N,12158.672258,W,26.2,182.1,111116,0.0,E,A*30
$GPGGA,051425,3722.707626,N,12158.672258,W,1,09,1.1,16.0,M,-27.0,M,,*44
$GPGSV,3,1,10,03,04,171,13,07,60,306,16,08,23,122,27,09,82,050,17*76
$GPGSV,3,2,10,16,21,040,20,23,48,119,25,27,23,078,15,28,11,208,14*72
$GPGSV,3,3,10,30,33,272,22,05,07,322,*7D
$GLGSV,3,1,09,66,65,195,19,86,07,095,14,77,48,272,10,75,05,047,14*63
$GLGSV,3,2,09,65,12,163,10,85,08,045,14,67,47,316,10,78,02,241,*64
$GLGSV,3,3,09,76,54,009,*55
$GPGSV,3,1,10,03,04,171,13,07,60,306,16,08,23,122,27,09,82,050,17*76
$GPGSV,3,2,10,16,21,040,20,23,48,119,25,27,23,078,15,28,11,208,14*72
$GPGSV,3,3,10,30,33,272,22,05,07,322,*7D
$GLGSV,3,1,09,66,65,195,19,86,07,095,14,77,48,272,10,75,05,047,14*63
$GLGSV,3,2,09,65,12,163,10,85,08,045,14,67,47,316,10,78,02,241,*64
$GLGSV,3,3,09,76,54,009,*55
$GPGSA,A,3,03,07,08,09,16,23,27,28,30,,,,1.5,1.2,0.9*33
$GPVTG,181.4,T,181.4,M,26.2,N,48.6,K,A*2F
$GPRMC,051426,A,3722.700066,N,12158.672235,W,26.2,181.4,111116,0.0,E,A*3B
$GPGGA,051426,3722.700066,N,12158.672235,W,1,09,1.2,16.0,M,-27.0,M,,*4A
$GPGSV,3,1,10,03,04,171,13,07,60,306,18,08,23,122,26,09,82,050,17*79
$GPGSV,3,2,10,16,21,040,19,23,48,119,27,27,23,078,15,28,11,208,14*7A
$GPGSV,3,3,10,30,33,272,22,05,07,322,*7D
$GLGSV,3,1,09,66,65,195,19,86,07,095,14,77,48,272,10,75,05,047,14*63
$GLGSV,3,2,09,65,12,163,10,85,08,045,14,67,47,316,10,78,02,241,*64
$GLGSV,3,3,09,76,54,009,*55
$GPGSV,3,1,10,03,04,171,13,07,60,306,18,08,23,122,26,09,82,050,17*79
$GPGSV,3,2,10,16,21,040,19,23,48,119,27,27,23,078,15,28,11,208,14*7A
$GPGSV,3,3,10,30,33,272,22,05,07,322,*7D
$GLGSV,3,1,09,66,65,195,19,86,07,095,14,77,48,272,10,75,05,047,14*63
$GLGSV,3,2,09,65,12,163,10,85,08,045,14,67,47,316,10,78,02,241,*64
$GLGSV,3,3,09,76,54,009,*55
$GPGSA,A,3,03,07,08,09,16,23,27,28,30,,,,1.2,0.9,0.8*3F
$GPVTG,177.5,T,177.5,M,22.4,N,41.4,K,A*26
$GPRMC,051427,A,3722.696050,N,12158.669924,W,22.4,177.5,111116,0.0,E,A*3A
$GPGGA,051427,3722.696050,N,12158.669924,W,1,09,0.9,18.0,M,-27.0,M,,*45
$GPGSV,3,1,10,03,04,171,13,07,60,306,18,08,23,122,28,09,82,052,17*75
$GPGSV,3,2,10,16,21,040,19,23,48,119,27,27,23,078,14,28,11,208,14*7B
$GPGSV,3,3,10,30,33,272,23,05,07,322,*7C
$GLGSV,3,1,09,66,65,195,19,86,07,095,14,77,48,272,10,75,05,047,14*63
$GLGSV,3,2,09,65,12,163,11,85,08,045,12,67,47,316,10,78,02,241,*63
$GLGSV,3,3,09,76,54,009,*55
$GPGSV,3,1,10,03,04,171,13,07,60,306,18,08,23,122,28,09,82,052,17*75
$GPGSV,3,2,10,16,21,040,19,23,48,119,27,27,23,078,14,28,11,208,14*7B
$GPGSV,3,3,10,30,33,272,23,05,07,322,*7C
$GLGSV,3,1,09,66,65,195,19,86,07,095,14,77,48,272,10,75,05,047,14*63
$GLGSV,3,2,09,65,12,163,11,85,08,045,12,67,47,316,10,78,02,241,*63
$GLGSV,3,3,09,76,54,009,*55
$GPGSA,A,3,03,07,08,09,16,23,27,28,30,,,,1.2,0.8,0.8*3E
$GPVTG,177.7,T,177.7,M,22.8,N,42.3,K,A*2E
$GPRMC,051428,A,3722.689412,N,12158.668788,W,22.8,177.7,111116,0.0,E,A*3E
$GPGGA,051428,3722.689412,N,12158.668788,W,1,09,0.8,20.0,M,-27.0,M,,*45
$GPGSV,3,1,10,03,04,171,13,07,60,306,17,08,23,122,26,09,82,052,17*74
$GPGSV,3,2,10,16,21,040,19,23,48,119,27,27,23,078,16,28,11,208,14*79
$GPGSV,3,3,10,30,33,272,21,05,07,322,*7E
$GLGSV,3,1,09,66,64,195,19,86,07,094,12,77,48,272,10,75,05,047,14*65
$GLGSV,3,2,09,65,11,163,19,85,08,045,20,67,47,316,10,78,02,241,*69
$GLGSV,3,3,09,76,54,011,*5C
$GPGSV,3,1,10,03,04,171,13,07,60,306,17,08,23,122,26,09,82,052,17*74
$GPGSV,3,2,10,16,21,040,19,23,48,119,27,27,23,078,16,28,11,208,14*79
$GPGSV,3,3,10,30,33,272,21,05,07,322,*7E
$GLGSV,3,1,09,66,64,195,19,86,07,094,12,77,48,272,10,75,05,047,14*65
$GLGSV,3,2,09,65,11,163,19,85,08,045,20,67,47,316,10,78,02,241,*69
$GLGSV,3,3,09,76,54,011,*5C
$GPGSA,A,3,03,07,08,09,16,23,27,28,30,,,,1.2,0.8,0.8*3E
$GPVTG,177.3,T,177.3,M,23.8,N,44.1,K,A*2B
$GPRMC,051429,A,3722.681818,N,12158.668712,W,23.8,177.3,111116,0.0,E,A*37
$GPGGA,051429,3722.681818,N,12158.668712,W,1,09,0.8,20.0,M,-27.0,M,,*49
$GPGSV,3,1,10,03,04,171,13,07,60,306,17,08,23,122,19,09,82,052,17*78
$GPGSV,3,2,10,16,21,040,18,23,48,119,26,27,23,078,16,28,11,208,14*79
$GPGSV,3,3,10,30,33,272,20,05,07,322,*7F
$GLGSV,3,1,09,66,64,195,19,86,07,094,12,77,48,272,10,75,05,047,14*65
$GLGSV,3,2,09,65,11,163,17,85,08,045,20,67,47,316,10,78,02,241,*67
$GLGSV,3,3,09,76,54,011,*5C
$GPGSV,3,1,10,03,04,171,13,07,60,306,17,08,23,122,19,09,82,052,17*78
$GPGSV,3,2,10,16,21,040,18,23,48,119,26,27,23,078,16,28,11,208,14*79
$GPGSV,3,3,10,30,33,272,20,05,07,322,*7F
$GLGSV,3,1,09,66,64,195,19,86,07,094,12,77,48,272,10,75,05,047,14*65
$GLGSV,3,2,09,65,11,163,17,85,08,045,20,67,47,316,10,78,02,241,*67
$GLGSV,3,3,09,76,54,011,*5C
$GPGSA,A,3,03,07,08,09,16,23,27,28,30,,,,1.2,0.9,0.8*3F
$GPVTG,180.7,T,180.7,M,23.8,N,44.1,K,A*2B
$GPRMC,051430,A,3722.674704,N,12158.669657,W,23.8,180.7,111116,0.0,E,A*3A
$GPGGA,051430,3722.674704,N,12158.669657,W,1,09,0.9,20.0,M,-27.0,M,,*49
$GPGSV,3,1,10,07,60,306,17,08,23,122,24,09,82,052,13,16,21,040,18*79
$GPGSV,3,2,10,23,48,119,26,27,23,078,16,28,11,208,14,30,33,272,21*77
$GPGSV,3,3,10,03,04,171,,05,07,322,*79
$GLGSV,3,1,09,66,64,195,19,86,07,094,12,77,48,272,10,75,05,047,14*65
$GLGSV,3,2,09,65,11,163,17,85,08,045,20,67,47,316,10,78,02,241,*67
$GLGSV,3,3,09,76,54,011,*5C
$GPGSV,3,1,10,07,60,306,17,08,23,122,24,09,82,052,13,16,21,040,18*79
$GPGSV,3,2,10,23,48,119,26,27,23,078,16,28,11,208,14,30,33,272,21*77
$GPGSV,3,3,10,03,04,171,,05,07,322,*79
$GLGSV,3,1,09,66,64,195,19,86,07,094,12,77,48,272,10,75,05,047,14*65
$GLGSV,3,2,09,65,11,163,17,85,08,045,20,67,47,316,10,78,02,241,*67
$GLGSV,3,3,09,76,54,011,*5C
$GPGSA,A,3,07,08,09,16,23,27,28,30,,,,,1.2,0.9,0.8*3C
$GPVTG,185.2,T,185.2,M,21.9,N,40.5,K,A*28
$GPRMC,051431,A,3722.667376,N,12158.672168,W,21.9,185.2,111116,0.0,E,A*3A
$GPGGA,051431,3722.667376,N,12158.672168,W,1,08,0.9,21.0,M,-27.0,M,,*4A
$GPGSV,3,1,10,07,60,306,17,08,23,122,27,09,82,052,13,16,21,040,20*71
$GPGSV,3,2,10,23,48,119,26,27,23,078,15,28,11,208,14,30,33,272,17*71
$GPGSV,3,3,10,03,04,171,,05,07,322,*79
$GLGSV,3,1,09,66,64,195,19,86,07,094,12,77,48,272,10,75,05,047,14*65
$GLGSV,3,2,09,65,11,163,15,85,08,045,17,67,47,316,10,78,02,241,*61
$GLGSV,3,3,09,76,54,011,*5C
$GPGSV,3,1,10,07,60,306,17,08,23,122,27,09,82,052,13,16,21,040,20*71
$GPGSV,3,2,10,23,48,119,26,27,23,078,15,28,11,208,14,30,33,272,17*71
$GPGSV,3,3,10,03,04,171,,05,07,322,*79
$GLGSV,3,1,09,66,64,195,19,86,07,094,12,77,48,272,10,75,05,047,14*65
$GLGSV,3,2,09,65,11,163,15,85,08,045,17,67,47,316,10,78,02,241,*61
$GLGSV,3,3,09,76,54,011,*5C
$GPGSA,A,3,07,08,09,16,23,27,28,30,,,,,1.2,0.9,0.8*3C
$GPVTG,184.8,T,184.8,M,22.8,N,42.3,K,A*2E
$GPRMC,051432,A,3722.658974,N,12158.673423,W,22.8,184.8,111116,0.0,E,A*3F
$GPGGA,051432,3722.658974,N,12158.673423,W,1,08,0.9,18.0,M,-27.0,M,,*4C
$GPGSV,3,1,10,07,60,306,14,08,23,122,23,09,82,052,13,16,21,040,18*7D
$GPGSV,3,2,10,23,48,119,25,27,23,078,15,28,11,208,14,30,33,272,20*76
$GPGSV,3,3,10,03,04,171,,05,07,322,*79
$GLGSV,3,1,09,66,64,195,19,86,07,094,12,77,48,272,10,75,05,047,14*65
$GLGSV,3,2,09,65,11,163,18,85,08,045,17,67,47,316,10,78,02,241,*6C
$GLGSV,3,3,09,76,54,011,*5C
$GPGSV,3,1,10,07,60,306,14,08,23,122,23,09,82,052,13,16,21,040,18*7D
$GPGSV,3,2,10,23,48,119,25,27,23,078,15,28,11,208,14,30,33,272,20*76
$GPGSV,3,3,10,03,04,171,,05,07,322,*79
$GLGSV,3,1,09,66,64,195,19,86,07,094,12,77,48,272,10,75,05,047,14*65
$GLGSV,3,2,09,65,11,163,18,85,08,045,17,67,47,316,10,78,02,241,*6C
$GLGSV,3,3,09,76,54,011,*5C
$GPGSA,A,3,07,08,09,16,23,27,28,30,,,,,1.2,0.9,0.8*3C
$GPVTG,179.2,T,179.2,M,20.4,N,37.8,K,A*29
$GPRMC,051433,A,3722.654148,N,12158.672564,W,20.4,179.2,111116,0.0,E,A*30
$GPGGA,051433,3722.654148,N,12158.672564,W,1,08,0.9,20.0,M,-27.0,M,,*4E
$GPGSV,3,1,10,07,60,306,17,08,23,122,23,09,82,053,15,16,21,040,23*71
$GPGSV,3,2,10,23,48,119,24,27,23,078,15,30,33,272,21,03,04,171,*73
$GPGSV,3,3,10,05,07,322,,28,11,208,*79
$GLGSV,3,1,09,66,64,195,19,86,07,094,12,77,48,272,10,75,05,047,14*65
$GLGSV,3,2,09,65,11,163,17,85,08,045,16,67,47,316,10,78,02,241,*62
$GLGSV,3,3,09,76,54,011,*5C
$GPGSV,3,1,10,07,60,306,17,08,23,122,23,09,82,053,15,16,21,040,23*71
$GPGSV,3,2,10,23,48,119,24,27,23,078,15,30,33,272,21,03,04,171,*73
$GPGSV,3,3,10,05,07,322,,28,11,208,*79
$GLGSV,3,1,09,66,64,195,19,86,07,094,12,77,48,272,10,75,05,047,14*65
$GLGSV,3,2,09,65,11,163,17,85,08,045,16,67,47,316,10,78,02,241,*62
$GLGSV,3,3,09,76,54,011,*5C
$GPGSA,A,3,07,08,09,16,23,27,30,,,,,,1.2,0.9,0.8*36
$GPVTG,179.8,T,179.8,M,19.4,N,36.0,K,A*2A
$GPRMC,051434,A,3722.647845,N,12158.673216,W,19.4,179.8,111116,0.0,E,A*32
$GPGGA,051434,3722.647845,N,12158.673216,W,1,07,0.9,19.0,M,-27.0,M,,*49
$GPGSV,3,1,10,07,60,306,18,08,23,122,26,09,82,053,15,16,21,040,21*79
$GPGSV,3,2,10,23,48,119,24,27,23,078,15,30,33,272,21,03,04,171,*73
$GPGSV,3,3,10,05,07,322,,28,11,208,*79
$GLGSV,3,1,09,66,64,195,19,86,07,094,12,77,48,272,10,75,05,047,14*65
$GLGSV,3,2,09,65,11,163,17,85,08,045,16,67,47,316,10,78,02,241,*62
$GLGSV,3,3,09,76,54,011,*5C
$GPGSV,3,1,10,07,60,306,18,08,23,122,26,09,82,053,15,16,21,040,21*79
$GPGSV,3,2,10,23,48,119,24,27,23,078,15,30,33,272,21,03,04,171,*73
$GPGSV,3,3,10,05,07,322,,28,11,208,*79
$GLGSV,3,1,09,66,64,195,19,86,07,094,12,77,48,272,10,75,05,047,14*65
$GLGSV,3,2,09,65,11,163,17,85,08,045,16,67,47,316,10,78,02,241,*62
$GLGSV,3,3,09,76,54,011,*5C
$GPGSA,A,3,07,08,09,16,23,27,30,,,,,,1.2,0.9,0.8*36
$GPVTG,179.7,T,179.7,M,19.0,N,35.1,K,A*2C
$GPRMC,051435,A,3722.642223,N,12158.672429,W,19.0,179.7,111116,0.0,E,A*3C
$GPGGA,051435,3722.642223,N,12158.672429,W,1,07,0.9,19.0,M,-27.0,M,,*4C
$GPGSV,3,1,10,07,60,306,20,08,23,122,26,09,82,053,15,16,21,040,18*78
$GPGSV,3,2,10,23,48,119,23,27,23,078,15,30,33,272,20,03,04,171,*75
$GPGSV,3,3,10,05,07,322,,28,11,208,*79
$GLGSV,3,1,09,66,64,195,19,86,07,094,12,77,48,272,08,75,05,047,14*6C
$GLGSV,3,2,09,65,11,163,16,85,08,045,16,67,47,316,10,78,02,241,*63
$GLGSV,3,3,09,76,54,011,*5C
$GPGSV,3,1,10,07,60,306,20,08,23,122,26,09,82,053,15,16,21,040,18*78
$GPGSV,3,2,10,23,48,119,23,27,23,078,15,30,33,272,20,03,04,171,*75
$GPGSV,3,3,10,05,07,322,,28,11,208,*79
$GLGSV,3,1,09,66,64,195,19,86,07,094,12,77,48,272,08,75,05,047,14*6C
$GLGSV,3,2,09,65,11,163,16,85,08,045,16,67,47,316,10,78,02,241,*63
$GLGSV,3,3,09,76,54,011,*5C
$GPGSA,A,3,07,08,09,16,23,27,30,,,,,,1.2,0.9,0.8*36
$GPVTG,176.1,T,176.1,M,16.0,N,29.7,K,A*28
$GPRMC,051436,A,3722.639279,N,12158.671754,W,16.0,176.1,111116,0.0,E,A*30
$GPGGA,051436,3722.639279,N,12158.671754,W,1,07,0.9,20.0,M,-27.0,M,,*4C
$GPGSV,3,1,10,07,60,306,19,08,23,122,22,09,82,053,15,16,21,040,17*79
$GPGSV,3,2,10,23,48,119,24,27,23,078,15,30,33,272,19,03,04,171,*78
$GPGSV,3,3,10,05,07,322,,28,11,208,*79
$GLGSV,3,1,09,66,64,195,19,86,07,094,12,77,48,272,08,75,05,047,14*6C
$GLGSV,3,2,09,65,11,163,16,85,08,045,16,67,47,316,10,78,02,241,*63
$GLGSV,3,3,09,76,54,011,*5C
$GPGSV,3,1,10,07,60,306,19,08,23,122,22,09,82,053,15,16,21,040,17*79
$GPGSV,3,2,10,23,48,119,24,27,23,078,15,30,33,272,19,03,04,171,*78
$GPGSV,3,3,10,05,07,322,,28,11,208,*79
$GLGSV,3,1,09,66,64,195,19,86,07,094,12,77,48,272,08,75,05,047,14*6C
$GLGSV,3,2,09,65,11,163,16,85,08,045,16,67,47,316,10,78,02,241,*63
$GLGSV,3,3,09,76,54,011,*5C
$GPGSA,A,3,07,08,09,16,23,27,30,,,,,,1.2,0.9,0.8*36
$GPVTG,179.8,T,179.8,M,16.5,N,30.6,K,A*24
$GPRMC,051437,A,3722.634813,N,12158.671515,W,16.5,179.8,111116,0.0,E,A*3E
$GPGGA,051437,3722.634813,N,12158.671515,W,1,07,0.9,19.0,M,-27.0,M,,*4B
$GPGSV,3,1,10,07,60,306,22,08,23,122,19,09,82,053,15,16,21,040,17*79
$GPGSV,3,2,10,23,48,119,25,27,23,078,12,30,33,272,19,03,04,171,*7E
$GPGSV,3,3,10,05,07,322,,28,11,208,*79
$GLGSV,3,1,09,66,64,195,19,86,07,094,12,77,48,272,15,75,05,047,14*60
$GLGSV,3,2,09,65,11,163,16,85,08,045,16,67,47,316,14,78,02,241,*67
$GLGSV,3,3,09,76,54,011,*5C
$GPGSV,3,1,10,07,60,306,22,08,23,122,19,09,82,053,15,16,21,040,17*79
$GPGSV,3,2,10,23,48,119,25,27,23,078,12,30,33,272,19,03,04,171,*7E
$GPGSV,3,3,10,05,07,322,,28,11,208,*79
$GLGSV,3,1,09,66,64,195,19,86,07,094,12,77,48,272,15,75,05,047,14*60
$GLGSV,3,2,09,65,11,163,16,85,08,045,16,67,47,316,14,78,02,241,*67
$GLGSV,3,3,09,76,54,011,*5C
$GPGSA,A,3,07,08,09,16,23,27,30,,,,,,1.2,0.9,0.8*36
$GPVTG,176.4,T,176.4,M,15.1,N,27.9,K,A*2A
$GPRMC,051438,A,3722.631295,N,12158.671532,W,15.1,176.4,111116,0.0,E,A*31
$GPGGA,051438,3722.631295,N,12158.671532,W,1,07,0.9,20.0,M,-27.0,M,,*4A
$GPGSV,3,1,10,07,60,306,23,08,23,122,26,09,82,053,15,16,21,040,18*7B
$GPGSV,3,2,10,23,48,119,27,27,23,078,18,30,33,272,18,03,04,171,*77
$GPGSV,3,3,10,05,07,322,,28,11,208,*79
$GLGSV,3,1,09,66,64,195,19,86,07,094,12,77,48,272,15,75,05,047,14*60
$GLGSV,3,2,09,65,11,163,16,85,08,045,16,67,47,316,18,78,02,241,*6B
$GLGSV,3,3,09,76,54,011,*5C
$GPGSV,3,1,10,07,60,306,23,08,23,122,26,09,82,053,15,16,21,040,18*7B
$GPGSV,3,2,10,23,48,119,27,27,23,078,18,30,33,272,18,03,04,171,*77
$GPGSV,3,3,10,05,07,322,,28,11,208,*79
$GLGSV,3,1,09,66,64,195,19,86,07,094,12,77,48,272,15,75,05,047,14*60
$GLGSV,3,2,09,65,11,163,16,85,08,045,16,67,47,316,18,78,02,241,*6B
$GLGSV,3,3,09,76,54,011,*5C
$GPGSA,A,3,07,08,09,16,23,27,30,,,,,,1.2,0.9,0.8*36
$GPVTG,178.4,T,178.4,M,15.1,N,27.9,K,A*2A
$GPRMC,051439,A,3722.627034,N,12158.671069,W,15.1,178.4,111116,0.0,E,A*3B
$GPGGA,051439,3722.627034,N,12158.671069,W,1,07,0.9,22.0,M,-27.0,M,,*4C
$GPGSV,3,1,10,07,60,306,24,08,23,122,24,09,82,053,15,16,21,040,18*7E
$GPGSV,3,2,10,23,48,119,26,27,23,078,18,30,33,272,18,03,04,171,*76
$GPGSV,3,3,10,05,07,322,,28,11,208,*79
$GLGSV,2,1,08,66,64,195,19,86,07,094,12,77,48,272,18,65,11,163,16*6C
$GLGSV,2,2,08,85,08,045,16,67,47,316,20,78,02,241,,76,54,011,*60
$GPGSV,3,1,10,07,60,306,24,08,23,122,24,09,82,053,15,16,21,040,18*7E
$GPGSV,3,2,10,23,48,119,26,27,23,078,18,30,33,272,18,03,04,171,*76
$GPGSV,3,3,10,05,07,322,,28,11,208,*79
$GLGSV,2,1,08,66,64,195,19,86,07,094,12,77,48,272,18,65,11,163,16*6C
$GLGSV,2,2,08,85,08,045,16,67,47,316,20,78,02,241,,76,54,011,*60
$GPGSA,A,3,07,08,09,16,23,27,30,,,,,,1.2,0.9,0.8*36
$GPVTG,179.9,T,179.9,M,15.1,N,27.9,K,A*2A
$GPRMC,051440,A,3722.623678,N,12158.671516,W,15.1,179.9,111116,0.0,E,A*3E
$GPGGA,051440,3722.623678,N,12158.671516,W,1,07,0.9,22.0,M,-27.0,M,,*45
$GPGSV,3,1,10,07,60,306,24,08,23,122,25,09,82,053,16,16,21,040,16*72
$GPGSV,3,2,10,23,48,119,24,27,23,078,18,30,33,272,17,03,04,171,*7B
$GPGSV,3,3,10,05,07,322,,28,11,208,*79
$GLGSV,3,1,09,66,64,195,19,86,07,094,10,77,48,272,18,65,11,163,16*6E
$GLGSV,3,2,09,85,08,045,16,67,47,316,22,78,02,241,,76,54,011,*62
$GLGSV,3,3,09,75,05,047,*58
$GPGSV,3,1,10,07,60,306,24,08,23,122,25,09,82,053,16,16,21,040,16*72
$GPGSV,3,2,10,23,48,119,24,27,23,078,18,30,33,272,17,03,04,171,*7B
$GPGSV,3,3,10,05,07,322,,28,11,208,*79
$GLGSV,3,1,09,66,64,195,19,86,07,094,10,77,48,272,18,65,11,163,16*6E
$GLGSV,3,2,09,85,08,045,16,67,47,316,22,78,02,241,,76,54,011,*62
$GLGSV,3,3,09,75,05,047,*58
$GPGSA,A,3,07,08,09,16,23,27,30,,,,,,1.2,0.9,0.8*36
$GPVTG,178.8,T,178.8,M,15.1,N,27.9,K,A*2A
$GPRMC,051441,A,3722.620094,N,12158.671316,W,15.1,178.8,111116,0.0,E,A*3E
$GPGGA,051441,3722.620094,N,12158.671316,W,1,07,0.9,21.0,M,-27.0,M,,*46
$GPGSV,3,1,10,07,60,306,24,08,23,122,26,09,82,053,17,16,21,040,21*74
$GPGSV,3,2,10,23,48,119,26,27,23,078,14,30,33,272,19,03,04,171,*7B
$GPGSV,3,3,10,05,07,322,,28,11,208,*79
$GLGSV,2,1,08,86,07,094,10,77,48,272,15,65,11,163,16,85,08,045,16*67
$GLGSV,2,2,08,67,47,316,18,78,02,241,,76,54,011,,75,05,047,*6C
$GPGSV,3,1,10,07,60,306,24,08,23,122,26,09,82,053,17,16,21,040,21*74
$GPGSV,3,2,10,23,48,119,26,27,23,078,14,30,33,272,19,03,04,171,*7B
$GPGSV,3,3,10,05,07,322,,28,11,208,*79
$GLGSV,2,1,08,86,07,094,10,77,48,272,15,65,11,163,16,85,08,045,16*67
$GLGSV,2,2,08,67,47,316,18,78,02,241,,76,54,011,,75,05,047,*6C
$GPGSA,A,3,07,08,09,16,23,27,30,,,,,,1.4,1.1,0.9*38
$GPVTG,179.1,T,179.1,M,14.6,N,27.0,K,A*25
$GPRMC,051442,A,3722.615418,N,12158.670750,W,14.6,179.1,111116,0.0,E,A*32
$GPGGA,051442,3722.615418,N,12158.670750,W,1,07,1.1,21.0,M,-27.0,M,,*4D
$GPGSV,3,1,10,07,60,306,23,08,23,122,28,09,82,053,18,16,21,040,23*70
$GPGSV,3,2,10,23,48,119,27,27,23,078,21,30,33,272,22,03,04,171,*74
$GPGSV,3,3,10,05,07,322,,28,11,208,*79
$GLGSV,3,1,09,86,07,094,18,77,48,272,19,65,11,163,16,85,08,045,16*63
$GLGSV,3,2,09,67,47,316,18,78,02,241,,66,64,195,,76,54,011,*67
$GLGSV,3,3,09,75,05,047,*58
$GPGSV,3,1,10,07,60,306,23,08,23,122,28,09,82,053,18,16,21,040,23*70
$GPGSV,3,2,10,23,48,119,27,27,23,078,21,30,33,272,22,03,04,171,*74
$GPGSV,3,3,10,05,07,322,,28,11,208,*79
$GLGSV,3,1,09,86,07,094,18,77,48,272,19,65,11,163,16,85,08,045,16*63
$GLGSV,3,2,09,67,47,316,18,78,02,241,,66,64,195,,76,54,011,*67
$GLGSV,3,3,09,75,05,047,*58
$GPGSA,A,3,07,08,09,16,23,27,30,,,,,,1.4,1.1,0.9*38
$GPVTG,183.5,T,183.5,M,14.6,N,27.0,K,A*25
$GPRMC,051443,A,3722.609027,N,12158.674394,W,14.6,183.5,111116,0.0,E,A*3F
$GPGGA,051443,3722.609027,N,12158.674394,W,1,07,1.1,23.0,M,-27.0,M,,*43
$GPGSV,3,1,10,07,60,306,20,08,23,122,28,09,82,053,18,16,21,040,19*7A
$GPGSV,3,2,10,23,48,119,26,27,23,078,17,30,33,272,18,03,04,171,*79
$GPGSV,3,3,10,05,07,322,,28,11,208,*79
$GLGSV,3,1,09,86,07,094,18,77,48,272,19,65,11,163,16,85,08,045,16*63
$GLGSV,3,2,09,67,47,316,14,78,02,241,,66,64,195,,76,54,011,*6B
$GLGSV,3,3,09,75,05,047,*58
$GPGSV,3,1,10,07,60,306,20,08,23,122,28,09,82,053,18,16,21,040,19*7A
$GPGSV,3,2,10,23,48,119,26,27,23,078,17,30,33,272,18,03,04,171,*79
$GPGSV,3,3,10,05,07,322,,28,11,208,*79
$GLGSV,3,1,09,86,07,094,18,77,48,272,19,65,11,163,16,85,08,045,16*63
$GLGSV,3,2,09,67,47,316,14,78,02,241,,66,64,195,,76,54,011,*6B
$GLGSV,3,3,09,75,05,047,*58
$GPGSA,A,3,07,08,09,16,23,27,30,,,,,,1.2,0.9,0.8*36
$GPVTG,183.7,T,183.7,M,14.1,N,26.1,K,A*22
$GPRMC,051444,A,3722.605509,N,12158.674020,W,14.1,183.7,111116,0.0,E,A*34
$GPGGA,051444,3722.605509,N,12158.674020,W,1,07,0.9,24.0,M,-27.0,M,,*43
$GPGSV,3,1,10,07,60,306,20,08,23,122,29,09,82,053,18,16,21,040,19*7B
$GPGSV,3,2,10,23,48,119,25,27,23,078,17,28,11,208,12,30,33,272,19*78
$GPGSV,3,3,10,03,04,171,,05,07,322,*79
$GLGSV,3,1,09,66,64,195,17,86,07,094,18,77,48,272,19,65,11,163,12*6D
$GLGSV,3,2,09,85,08,045,16,67,47,316,14,78,02,241,,76,54,011,*67
$GLGSV,3,3,09,75,05,047,*58
$GPGSV,3,1,10,07,60,306,20,08,23,122,29,09,82,053,18,16,21,040,19*7B
$GPGSV,3,2,10,23,48,119,25,27,23,078,17,28,11,208,12,30,33,272,19*78
$GPGSV,3,3,10,03,04,171,,05,07,322,*79
$GLGSV,3,1,09,66,64,195,17,86,07,094,18,77,48,272,19,65,11,163,12*6D
$GLGSV,3,2,09,85,08,045,16,67,47,316,14,78,02,241,,76,54,011,*67
$GLGSV,3,3,09,75,05,047,*58
$GPGSA,A,3,07,08,09,16,23,27,28,30,,,,,1.1,0.8,0.8*3E
$GPVTG,176.3,T,176.3,M,14.6,N,27.0,K,A*25
$GPRMC,051445,A,3722.602007,N,12158.673012,W,14.6,176.3,111116,0.0,E,A*36
$GPGGA,051445,3722.602007,N,12158.673012,W,1,08,0.8,26.0,M,-27.0,M,,*44
$GPGSV,3,1,10,07,60,306,20,08,23,122,27,09,82,053,18,16,21,040,19*75
$GPGSV,3,2,10,23,48,119,26,27,23,078,15,28,11,208,13,30,33,272,20*72
$GPGSV,3,3,10,03,04,171,,05,07,322,*79
$GLGSV,3,1,09,66,64,195,17,86,07,094,18,77,48,272,19,65,11,163,19*66
$GLGSV,3,2,09,85,08,045,16,67,47,316,14,78,02,241,,76,54,011,*67
$GLGSV,3,3,09,75,05,047,*58
$GPGSV,3,1,10,07,60,306,20,08,23,122,27,09,82,053,18,16,21,040,19*75
$GPGSV,3,2,10,23,48,119,26,27,23,078,15,28,11,208,13,30,33,272,20*72
$GPGSV,3,3,10,03,04,171,,05,07,322,*79
$GLGSV,3,1,09,66,64,195,17,86,07,094,18,77,48,272,19,65,11,163,19*66
$GLGSV,3,2,09,85,08,045,16,67,47,316,14,78,02,241,,76,54,011,*67
$GLGSV,3,3,09,75,05,047,*58
$GPGSA,A,3,07,08,09,16,23,27,28,30,,,,,1.1,0.8,0.8*3E
$GPVTG,173.2,T,173.2,M,15.6,N,28.8,K,A*23
$GPRMC,051446,A,3722.597221,N,12158.672112,W,15.6,173.2,111116,0.0,E,A*39
$GPGGA,051446,3722.597221,N,12158.672112,W,1,08,0.8,26.0,M,-27.0,M,,*4E
$GPGSV,3,1,10,07,60,306,14,08,23,122,29,09,82,053,16,16,21,040,19*72
$GPGSV,3,2,10,23,48,119,27,27,23,078,15,28,11,208,13,30,33,272,20*73
$GPGSV,3,3,10,03,04,171,,05,07,322,*79
$GLGSV,3,1,09,66,64,195,16,86,07,094,18,77,48,272,19,65,11,163,19*67
$GLGSV,3,2,09,85,08,045,16,67,47,316,14,78,02,241,,76,54,011,*67
$GLGSV,3,3,09,75,05,047,*58
$GPGSV,3,1,10,07,60,306,14,08,23,122,29,09,82,053,16,16,21,040,19*72
$GPGSV,3,2,10,23,48,119,27,27,23,078,15,28,11,208,13,30,33,272,20*73
$GPGSV,3,3,10,03,04,171,,05,07,322,*79
$GLGSV,3,1,09,66,64,195,16,86,07,094,18,77,48,272,19,65,11,163,19*67
$GLGSV,3,2,09,85,08,045,16,67,47,316,14,78,02,241,,76,54,011,*67
$GLGSV,3,3,09,75,05,047,*58
$GPGSA,A,3,07,08,09,16,23,27,28,30,,,,,1.1,0.8,0.8*3E
$GPVTG,176.3,T,176.3,M,15.6,N,28.8,K,A*23
$GPRMC,051447,A,3722.592800,N,12158.672494,W,15.6,176.3,111116,0.0,E,A*3B
$GPGGA,051447,3722.592800,N,12158.672494,W,1,08,0.8,26.0,M,-27.0,M,,*48
$GPGSV,3,1,10,07,60,306,19,08,23,122,29,09,82,053,18,16,21,040,19*71
$GPGSV,3,2,10,23,48,119,26,27,23,078,15,28,11,208,13,30,33,272,21*73
$GPGSV,3,3,10,03,04,171,,05,07,322,*79
$GLGSV,3,1,09,66,64,195,15,86,07,094,18,77,48,272,19,65,11,163,16*6B
$GLGSV,3,2,09,85,08,045,16,67,47,316,13,78,02,241,,76,54,011,*60
$GLGSV,3,3,09,75,05,047,*58
$GPGSV,3,1,10,07,60,306,19,08,23,122,29,09,82,053,18,16,21,040,19*71
$GPGSV,3,2,10,23,48,119,26,27,23,078,15,28,11,208,13,30,33,272,21*73
$GPGSV,3,3,10,03,04,171,,05,07,322,*79
$GLGSV,3,1,09,66,64,195,15,86,07,094,18,77,48,272,19,65,11,163,16*6B
$GLGSV,3,2,09,85,08,045,16,67,47,316,13,78,02,241,,76,54,011,*60
$GLGSV,3,3,09,75,05,047,*58
$GPGSA,A,3,07,08,09,16,23,27,28,30,,,,,1.1,0.8,0.8*3E
$GPVTG,191.7,T,191.7,M,19.0,N,35.1,K,A*2C
$GPRMC,051448,A,3722.583680,N,12158.678150,W,19.0,191.7,111116,0.0,E,A*32
$GPGGA,051448,3722.583680,N,12158.678150,W,1,08,0.8,25.0,M,-27.0,M,,*45
$GPGSV,3,1,10,07,60,306,21,08,23,122,28,09,82,053,19,16,21,040,12*71
$GPGSV,3,2,10,23,48,119,27,27,23,078,14,28,11,208,13,30,33,272,21*73
$GPGSV,3,3,10,03,04,171,,05,07,322,*79
$GLGSV,3,1,09,66,64,195,16,86,07,094,18,77,48,272,19,65,11,163,21*6C
$GLGSV,3,2,09,85,08,045,16,67,47,316,18,78,02,241,,76,54,011,*6B
$GLGSV,3,3,09,75,05,047,*58
$GPGSV,3,1,10,07,60,306,21,08,23,122,28,09,82,053,19,16,21,040,12*71
$GPGSV,3,2,10,23,48,119,27,27,23,078,14,28,11,208,13,30,33,272,21*73
$GPGSV,3,3,10,03,04,171,,05,07,322,*79
$GLGSV,3,1,09,66,64,195,16,86,07,094,18,77,48,272,19,65,11,163,21*6C
$GLGSV,3,2,09,85,08,045,16,67,47,316,18,78,02,241,,76,54,011,*6B
$GLGSV,3,3,09,75,05,047,*58
$GPGSA,A,3,07,08,09,16,23,27,28,30,,,,,1.1,0.8,0.8*3E
$GPVTG,191.2,T,191.2,M,14.6,N,27.0,K,A*25
$GPRMC,051449,A,3722.582900,N,12158.676933,W,14.6,191.2,111116,0.0,E,A*38
$GPGGA,051449,3722.582900,N,12158.676933,W,1,08,0.8,25.0,M,-27.0,M,,*41
$GPGSV,3,1,10,07,60,306,20,08,23,122,28,09,82,053,19,16,21,040,12*70
$GPGSV,3,2,10,23,48,119,27,27,23,078,18,28,11,208,13,30,33,272,23*7D
$GPGSV,3,3,10,03,04,171,,05,07,322,*79
$GLGSV,3,1,09,66,64,195,16,86,07,094,18,77,48,272,19,65,11,163,22*6F
$GLGSV,3,2,09,85,08,045,16,67,47,316,19,78,02,241,,76,54,011,*6A
$GLGSV,3,3,09,75,05,047,*58
$GPGSV,3,1,10,07,60,306,20,08,23,122,28,09,82,053,19,16,21,040,12*70
$GPGSV,3,2,10,23,48,119,27,27,23,078,18,28,11,208,13,30,33,272,23*7D
$GPGSV,3,3,10,03,04,171,,05,07,322,*79
$GLGSV,3,1,09,66,64,195,16,86,07,094,18,77,48,272,19,65,11,163,22*6F
$GLGSV,3,2,09,85,08,045,16,67,47,316,19,78,02,241,,76,54,011,*6A
$GLGSV,3,3,09,75,05,047,*58
$GPGSA,A,3,07,08,09,16,23,27,28,30,,,,,1.2,0.8,0.8*3D
$GPVTG,188.1,T,188.1,M,11.7,N,21.6,K,A*21
$GPRMC,051450,A,3722.580631,N,12158.675643,W,11.7,188.1,111116,0.0,E,A*3B
$GPGGA,051450,3722.580631,N,12158.675643,W,1,08,0.8,27.0,M,-27.0,M,,*4F
$GPGSV,3,1,10,07,60,306,24,08,23,122,26,09,82,053,17,16,21,040,12*74
$GPGSV,3,2,10,23,48,119,28,27,23,078,18,28,11,208,13,30,33,272,22*73
$GPGSV,3,3,10,03,04,171,,05,07,322,*79
$GLGSV,3,1,09,66,64,195,16,86,07,094,18,77,48,272,19,65,11,163,21*6C
$GLGSV,3,2,09,85,08,045,16,67,47,316,18,78,02,241,,76,54,011,*6B
$GLGSV,3,3,09,75,05,047,*58
$GPGSV,3,1,10,07,60,306,24,08,23,122,26,09,82,053,17,16,21,040,12*74
$GPGSV,3,2,10,23,48,119,28,27,23,078,18,28,11,208,13,30,33,272,22*73
$GPGSV,3,3,10,03,04,171,,05,07,322,*79
$GLGSV,3,1,09,66,64,195,16,86,07,094,18,77,48,272,19,65,11,163,21*6C
$GLGSV,3,2,09,85,08,045,16,67,47,316,18,78,02,241,,76,54,011,*6B
$GLGSV,3,3,09,75,05,047,*58
$GPGSA,A,3,07,08,09,16,23,27,28,30,,,,,1.1,0.8,0.7*31
$GPVTG,191.8,T,191.8,M,8.3,N,15.3,K,A*1F
$GPRMC,051451,A,3722.581165,N,12158.675315,W,8.3,191.8,111116,0.0,E,A*06
$GPGGA,051451,3722.581165,N,12158.675315,W,1,08,0.8,27.0,M,-27.0,M,,*4F
$GPGSV,3,1,10,05,07,322,15,07,60,306,24,08,23,122,25,09,82,053,18*7E
$GPGSV,3,2,10,16,21,040,12,23,48,119,29,27,23,078,21,28,11,208,13*7F
$GPGSV,3,3,10,30,33,272,22,03,04,171,*7C
$GLGSV,3,1,09,66,64,195,16,86,07,094,18,77,48,272,19,65,11,163,22*6F
$GLGSV,3,2,09,85,08,045,13,67,47,316,17,78,02,241,,76,54,011,*61
$GLGSV,3,3,09,75,05,047,*58
$GPGSV,3,1,10,05,07,322,15,07,60,306,24,08,23,122,25,09,82,053,18*7E
