$GPGSV,3,1,09,05,11,316,,07,63,322,,08,28,115,,09,79,111,*73
$GPGSV,3,2,09,16,14,039,,23,41,126,,27,24,070,,28,18,210,*7C
$GPGSV,3,3,09,30,38,281,*43
$GLGSV,3,1,10,86,11,088,13,85,09,037,16,68,04,333,13,78,07,248,*60
$GLGSV,3,2,10,66,56,191,,77,52,285,,76,49,019,,75,00,000,*61
$GLGSV,3,3,10,65,04,164,,67,53,307,*63
$GPGSA,A,1,,,,,,,,,,,,,,,*1E
$GPVTG,,T,,M,,N,,K,N*2C
$GPRMC,,V,,,,,,,,,,N*53
$GPGGA,,,,,,0,,,,,,,,*66
$GPGSV,3,1,09,05,11,316,,07,63,322,,08,28,115,,09,79,111,*73
$GPGSV,3,2,09,16,14,039,,23,41,126,,27,24,070,,28,18,210,*7C
$GPGSV,3,3,09,30,38,281,*43
$GLGSV,3,1,10,78,07,248,,66,54,191,,86,12,087,,77,52,286,*61
$GLGSV,3,2,10,76,48,021,,75,00,000,,65,04,164,,85,09,036,*6C
$GLGSV,3,3,10,67,54,306,,68,05,333,*69
$GPGSA,A,1,,,,,,,,,,,,,,,*1E
$GPVTG,,T,,M,,N,,K,N*2C
$GPRMC,,V,,,,,,,,,,N*53
$GPGGA,,,,,,0,,,,,,,,*66
$GPGSV,3,1,09,05,11,316,,07,63,322,,08,28,115,,09,79,111,*73
$GPGSV,3,2,09,16,14,039,,23,41,126,,27,24,070,,28,18,210,*7C
$GPGSV,3,3,09,30,38,281,*43
$GLGSV,3,1,10,78,07,248,,66,54,191,,86,12,087,,77,52,286,*61
$GLGSV,3,2,10,76,48,021,,75,00,000,,65,04,164,,85,09,036,*6C
$GLGSV,3,3,10,67,54,306,,68,05,333,*69
$GPGSA,A,1,,,,,,,,,,,,,,,*1E
$GPVTG,,T,,M,,N,,K,N*2C
$GPRMC,,V,,,,,,,,,,N*53
$GPGGA,,,,,,0,,,,,,,,*66
$GPGSV,3,1,09,05,11,316,,07,63,322,,08,28,115,,09,79,111,*73
$GPGSV,3,2,09,16,14,039,,23,41,126,,27,24,070,,28,18,210,*7C
$GPGSV,3,3,09,30,38,281,*43
$GLGSV,3,1,10,78,07,248,,66,54,191,,86,12,087,,77,52,286,*61
$GLGSV,3,2,10,76,48,021,,75,00,000,,65,04,164,,85,09,036,*6C
$GLGSV,3,3,10,67,54,306,,68,05,333,*69
$GPGSA,A,1,,,,,,,,,,,,,,,*1E
$GPVTG,,T,,M,,N,,K,N*2C
$GPRMC,,V,,,,,,,,,,N*53
$GPGGA,,,,,,0,,,,,,,,*66
$GPGSV,3,1,09,05,11,316,,07,63,322,,08,28,115,,09,79,111,*73
$GPGSV,3,2,09,16,14,039,,23,41,126,,27,24,070,,28,18,210,*7C
$GPGSV,3,3,09,30,38,281,*43
$GLGSV,3,1,10,78,07,248,,66,54,191,,86,12,087,,77,52,286,*61
$GLGSV,3,2,10,76,48,021,,75,00,000,,65,04,164,,85,09,036,*6C
$GLGSV,3,3,10,67,54,306,,68,05,333,*69
$GPGSA,A,1,,,,,,,,,,,,,,,*1E
$GPVTG,,T,,M,,N,,K,N*2C
$GPRMC,,V,,,,,,,,,,N*53
$GPGGA,,,,,,0,,,,,,,,*66
$GPGSV,3,1,09,07,63,322,22,23,41,126,20,05,11,316,,08,28,115,*76
$GPGSV,3,2,09,09,79,111,,16,14,039,,27,24,070,,28,18,210,*7B
$GPGSV,3,3,09,30,38,281,*43
$GLGSV,3,1,10,78,07,248,,66,54,191,,86,12,087,,77,52,286,*61
$GLGSV,3,2,10,76,48,021,,75,00,000,,65,04,164,,85,09,036,*6C
$GLGSV,3,3,10,67,54,306,,68,05,333,*69
$GPGSA,A,1,,,,,,,,,,,,,,,*1E
$GPVTG,,T,,M,,N,,K,N*2C
$GPRMC,,V,,,,,,,,,,N*53
$GPGGA,,,,,,0,,,,,,,,*66
$GPGSV,3,1,09,07,63,322,28,08,28,115,24,23,41,126,24,27,24,070,22*7B
$GPGSV,3,2,09,30,38,281,23,05,11,316,,09,79,111,,16,14,039,*7C
$GPGSV,3,3,09,28,18,210,*40
$GLGSV,3,1,10,78,07,248,,66,54,191,,86,12,087,,77,52,286,*61
$GLGSV,3,2,10,76,48,021,,75,00,000,,65,04,164,,85,09,036,*6C
$GLGSV,3,3,10,67,54,306,,68,05,333,*69
$GPGSV,3,1,09,07,63,322,27,08,28,115,24,23,41,126,18,27,24,070,21*78
$GPGSV,3,2,09,28,18,210,21,30,38,281,23,05,11,316,,09,79,111,*77
$GPGSV,3,3,09,16,14,039,*48
$GLGSV,3,1,10,78,07,248,,66,54,191,,86,12,087,,77,52,286,*61
$GLGSV,3,2,10,76,48,021,,75,00,000,,65,04,164,,85,09,036,*6C
$GLGSV,3,3,10,67,54,306,,68,05,333,*69
$GPGSV,3,1,09,07,63,322,28,08,28,115,27,09,79,111,19,23,41,126,19*7C
$GPGSV,3,2,09,27,24,070,20,28,18,210,20,30,38,281,26,05,11,316,*73
$GPGSV,3,3,09,16,14,039,*48
$GLGSV,3,1,10,78,07,248,,66,54,191,,86,12,087,,77,52,286,*61
$GLGSV,3,2,10,76,48,021,,75,00,000,,65,04,164,,85,09,036,*6C
$GLGSV,3,3,10,67,54,306,,68,05,333,*69
$GPGSA,A,1,,,,,,,,,,,,,,,*1E
$GPVTG,,T,,M,,N,,K,N*2C
$GPRMC,,V,,,,,,,,,,N*53
$GPGGA,,,,,,0,,,,,,,,*66
$GPGSV,3,1,09,07,63,322,28,08,28,115,27,09,79,111,19,23,41,126,19*7C
$GPGSV,3,2,09,27,24,070,20,28,18,210,20,30,38,281,26,05,11,316,*73
$GPGSV,3,3,09,16,14,039,*48
$GLGSV,3,1,10,78,07,248,,66,54,191,,86,12,087,,77,52,286,*61
$GLGSV,3,2,10,76,48,021,,75,00,000,,65,04,164,,85,09,036,*6C
$GLGSV,3,3,10,67,54,306,,68,05,333,*69
$GPGSA,A,1,,,,,,,,,,,,,,,*1E
$GPVTG,,T,,M,,N,,K,N*2C
$GPRMC,,V,,,,,,,,,,N*53
$GPGGA,,,,,,0,,,,,,,,*66
$GPGSV,3,1,09,07,63,322,26,08,28,115,24,09,79,112,18,23,41,126,19*73
$GPGSV,3,2,09,27,24,070,19,28,18,210,20,30,38,281,24,05,11,316,*7B
$GPGSV,3,3,09,16,14,039,*48
$GLGSV,3,1,10,78,07,248,,66,54,191,,86,12,087,,77,52,286,*61
$GLGSV,3,2,10,76,48,021,,75,00,000,,65,04,164,,85,09,036,*6C
$GLGSV,3,3,10,67,54,306,,68,05,333,*69
$GPGSA,A,1,,,,,,,,,,,,,,,*1E
$GPVTG,,T,,M,,N,,K,N*2C
$GPRMC,,V,,,,,,,,,,N*53
$GPGGA,,,,,,0,,,,,,,,*66
$GPGSV,3,1,09,07,63,322,27,08,28,115,23,09,79,112,18,23,41,126,19*75
$GPGSV,3,2,09,27,24,070,19,28,18,210,20,30,38,281,24,05,11,316,*7B
$GPGSV,3,3,09,16,14,039,*48
$GLGSV,3,1,10,78,07,248,,66,54,191,,86,12,087,,77,52,286,*61
$GLGSV,3,2,10,76,48,021,,75,00,000,,65,04,164,,85,09,036,*6C
$GLGSV,3,3,10,67,54,306,,68,05,333,*69
$GPGSA,A,1,,,,,,,,,,,,,,,*1E
$GPVTG,,T,,M,,N,,K,N*2C
$GPRMC,,V,,,,,,,,,,N*53
$GPGGA,,,,,,0,,,,,,,,*66
$GPGSV,3,1,09,07,63,322,29,08,28,115,24,09,79,112,18,23,41,126,15*70
$GPGSV,3,2,09,27,24,070,18,28,18,210,20,30,38,281,26,05,11,316,*78
$GPGSV,3,3,09,16,14,039,*48
$GLGSV,3,1,10,78,07,248,,66,54,191,,86,12,087,,77,52,286,*61
$GLGSV,3,2,10,76,48,021,,75,00,000,,65,04,164,,85,09,036,*6C
$GLGSV,3,3,10,67,54,306,,68,05,333,*69
$GPGSA,A,1,,,,,,,,,,,,,,,*1E
$GPVTG,,T,,M,,N,,K,N*2C
$GPRMC,,V,,,,,,,,,,N*53
$GPGGA,,,,,,0,,,,,,,,*66
$GPGSV,3,1,09,07,63,322,28,08,28,115,20,09,79,112,18,16,14,039,15*7C
$GPGSV,3,2,09,23,41,126,18,27,24,070,17,28,18,210,16,30,38,281,24*79
$GPGSV,3,3,09,05,11,316,*41
$GLGSV,3,1,10,78,07,248,,66,54,191,,86,12,087,,77,52,286,*61
$GLGSV,3,2,10,76,48,021,,75,00,000,,65,04,164,,85,09,036,*6C
$GLGSV,3,3,10,67,54,306,,68,05,333,*69
$GPGSV,3,1,09,07,63,322,28,08,28,115,20,09,79,112,18,16,14,039,15*7C
$GPGSV,3,2,09,23,41,126,18,27,24,070,17,28,18,210,16,30,38,281,24*79
$GPGSV,3,3,09,05,11,316,*41
$GLGSV,3,1,10,78,07,248,,66,54,191,,86,12,087,,77,52,286,*61
$GLGSV,3,2,10,76,48,021,,75,00,000,,65,04,164,,85,09,036,*6C
$GLGSV,3,3,10,67,54,306,,68,05,333,*69
$GPGSA,A,3,07,08,09,16,23,27,28,30,,,,,1.3,1.0,0.8*35
$GPVTG,202.5,T,202.5,M,1.9,N,3.6,K,A*2E
$GPRMC,053115,A,3721.184156,N,12156.191567,W,1.9,202.5,111116,0.0,E,A*04
$GPGGA,053115,3721.184156,N,12156.191567,W,1,08,1.0,-33.0,M,-27.0,M,,*6B
$GPGSV,3,1,09,07,63,322,29,08,28,115,20,09,79,112,18,16,14,039,14*7C
$GPGSV,3,2,09,23,41,126,24,27,24,070,17,28,18,210,17,30,38,281,24*77
$GPGSV,3,3,09,05,11,316,*41
$GLGSV,3,1,10,78,07,248,,66,54,191,,86,12,087,,77,52,286,*61
$GLGSV,3,2,10,76,48,021,,75,00,000,,65,04,164,,85,09,036,*6C
$GLGSV,3,3,10,67,54,306,,68,05,333,*69
$GPGSV,3,1,09,07,63,322,29,08,28,115,20,09,79,112,18,16,14,039,14*7C
$GPGSV,3,2,09,23,41,126,24,27,24,070,17,28,18,210,17,30,38,281,24*77
$GPGSV,3,3,09,05,11,316,*41
$GLGSV,3,1,10,78,07,248,,66,54,191,,86,12,087,,77,52,286,*61
$GLGSV,3,2,10,76,48,021,,75,00,000,,65,04,164,,85,09,036,*6C
$GLGSV,3,3,10,67,54,306,,68,05,333,*69
$GPGSA,A,3,07,08,09,16,23,27,28,30,,,,,1.3,1.0,0.8*35
$GPVTG,196.0,T,196.0,M,2.9,N,5.4,K,A*29
$GPRMC,053116,A,3721.167143,N,12156.196104,W,2.9,196.0,111116,0.0,E,A*00
$GPGGA,053116,3721.167143,N,12156.196104,W,1,08,1.0,-6.0,M,-27.0,M,,*51
$GPGSV,3,1,09,05,11,316,15,07,63,322,25,08,28,115,18,09,79,112,18*73
$GPGSV,3,2,09,16,14,039,14,23,41,126,22,27,24,070,17,28,18,210,16*78
$GPGSV,3,3,09,30,38,281,25*44
$GLGSV,3,1,10,78,07,248,,66,54,191,,86,12,087,,77,52,286,*61
$GLGSV,3,2,10,76,48,021,,75,00,000,,65,04,164,,85,09,036,*6C
$GLGSV,3,3,10,67,54,306,,68,05,333,*69
$GPGSV,3,1,09,05,11,316,15,07,63,322,25,08,28,115,18,09,79,112,18*73
$GPGSV,3,2,09,16,14,039,14,23,41,126,22,27,24,070,17,28,18,210,16*78
$GPGSV,3,3,09,30,38,281,25*44
$GLGSV,3,1,10,78,07,248,,66,54,191,,86,12,087,,77,52,286,*61
$GLGSV,3,2,10,76,48,021,,75,00,000,,65,04,164,,85,09,036,*6C
$GLGSV,3,3,10,67,54,306,,68,05,333,*69
$GPGSA,A,3,05,07,08,09,16,23,27,28,30,,,,1.2,0.9,0.8*39
$GPVTG,220.4,T,220.4,M,4.9,N,9.0,K,A*27
$GPRMC,053117,A,3721.165775,N,12156.197746,W,4.9,220.4,111116,0.0,E,A*0D
$GPGGA,053117,3721.165775,N,12156.197746,W,1,09,0.9,-3.0,M,-27.0,M,,*5C
$GPGSV,3,1,09,05,11,316,15,07,63,322,19,08,28,115,19,09,79,112,18*7D
$GPGSV,3,2,09,16,14,039,14,23,41,126,17,27,24,070,17,28,18,210,16*7E
$GPGSV,3,3,09,30,38,281,21*40
$GLGSV,3,1,10,67,54,306,15,78,07,248,,66,54,191,,86,12,087,*6B
$GLGSV,3,2,10,77,52,286,,76,48,021,,75,00,000,,65,04,164,*66
$GLGSV,3,3,10,85,09,036,,68,05,333,*6D
$GPGSV,3,1,09,05,11,316,15,07,63,322,19,08,28,115,19,09,79,112,18*7D
$GPGSV,3,2,09,16,14,039,14,23,41,126,17,27,24,070,17,28,18,210,16*7E
$GPGSV,3,3,09,30,38,281,21*40
$GLGSV,3,1,10,67,54,306,15,78,07,248,,66,54,191,,86,12,087,*6B
$GLGSV,3,2,10,77,52,286,,76,48,021,,75,00,000,,65,04,164,*66
$GLGSV,3,3,10,85,09,036,,68,05,333,*6D
$GPGSA,A,3,05,07,08,09,16,23,27,28,30,,,,1.2,0.9,0.8*39
$GPVTG,236.1,T,236.1,M,5.3,N,9.9,K,A*25
$GPRMC,053118,A,3721.164045,N,12156.199607,W,5.3,236.1,111116,0.0,E,A*04
$GPGGA,053118,3721.164045,N,12156.199607,W,1,09,0.9,0.0,M,-27.0,M,,*72
$GPGSV,3,1,09,05,11,316,14,07,63,322,21,08,28,115,23,09,79,112,18*7E
$GPGSV,3,2,09,16,14,039,14,23,41,126,18,27,24,070,17,28,18,210,16*71
$GPGSV,3,3,09,30,38,281,21*40
$GLGSV,3,1,10,67,54,306,15,78,07,248,,66,54,191,,86,12,087,*6B
$GLGSV,3,2,10,77,52,286,,76,48,021,,75,00,000,,65,04,164,*66
$GLGSV,3,3,10,85,09,036,,68,05,333,*6D
$GPGSV,3,1,09,05,11,316,14,07,63,322,21,08,28,115,23,09,79,112,18*7E
$GPGSV,3,2,09,16,14,039,14,23,41,126,18,27,24,070,17,28,18,210,16*71
$GPGSV,3,3,09,30,38,281,21*40
$GLGSV,3,1,10,67,54,306,15,78,07,248,,66,54,191,,86,12,087,*6B
$GLGSV,3,2,10,77,52,286,,76,48,021,,75,00,000,,65,04,164,*66
$GLGSV,3,3,10,85,09,036,,68,05,333,*6D
$GPGSA,A,3,05,07,08,09,16,23,27,28,30,,,,1.1,0.8,0.8*3B
$GPVTG,231.4,T,231.4,M,6.3,N,11.7,K,A*11
$GPRMC,053119,A,3721.161222,N,12156.201811,W,6.3,231.4,111116,0.0,E,A*09
$GPGGA,053119,3721.161222,N,12156.201811,W,1,09,0.8,3.0,M,-27.0,M,,*7C
$GPGSV,3,1,09,05,11,316,14,07,63,322,18,08,28,115,24,09,79,112,18*73
$GPGSV,3,2,09,16,14,039,13,23,41,126,22,27,24,070,17,28,18,210,15*7C
$GPGSV,3,3,09,30,38,281,20*41
$GLGSV,3,1,10,78,07,248,14,86,12,087,13,76,48,021,12,65,04,164,12*6F
$GLGSV,3,2,10,67,54,306,15,66,54,191,,77,52,286,,75,00,000,*65
$GLGSV,3,3,10,85,09,036,,68,05,333,*6D
$GPGSV,3,1,09,05,11,316,14,07,63,322,18,08,28,115,24,09,79,112,18*73
$GPGSV,3,2,09,16,14,039,13,23,41,126,22,27,24,070,17,28,18,210,15*7C
$GPGSV,3,3,09,30,38,281,20*41
$GLGSV,3,1,10,78,07,248,14,86,12,087,13,76,48,021,12,65,04,164,12*6F
$GLGSV,3,2,10,67,54,306,15,66,54,191,,77,52,286,,75,00,000,*65
$GLGSV,3,3,10,85,09,036,,68,05,333,*6D
$GPGSA,A,3,05,07,08,09,16,23,27,28,30,,,,1.1,0.8,0.8*3B
$GPVTG,232.1,T,232.1,M,6.3,N,11.7,K,A*11
$GPRMC,053120,A,3721.164344,N,12156.200885,W,6.3,232.1,111116,0.0,E,A*0D
$GPGGA,053120,3721.164344,N,12156.200885,W,1,09,0.8,-9.0,M,-27.0,M,,*59
$GPGSV,3,1,09,05,11,316,15,07,63,322,18,08,28,115,24,09,79,112,17*7D
$GPGSV,3,2,09,16,14,039,13,23,41,126,20,27,24,070,17,28,18,210,15*7E
$GPGSV,3,3,09,30,38,281,26*47
$GLGSV,3,1,10,78,07,248,14,86,12,087,15,76,48,021,12,65,04,164,12*69
$GLGSV,3,2,10,85,09,036,13,67,54,306,15,66,54,191,,77,52,286,*64
$GLGSV,3,3,10,75,00,000,,68,05,333,*6E
$GPGSV,3,1,09,05,11,316,15,07,63,322,18,08,28,115,24,09,79,112,17*7D
$GPGSV,3,2,09,16,14,039,13,23,41,126,20,27,24,070,17,28,18,210,15*7E
$GPGSV,3,3,09,30,38,281,26*47
$GLGSV,3,1,10,78,07,248,14,86,12,087,15,76,48,021,12,65,04,164,12*69
$GLGSV,3,2,10,85,09,036,13,67,54,306,15,66,54,191,,77,52,286,*64
$GLGSV,3,3,10,75,00,000,,68,05,333,*6E
$GPGSA,A,3,05,07,08,09,16,23,27,28,30,,,,1.1,0.8,0.8*3B
$GPVTG,232.0,T,232.0,M,6.8,N,12.6,K,A*18
$GPRMC,053121,A,3721.157967,N,12156.206494,W,6.8,232.0,111116,0.0,E,A*07
$GPGGA,053121,3721.157967,N,12156.206494,W,1,09,0.8,-2.0,M,-27.0,M,,*52
$GPGSV,3,1,09,05,11,316,15,07,63,322,17,08,28,115,20,09,79,112,17*76
$GPGSV,3,2,09,16,14,039,13,23,41,126,20,27,24,070,18,28,18,210,15*71
$GPGSV,3,3,09,30,38,281,21*40
$GLGSV,3,1,10,78,07,248,14,86,12,087,15,76,48,021,12,65,04,164,12*69
$GLGSV,3,2,10,85,09,036,13,67,54,306,15,66,54,191,,77,52,286,*64
$GLGSV,3,3,10,75,00,000,,68,05,333,*6E
$GPGSV,3,1,09,05,11,316,15,07,63,322,17,08,28,115,20,09,79,112,17*76
$GPGSV,3,2,09,16,14,039,13,23,41,126,20,27,24,070,18,28,18,210,15*71
$GPGSV,3,3,09,30,38,281,21*40
$GLGSV,3,1,10,78,07,248,14,86,12,087,15,76,48,021,12,65,04,164,12*69
$GLGSV,3,2,10,85,09,036,13,67,54,306,15,66,54,191,,77,52,286,*64
$GLGSV,3,3,10,75,00,000,,68,05,333,*6E
$GPGSA,A,3,05,07,08,09,16,23,27,28,30,,,,1.0,0.7,0.7*3A
$GPVTG,229.8,T,229.8,M,8.3,N,15.3,K,A*1F
$GPRMC,053122,A,3721.151732,N,12156.210959,W,8.3,229.8,111116,0.0,E,A*00
$GPGGA,053122,3721.151732,N,12156.210959,W,1,09,0.7,6.0,M,-27.0,M,,*74
$GPGSV,3,1,09,05,11,316,17,07,63,322,19,08,28,115,20,09,79,112,17*7A
$GPGSV,3,2,09,16,14,039,13,23,41,126,17,27,24,070,18,28,18,210,16*76
$GPGSV,3,3,09,30,38,281,20*41
$GLGSV,3,1,10,78,07,248,14,66,54,191,19,86,12,087,15,77,52,286,13*6A
$GLGSV,3,2,10,76,48,021,12,65,04,164,12,85,09,036,13,67,54,306,15*6D
$GLGSV,3,3,10,68,05,333,12,75,00,000,*6D
$GPGSV,3,1,09,05,11,316,17,07,63,322,19,08,28,115,20,09,79,112,17*7A
$GPGSV,3,2,09,16,14,039,13,23,41,126,17,27,24,070,18,28,18,210,16*76
$GPGSV,3,3,09,30,38,281,20*41
$GLGSV,3,1,10,78,07,248,14,66,54,191,19,86,12,087,15,77,52,286,13*6A
$GLGSV,3,2,10,76,48,021,12,65,04,164,12,85,09,036,13,67,54,306,15*6D
$GLGSV,3,3,10,68,05,333,12,75,00,000,*6D
$GPGSA,A,3,05,07,08,09,16,23,27,28,30,,,,1.0,0.7,0.7*3A
$GPVTG,227.1,T,227.1,M,8.3,N,15.3,K,A*1F
$GPRMC,053123,A,3721.148678,N,12156.213504,W,8.3,227.1,111116,0.0,E,A*06
$GPGGA,053123,3721.148678,N,12156.213504,W,1,09,0.7,13.0,M,-27.0,M,,*41
$GPGSV,3,1,09,05,11,316,17,07,63,322,21,08,28,115,19,09,79,112,16*7A
$GPGSV,3,2,09,16,14,039,12,23,41,126,21,27,24,070,16,28,18,210,16*7C
$GPGSV,3,3,09,30,38,281,18*4A
$GLGSV,3,1,10,78,07,248,14,66,54,191,18,86,12,087,14,77,52,286,13*6A
$GLGSV,3,2,10,76,48,021,12,65,04,164,12,85,09,036,13,67,54,306,16*6E
$GLGSV,3,3,10,68,05,333,13,75,00,000,*6C
$GPGSV,3,1,09,05,11,316,17,07,63,322,21,08,28,115,19,09,79,112,16*7A
$GPGSV,3,2,09,16,14,039,12,23,41,126,21,27,24,070,16,28,18,210,16*7C
$GPGSV,3,3,09,30,38,281,18*4A
$GLGSV,3,1,10,78,07,248,14,66,54,191,18,86,12,087,14,77,52,286,13*6A
$GLGSV,3,2,10,76,48,021,12,65,04,164,12,85,09,036,13,67,54,306,16*6E
$GLGSV,3,3,10,68,05,333,13,75,00,000,*6C
$GPGSA,A,3,05,07,08,09,16,23,27,28,30,,,,1.0,0.7,0.7*3A
$GPVTG,231.5,T,231.5,M,8.7,N,16.2,K,A*19
$GPRMC,053124,A,3721.147212,N,12156.215902,W,8.7,231.5,111116,0.0,E,A*0D
$GPGGA,053124,3721.147212,N,12156.215902,W,1,09,0.7,9.0,M,-27.0,M,,*76
$GPGSV,3,1,09,05,11,316,16,07,63,322,21,08,28,115,18,09,79,112,19*75
$GPGSV,3,2,09,16,14,039,12,23,41,126,20,27,24,070,18,28,18,210,17*72
$GPGSV,3,3,09,30,38,281,22*43
$GLGSV,3,1,10,78,07,248,14,66,54,191,17,86,12,087,14,77,52,286,13*65
$GLGSV,3,2,10,76,48,021,12,65,04,164,12,85,09,036,13,67,54,306,18*60
$GLGSV,3,3,10,68,05,333,12,75,00,000,*6D
$GPGSV,3,1,09,05,11,316,16,07,63,322,21,08,28,115,18,09,79,112,19*75
$GPGSV,3,2,09,16,14,039,12,23,41,126,20,27,24,070,18,28,18,210,17*72
$GPGSV,3,3,09,30,38,281,22*43
$GLGSV,3,1,10,78,07,248,14,66,54,191,17,86,12,087,14,77,52,286,13*65
$GLGSV,3,2,10,76,48,021,12,65,04,164,12,85,09,036,13,67,54,306,18*60
$GLGSV,3,3,10,68,05,333,12,75,00,000,*6D
$GPGSA,A,3,05,07,08,09,16,23,27,28,30,,,,1.0,0.7,0.7*3A
$GPVTG,228.8,T,228.8,M,9.2,N,17.1,K,A*1F
$GPRMC,053125,A,3721.145468,N,12156.218285,W,9.2,228.8,111116,0.0,E,A*0D
$GPGGA,053125,3721.145468,N,12156.218285,W,1,09,0.7,9.0,M,-27.0,M,,*77
$GPGSV,3,1,09,05,11,316,16,07,63,322,17,08,28,115,17,09,79,112,20*75
$GPGSV,3,2,09,16,14,039,12,23,41,126,17,27,24,070,18,28,18,210,17*76
$GPGSV,3,3,09,30,38,281,17*45
$GLGSV,3,1,10,78,07,248,14,66,54,191,16,86,12,087,14,77,52,286,12*65
$GLGSV,3,2,10,76,48,021,12,65,04,164,12,85,09,036,13,67,54,306,19*61
$GLGSV,3,3,10,68,05,333,12,75,00,000,*6D
$GPGSV,3,1,09,05,11,316,16,07,63,322,17,08,28,115,17,09,79,112,20*75
$GPGSV,3,2,09,16,14,039,12,23,41,126,17,27,24,070,18,28,18,210,17*76
$GPGSV,3,3,09,30,38,281,17*45
$GLGSV,3,1,10,78,07,248,14,66,54,191,16,86,12,087,14,77,52,286,12*65
$GLGSV,3,2,10,76,48,021,12,65,04,164,12,85,09,036,13,67,54,306,19*61
$GLGSV,3,3,10,68,05,333,12,75,00,000,*6D
$GPGSA,A,3,05,07,08,09,16,23,27,28,30,,,,1.0,0.7,0.7*3A
$GPVTG,228.6,T,228.6,M,10.2,N,18.9,K,A*20
$GPRMC,053126,A,3721.143551,N,12156.220753,W,10.2,228.6,111116,0.0,E,A*30
$GPGGA,053126,3721.143551,N,12156.220753,W,1,09,0.7,8.0,M,-27.0,M,,*7D
$GPGSV,3,1,09,05,11,316,16,07,63,322,21,08,28,115,17,09,79,112,20*70
$GPGSV,3,2,09,16,14,039,12,23,41,126,18,27,24,070,18,28,18,210,16*78
$GPGSV,3,3,09,30,38,281,19*4B
$GLGSV,3,1,10,78,07,248,14,66,54,191,16,86,12,087,14,77,52,286,12*65
$GLGSV,3,2,10,76,48,021,12,65,04,164,12,85,09,036,13,67,54,306,19*61
$GLGSV,3,3,10,68,05,333,12,75,00,000,*6D
$GPGSV,3,1,09,05,11,316,16,07,63,322,21,08,28,115,17,09,79,112,20*70
$GPGSV,3,2,09,16,14,039,12,23,41,126,18,27,24,070,18,28,18,210,16*78
$GPGSV,3,3,09,30,38,281,19*4B
$GLGSV,3,1,10,78,07,248,14,66,54,191,16,86,12,087,14,77,52,286,12*65
$GLGSV,3,2,10,76,48,021,12,65,04,164,12,85,09,036,13,67,54,306,19*61
$GLGSV,3,3,10,68,05,333,12,75,00,000,*6D
$GPGSA,A,3,05,07,08,09,16,23,27,28,30,,,,1.0,0.7,0.7*3A
$GPVTG,233.6,T,233.6,M,11.2,N,20.7,K,A*24
$GPRMC,053127,A,3721.140009,N,12156.224070,W,11.2,233.6,111116,0.0,E,A*33
$GPGGA,053127,3721.140009,N,12156.224070,W,1,09,0.7,10.0,M,-27.0,M,,*4C
$GPGSV,3,1,09,05,11,316,17,07,63,322,19,08,28,115,23,09,79,112,20*7D
$GPGSV,3,2,09,16,14,039,12,23,41,126,19,27,24,070,15,28,18,210,16*74
$GPGSV,3,3,09,30,38,281,19*4B
$GLGSV,3,1,10,78,07,248,13,66,54,191,16,86,12,087,14,77,52,286,12*62
$GLGSV,3,2,10,76,48,021,12,65,04,164,12,85,09,036,13,67,54,306,19*61
$GLGSV,3,3,10,68,05,333,12,75,00,000,*6D
$GPGSV,3,1,09,05,11,316,17,07,63,322,19,08,28,115,23,09,79,112,20*7D
$GPGSV,3,2,09,16,14,039,12,23,41,126,19,27,24,070,15,28,18,210,16*74
$GPGSV,3,3,09,30,38,281,19*4B
$GLGSV,3,1,10,78,07,248,13,66,54,191,16,86,12,087,14,77,52,286,12*62
$GLGSV,3,2,10,76,48,021,12,65,04,164,12,85,09,036,13,67,54,306,19*61
$GLGSV,3,3,10,68,05,333,12,75,00,000,*6D
$GPGSA,A,3,05,07,08,09,16,23,27,28,30,,,,1.0,0.7,0.7*3A
$GPVTG,224.9,T,224.9,M,10.2,N,18.9,K,A*20
$GPRMC,053128,A,3721.138605,N,12156.226263,W,10.2,224.9,111116,0.0,E,A*33
$GPGGA,053128,3721.138605,N,12156.226263,W,1,09,0.7,13.0,M,-27.0,M,,*47
$GPGSV,3,1,09,05,11,316,17,07,63,322,21,08,28,115,21,09,79,112,15*72
$GPGSV,3,2,09,16,14,039,12,23,41,126,18,27,24,070,15,28,18,210,16*75
$GPGSV,3,3,09,30,38,281,17*45
$GLGSV,3,1,10,78,07,248,13,66,54,191,16,86,12,087,14,77,52,286,12*62
$GLGSV,3,2,10,76,48,021,12,65,04,164,12,85,09,036,13,67,54,306,18*60
$GLGSV,3,3,10,68,05,333,12,75,00,000,*6D
$GPGSV,3,1,09,05,11,316,17,07,63,322,21,08,28,115,21,09,79,112,15*72
$GPGSV,3,2,09,16,14,039,12,23,41,126,18,27,24,070,15,28,18,210,16*75
$GPGSV,3,3,09,30,38,281,17*45
$GLGSV,3,1,10,78,07,248,13,66,54,191,16,86,12,087,14,77,52,286,12*62
$GLGSV,3,2,10,76,48,021,12,65,04,164,12,85,09,036,13,67,54,306,18*60
$GLGSV,3,3,10,68,05,333,12,75,00,000,*6D
$GPGSA,A,3,05,07,08,09,16,23,27,28,30,,,,1.0,0.7,0.7*3A
$GPVTG,209.5,T,209.5,M,13.1,N,24.3,K,A*25
$GPRMC,053129,A,3721.135255,N,12156.228404,W,13.1,209.5,111116,0.0,E,A*34
$GPGGA,053129,3721.135255,N,12156.228404,W,1,09,0.7,10.0,M,-27.0,M,,*40
$GPGSV,3,1,09,05,11,316,22,07,63,322,23,08,28,115,27,09,79,112,20*76
$GPGSV,3,2,09,16,14,039,12,23,41,126,20,27,24,070,19,28,18,210,16*72
$GPGSV,3,3,09,30,38,281,25*44
$GLGSV,3,1,10,78,07,248,12,66,54,191,16,86,12,087,14,77,52,286,12*63
$GLGSV,3,2,10,76,48,021,12,65,04,164,12,85,09,036,13,67,54,306,16*6E
$GLGSV,3,3,10,68,05,333,12,75,00,000,*6D
$GPGSV,3,1,09,05,11,316,22,07,63,322,23,08,28,115,27,09,79,112,20*76
$GPGSV,3,2,09,16,14,039,12,23,41,126,20,27,24,070,19,28,18,210,16*72
$GPGSV,3,3,09,30,38,281,25*44
$GLGSV,3,1,10,78,07,248,12,66,54,191,16,86,12,087,14,77,52,286,12*63
$GLGSV,3,2,10,76,48,021,12,65,04,164,12,85,09,036,13,67,54,306,16*6E
$GLGSV,3,3,10,68,05,333,12,75,00,000,*6D
$GPGSA,A,3,05,07,08,09,16,23,27,28,30,,,,1.0,0.7,0.7*3A
$GPVTG,201.9,T,201.9,M,14.1,N,26.1,K,A*22
$GPRMC,053130,A,3721.126332,N,12156.232912,W,14.1,201.9,111116,0.0,E,A*3C
$GPGGA,053130,3721.126332,N,12156.232912,W,1,09,0.7,18.0,M,-27.0,M,,*43
$GPGSV,3,1,09,05,11,316,22,07,63,322,22,08,28,115,26,09,79,112,20*76
$GPGSV,3,2,09,16,14,039,12,23,41,126,21,27,24,070,24,28,18,210,20*78
$GPGSV,3,3,09,30,38,281,27*46
$GLGSV,3,1,10,78,07,248,12,66,54,191,16,86,12,087,13,77,52,286,12*64
$GLGSV,3,2,10,76,48,021,12,65,04,164,12,85,09,036,13,67,54,306,25*6E
$GLGSV,3,3,10,68,05,333,12,75,00,000,*6D
$GPGSV,3,1,09,05,11,316,22,07,63,322,22,08,28,115,26,09,79,112,20*76
$GPGSV,3,2,09,16,14,039,12,23,41,126,21,27,24,070,24,28,18,210,20*78
$GPGSV,3,3,09,30,38,281,27*46
$GLGSV,3,1,10,78,07,248,12,66,54,191,16,86,12,087,13,77,52,286,12*64
$GLGSV,3,2,10,76,48,021,12,65,04,164,12,85,09,036,13,67,54,306,25*6E
$GLGSV,3,3,10,68,05,333,12,75,00,000,*6D
$GPGSA,A,3,05,07,08,09,16,23,27,28,30,,,,1.0,0.7,0.7*3A
$GPVTG,187.4,T,187.4,M,13.1,N,24.3,K,A*25
$GPRMC,053131,A,3721.124540,N,12156.232242,W,13.1,187.4,111116,0.0,E,A*35
$GPGGA,053131,3721.124540,N,12156.232242,W,1,09,0.7,17.0,M,-27.0,M,,*42
$GPGSV,3,1,09,05,11,316,22,07,63,322,22,08,28,115,21,09,79,112,20*71
$GPGSV,3,2,09,16,14,039,14,23,41,126,17,27,24,070,25,28,18,210,20*7A
$GPGSV,3,3,09,30,38,281,25*44
$GLGSV,3,1,10,78,07,248,12,66,54,191,16,86,12,087,19,77,52,286,12*6E
$GLGSV,3,2,10,76,48,021,12,65,04,164,12,85,09,036,13,67,54,306,24*6F
$GLGSV,3,3,10,68,05,333,12,75,00,000,*6D
$GPGSV,3,1,09,05,11,316,22,07,63,322,22,08,28,115,21,09,79,112,20*71
$GPGSV,3,2,09,16,14,039,14,23,41,126,17,27,24,070,25,28,18,210,20*7A
$GPGSV,3,3,09,30,38,281,25*44
$GLGSV,3,1,10,78,07,248,12,66,54,191,16,86,12,087,19,77,52,286,12*6E
$GLGSV,3,2,10,76,48,021,12,65,04,164,12,85,09,036,13,67,54,306,24*6F
$GLGSV,3,3,10,68,05,333,12,75,00,000,*6D
$GPGSA,A,3,05,07,08,09,16,23,27,28,30,,,,1.0,0.7,0.7*3A
$GPVTG,175.4,T,175.4,M,13.6,N,25.2,K,A*22
$GPRMC,053132,A,3721.119359,N,12156.231643,W,13.6,175.4,111116,0.0,E,A*3A
$GPGGA,053132,3721.119359,N,12156.231643,W,1,09,0.7,19.0,M,-27.0,M,,*49
$GPGSV,3,1,09,05,11,316,18,07,63,322,17,08,28,115,21,09,79,112,16*7B
$GPGSV,3,2,09,16,14,039,19,23,41,126,20,27,24,070,26,28,18,210,21*71
$GPGSV,3,3,09,30,38,281,27*46
$GLGSV,3,1,10,78,07,248,12,66,54,191,15,86,12,087,19,77,52,286,12*6D
$GLGSV,3,2,10,76,48,021,12,65,04,164,12,85,09,036,13,67,54,306,24*6F
$GLGSV,3,3,10,68,05,333,12,75,00,000,*6D
$GPGSV,3,1,09,05,11,316,18,07,63,322,17,08,28,115,21,09,79,112,16*7B
$GPGSV,3,2,09,16,14,039,19,23,41,126,20,27,24,070,26,28,18,210,21*71
$GPGSV,3,3,09,30,38,281,27*46
$GLGSV,3,1,10,78,07,248,12,66,54,191,15,86,12,087,19,77,52,286,12*6D
$GLGSV,3,2,10,76,48,021,12,65,04,164,12,85,09,036,13,67,54,306,24*6F
$GLGSV,3,3,10,68,05,333,12,75,00,000,*6D
$GPGSA,A,3,05,07,08,09,16,23,27,28,30,,,,1.0,0.7,0.7*3A
$GPVTG,151.3,T,151.3,M,15.6,N,28.8,K,A*23
$GPRMC,053133,A,3721.116415,N,12156.226623,W,15.6,151.3,111116,0.0,E,A*3C
$GPGGA,053133,3721.116415,N,12156.226623,W,1,09,0.7,19.0,M,-27.0,M,,*48
$GPGSV,3,1,09,05,11,316,18,07,63,322,17,08,28,115,21,09,79,112,20*7E
$GPGSV,3,2,09,16,14,039,22,23,41,126,19,27,24,070,25,28,18,210,19*7B
$GPGSV,3,3,09,30,38,281,26*47
$GLGSV,3,1,10,78,07,248,10,66,54,191,15,86,12,087,19,77,52,286,12*6F
$GLGSV,3,2,10,76,48,021,12,65,04,164,12,85,09,036,13,67,54,306,16*6E
$GLGSV,3,3,10,68,05,333,12,75,00,000,*6D
$GPGSV,3,1,09,05,11,316,18,07,63,322,17,08,28,115,21,09,79,112,20*7E
$GPGSV,3,2,09,16,14,039,22,23,41,126,19,27,24,070,25,28,18,210,19*7B
$GPGSV,3,3,09,30,38,281,26*47
$GLGSV,3,1,10,78,07,248,10,66,54,191,15,86,12,087,19,77,52,286,12*6F
$GLGSV,3,2,10,76,48,021,12,65,04,164,12,85,09,036,13,67,54,306,16*6E
$GLGSV,3,3,10,68,05,333,12,75,00,000,*6D
$GPGSA,A,3,05,07,08,09,16,23,27,28,30,,,,0.9,0.7,0.7*32
$GPVTG,148.6,T,148.6,M,16.0,N,29.7,K,A*28
$GPRMC,053134,A,3721.110970,N,12156.224145,W,16.0,148.6,111116,0.0,E,A*3E
$GPGGA,053134,3721.110970,N,12156.224145,W,1,09,0.7,20.0,M,-27.0,M,,*48
$GPGSV,3,1,09,05,11,316,18,07,63,322,17,08,28,115,21,09,79,112,20*7E
$GPGSV,3,2,09,16,14,039,22,23,41,126,17,27,24,070,19,28,18,210,19*7A
$GPGSV,3,3,09,30,38,281,21*40
$GLGSV,3,1,10,78,07,248,10,66,54,191,15,86,12,087,23,77,52,288,12*68
$GLGSV,3,2,10,76,48,021,12,65,04,164,12,85,09,036,16,67,54,306,16*6B
$GLGSV,3,3,10,68,05,333,12,75,00,000,*6D
$GPGSV,3,1,09,05,11,316,18,07,63,322,17,08,28,115,21,09,79,112,20*7E
$GPGSV,3,2,09,16,14,039,22,23,41,126,17,27,24,070,19,28,18,210,19*7A
$GPGSV,3,3,09,30,38,281,21*40
$GLGSV,3,1,10,78,07,248,10,66,54,191,15,86,12,087,23,77,52,288,12*68
$GLGSV,3,2,10,76,48,021,12,65,04,164,12,85,09,036,16,67,54,306,16*6B
$GLGSV,3,3,10,68,05,333,12,75,00,000,*6D
$GPGSA,A,3,05,07,08,09,16,23,27,28,30,,,,0.9,0.7,0.7*32
$GPVTG,139.6,T,139.6,M,19.4,N,36.0,K,A*2A
$GPRMC,053135,A,3721.105571,N,12156.219372,W,19.4,139.6,111116,0.0,E,A*33
$GPGGA,053135,3721.105571,N,12156.219372,W,1,09,0.7,20.0,M,-27.0,M,,*48
$GPGSV,3,1,09,05,11,316,18,07,63,322,17,08,28,115,21,09,79,112,16*7B
$GPGSV,3,2,09,16,14,039,20,23,41,126,17,27,24,070,19,28,18,210,19*78
$GPGSV,3,3,09,30,38,281,20*41
$GLGSV,3,1,10,78,07,248,10,66,54,191,15,86,12,087,23,77,52,288,12*68
$GLGSV,3,2,10,76,48,021,12,65,04,164,12,85,09,036,19,67,54,306,16*64
$GLGSV,3,3,10,68,05,333,12,75,00,000,*6D
$GPGSV,3,1,09,05,11,316,18,07,63,322,17,08,28,115,21,09,79,112,16*7B
$GPGSV,3,2,09,16,14,039,20,23,41,126,17,27,24,070,19,28,18,210,19*78
$GPGSV,3,3,09,30,38,281,20*41
$GLGSV,3,1,10,78,07,248,10,66,54,191,15,86,12,087,23,77,52,288,12*68
$GLGSV,3,2,10,76,48,021,12,65,04,164,12,85,09,036,19,67,54,306,16*64
$GLGSV,3,3,10,68,05,333,12,75,00,000,*6D
$GPGSA,A,3,05,07,08,09,16,23,27,28,30,,,,0.9,0.7,0.7*32
$GPVTG,139.8,T,139.8,M,20.4,N,37.8,K,A*29
$GPRMC,053136,A,3721.101888,N,12156.214944,W,20.4,139.8,111116,0.0,E,A*39
$GPGGA,053136,3721.101888,N,12156.214944,W,1,09,0.7,18.0,M,-27.0,M,,*4D
$GPGSV,3,1,09,05,11,316,18,07,63,322,17,08,28,115,21,09,79,112,16*7B
$GPGSV,3,2,09,16,14,039,21,23,41,126,17,27,24,070,20,28,18,210,19*73
$GPGSV,3,3,09,30,38,281,18*4A
$GLGSV,3,1,10,78,07,248,10,66,54,191,15,86,12,087,23,77,52,288,12*68
$GLGSV,3,2,10,76,48,021,12,65,04,164,12,85,09,036,18,67,54,306,16*65
$GLGSV,3,3,10,68,05,333,12,75,00,000,*6D
$GPGSV,3,1,09,05,11,316,18,07,63,322,17,08,28,115,21,09,79,112,16*7B
$GPGSV,3,2,09,16,14,039,21,23,41,126,17,27,24,070,20,28,18,210,19*73
$GPGSV,3,3,09,30,38,281,18*4A
$GLGSV,3,1,10,78,07,248,10,66,54,191,15,86,12,087,23,77,52,288,12*68
$GLGSV,3,2,10,76,48,021,12,65,04,164,12,85,09,036,18,67,54,306,16*65
$GLGSV,3,3,10,68,05,333,12,75,00,000,*6D
$GPGSA,A,3,05,07,08,09,16,23,27,28,30,,,,0.9,0.7,0.7*32
$GPVTG,142.4,T,142.4,M,19.4,N,36.0,K,A*2A
$GPRMC,053137,A,3721.097190,N,12156.210641,W,19.4,142.4,111116,0.0,E,A*32
$GPGGA,053137,3721.097190,N,12156.210641,W,1,09,0.7,19.0,M,-27.0,M,,*4D
$GPGSV,3,1,09,05,11,316,18,07,63,322,17,08,28,115,13,09,79,112,16*7A
$GPGSV,3,2,09,16,14,039,21,23,41,126,17,27,24,070,20,28,18,210,19*73
$GPGSV,3,3,09,30,38,281,23*42
$GLGSV,3,1,10,78,07,248,10,66,54,191,15,86,12,087,21,77,52,288,12*6A
$GLGSV,3,2,10,76,48,021,12,65,04,164,12,85,09,036,17,67,54,306,14*68
$GLGSV,3,3,10,68,05,333,12,75,00,000,*6D
$GPGSV,3,1,09,05,11,316,18,07,63,322,17,08,28,115,13,09,79,112,16*7A
$GPGSV,3,2,09,16,14,039,21,23,41,126,17,27,24,070,20,28,18,210,19*73
$GPGSV,3,3,09,30,38,281,23*42
$GLGSV,3,1,10,78,07,248,10,66,54,191,15,86,12,087,21,77,52,288,12*6A
$GLGSV,3,2,10,76,48,021,12,65,04,164,12,85,09,036,17,67,54,306,14*68
$GLGSV,3,3,10,68,05,333,12,75,00,000,*6D
$GPGSA,A,3,05,07,08,09,16,23,27,28,30,,,,0.9,0.7,0.7*32
$GPVTG,131.8,T,131.8,M,23.3,N,43.2,K,A*24
$GPRMC,053138,A,3721.092782,N,12156.203834,W,23.3,131.8,111116,0.0,E,A*35
$GPGGA,053138,3721.092782,N,12156.203834,W,1,09,0.7,18.0,M,-27.0,M,,*4D
$GPGSV,3,1,09,05,11,316,18,07,63,322,17,08,28,115,13,09,79,112,16*7A
$GPGSV,3,2,09,16,14,039,21,23,41,126,16,27,24,070,22,28,18,210,19*70
$GPGSV,3,3,09,30,38,281,23*42
$GLGSV,3,1,10,78,07,248,10,66,54,191,14,86,12,087,26,77,52,288,12*6C
$GLGSV,3,2,10,76,48,021,12,65,04,164,12,85,09,036,17,67,54,306,16*6A
$GLGSV,3,3,10,68,05,333,14,75,00,000,*6B
$GPGSV,3,1,09,05,11,316,18,07,63,322,17,08,28,115,13,09,79,112,16*7A
$GPGSV,3,2,09,16,14,039,21,23,41,126,16,27,24,070,22,28,18,210,19*70
$GPGSV,3,3,09,30,38,281,23*42
$GLGSV,3,1,10,78,07,248,10,66,54,191,14,86,12,087,26,77,52,288,12*6C
$GLGSV,3,2,10,76,48,021,12,65,04,164,12,85,09,036,17,67,54,306,16*6A
$GLGSV,3,3,10,68,05,333,14,75,00,000,*6B
$GPGSA,A,3,05,07,08,09,16,23,27,28,30,,,,0.9,0.7,0.7*32
$GPVTG,134.7,T,134.7,M,24.8,N,45.9,K,A*25
$GPRMC,053139,A,3721.086474,N,12156.197720,W,24.8,134.7,111116,0.0,E,A*39
$GPGGA,053139,3721.086474,N,12156.197720,W,1,09,0.7,20.0,M,-27.0,M,,*4C
$GPGSV,3,1,09,05,11,316,18,07,63,322,17,08,28,115,13,09,79,112,16*7A
$GPGSV,3,2,09,16,14,039,16,23,41,126,16,27,24,070,24,28,18,210,19*72
$GPGSV,3,3,09,30,38,281,17*45
$GLGSV,3,1,09,78,07,248,10,66,54,191,19,86,12,087,19,77,52,288,13*64
$GLGSV,3,2,09,65,04,164,12,85,09,036,17,67,54,306,16,68,05,333,14*62
$GLGSV,3,3,09,75,00,000,*5E
$GPGSV,3,1,09,05,11,316,18,07,63,322,17,08,28,115,13,09,79,112,16*7A
$GPGSV,3,2,09,16,14,039,16,23,41,126,16,27,24,070,24,28,18,210,19*72
$GPGSV,3,3,09,30,38,281,17*45
$GLGSV,3,1,09,78,07,248,10,66,54,191,19,86,12,087,19,77,52,288,13*64
$GLGSV,3,2,09,65,04,164,12,85,09,036,17,67,54,306,16,68,05,333,14*62
$GLGSV,3,3,09,75,00,000,*5E
$GPGSA,A,3,05,07,08,09,16,23,27,28,30,,,,1.1,0.8,0.8*3B
$GPVTG,130.8,T,130.8,M,27.2,N,50.4,K,A*25
$GPRMC,053140,A,3721.081275,N,12156.190299,W,27.2,130.8,111116,0.0,E,A*35
$GPGGA,053140,3721.081275,N,12156.190299,W,1,09,0.8,21.0,M,-27.0,M,,*4C
$GPGSV,3,1,09,05,11,316,18,07,63,322,17,08,28,115,13,09,79,112,15*79
$GPGSV,3,2,09,16,14,039,16,23,41,126,15,27,24,070,20,28,18,210,19*75
$GPGSV,3,3,09,30,38,281,20*41
$GLGSV,3,1,09,78,07,248,10,66,54,191,19,86,12,087,19,77,52,288,13*64
$GLGSV,3,2,09,85,09,036,18,67,54,306,16,68,05,333,14,76,48,021,*64
$GLGSV,3,3,09,75,00,000,*5E
$GPGSV,3,1,09,05,11,316,18,07,63,322,17,08,28,115,13,09,79,112,15*79
$GPGSV,3,2,09,16,14,039,16,23,41,126,15,27,24,070,20,28,18,210,19*75
$GPGSV,3,3,09,30,38,281,20*41
$GLGSV,3,1,09,78,07,248,10,66,54,191,19,86,12,087,19,77,52,288,13*64
$GLGSV,3,2,09,85,09,036,18,67,54,306,16,68,05,333,14,76,48,021,*64
$GLGSV,3,3,09,75,00,000,*5E
$GPGSA,A,3,05,07,08,09,16,23,27,28,30,,,,1.1,0.8,0.8*3B
$GPVTG,130.2,T,130.2,M,28.7,N,53.1,K,A*29
$GPRMC,053141,A,3721.075820,N,12156.181961,W,28.7,130.2,111116,0.0,E,A*39
$GPGGA,053141,3721.075820,N,12156.181961,W,1,09,0.8,21.0,M,-27.0,M,,*40
$GPGSV,3,1,09,05,11,316,18,07,63,322,17,08,28,115,13,09,79,112,18*74
$GPGSV,3,2,09,16,14,039,16,23,41,126,15,27,24,070,20,28,18,210,14*78
$GPGSV,3,3,09,30,38,281,20*41
$GLGSV,3,1,10,78,07,248,10,66,54,191,19,86,12,087,19,77,52,288,13*6C
$GLGSV,3,2,10,85,09,036,18,67,54,306,16,68,05,333,14,76,48,021,*6C
$GLGSV,3,3,10,75,00,000,,65,04,164,*62
$GPGSV,3,1,09,05,11,316,18,07,63,322,17,08,28,115,13,09,79,112,18*74
$GPGSV,3,2,09,16,14,039,16,23,41,126,15,27,24,070,20,28,18,210,14*78
$GPGSV,3,3,09,30,38,281,20*41
$GLGSV,3,1,10,78,07,248,10,66,54,191,19,86,12,087,19,77,52,288,13*6C
$GLGSV,3,2,10,85,09,036,18,67,54,306,16,68,05,333,14,76,48,021,*6C
$GLGSV,3,3,10,75,00,000,,65,04,164,*62
$GPGSA,A,3,05,07,08,09,16,23,27,28,30,,,,1.1,0.8,0.8*3B
$GPVTG,124.5,T,124.5,M,29.6,N,54.9,K,A*26
$GPRMC,053142,A,3721.071625,N,12156.172877,W,29.6,124.5,111116,0.0,E,A*3D
$GPGGA,053142,3721.071625,N,12156.172877,W,1,09,0.8,21.0,M,-27.0,M,,*46
$GPGSV,3,1,09,05,11,316,18,07,63,322,17,08,28,115,13,09,79,112,19*75
$GPGSV,3,2,09,16,14,039,16,23,41,126,15,27,24,070,21,28,18,210,18*75
$GPGSV,3,3,09,30,38,281,20*41
$GLGSV,3,1,10,78,07,248,10,66,54,191,19,86,12,087,19,77,52,288,13*6C
$GLGSV,3,2,10,85,09,036,18,67,54,306,14,68,05,333,14,76,48,021,*6E
$GLGSV,3,3,10,75,00,000,,65,04,164,*62
$GPGSV,3,1,09,05,11,316,18,07,63,322,17,08,28,115,13,09,79,112,19*75
$GPGSV,3,2,09,16,14,039,16,23,41,126,15,27,24,070,21,28,18,210,18*75
$GPGSV,3,3,09,30,38,281,20*41
$GLGSV,3,1,10,78,07,248,10,66,54,191,19,86,12,087,19,77,52,288,13*6C
$GLGSV,3,2,10,85,09,036,18,67,54,306,14,68,05,333,14,76,48,021,*6E
$GLGSV,3,3,10,75,00,000,,65,04,164,*62
$GPGSA,A,3,05,07,08,09,16,23,27,28,30,,,,1.1,0.8,0.8*3B
$GPVTG,124.4,T,124.4,M,26.7,N,49.5,K,A*28
$GPRMC,053143,A,3721.068010,N,12156.165664,W,26.7,124.4,111116,0.0,E,A*31
$GPGGA,053143,3721.068010,N,12156.165664,W,1,09,0.8,22.0,M,-27.0,M,,*46
$GPGSV,3,1,09,05,11,316,18,07,63,322,17,08,28,115,13,09,79,112,19*75
$GPGSV,3,2,09,16,14,039,16,23,41,126,15,27,24,070,21,28,18,210,18*75
$GPGSV,3,3,09,30,38,281,14*46
$GLGSV,3,1,10,78,07,248,10,66,54,191,15,86,12,087,19,77,52,288,13*60
$GLGSV,3,2,10,85,09,036,17,67,54,306,18,68,05,333,14,76,48,021,*6D
$GLGSV,3,3,10,75,00,000,,65,04,164,*62
$GPGSV,3,1,09,05,11,316,18,07,63,322,17,08,28,115,13,09,79,112,19*75
$GPGSV,3,2,09,16,14,039,16,23,41,126,15,27,24,070,21,28,18,210,18*75
$GPGSV,3,3,09,30,38,281,14*46
$GLGSV,3,1,10,78,07,248,10,66,54,191,15,86,12,087,19,77,52,288,13*60
$GLGSV,3,2,10,85,09,036,17,67,54,306,18,68,05,333,14,76,48,021,*6D
$GLGSV,3,3,10,75,00,000,,65,04,164,*62
$GPGSA,A,3,05,07,08,09,16,23,27,28,30,,,,1.1,0.8,0.8*3B
$GPVTG,124.8,T,124.8,M,26.7,N,49.5,K,A*28
$GPRMC,053144,A,3721.063835,N,12156.158254,W,26.7,124.8,111116,0.0,E,A*37
$GPGGA,053144,3721.063835,N,12156.158254,W,1,09,0.8,21.0,M,-27.0,M,,*4F
$GPGSV,3,1,09,05,11,316,18,07,63,322,11,08,28,115,13,09,79,112,19*73
$GPGSV,3,2,09,16,14,039,16,23,41,126,15,27,24,070,19,28,18,210,18*7E
$GPGSV,3,3,09,30,38,281,14*46
$GLGSV,3,1,10,78,07,248,10,66,54,191,15,86,12,087,15,77,52,288,13*6C
$GLGSV,3,2,10,85,09,036,17,67,54,306,18,68,05,333,14,76,48,021,*6D
$GLGSV,3,3,10,75,00,000,,65,04,164,*62
$GPGSV,3,1,09,05,11,316,18,07,63,322,11,08,28,115,13,09,79,112,19*73
$GPGSV,3,2,09,16,14,039,16,23,41,126,15,27,24,070,19,28,18,210,18*7E
$GPGSV,3,3,09,30,38,281,14*46
$GLGSV,3,1,10,78,07,248,10,66,54,191,15,86,12,087,15,77,52,288,13*6C
$GLGSV,3,2,10,85,09,036,17,67,54,306,18,68,05,333,14,76,48,021,*6D
$GLGSV,3,3,10,75,00,000,,65,04,164,*62
$GPGSA,A,3,05,07,08,09,16,23,27,28,30,,,,1.1,0.8,0.8*3B
$GPVTG,127.6,T,127.6,M,26.2,N,48.6,K,A*2F
$GPRMC,053145,A,3721.059072,N,12156.151361,W,26.2,127.6,111116,0.0,E,A*32
$GPGGA,053145,3721.059072,N,12156.151361,W,1,09,0.8,22.0,M,-27.0,M,,*41
$GPGSV,3,1,09,05,11,316,18,07,63,322,11,08,28,115,13,09,79,112,19*73
$GPGSV,3,2,09,16,14,039,16,23,41,126,15,27,24,070,19,28,18,210,18*7E
$GPGSV,3,3,09,30,38,281,15*47
$GLGSV,3,1,10,78,07,248,10,66,54,191,15,86,12,087,15,77,52,288,13*6C
$GLGSV,3,2,10,85,09,036,17,67,54,306,18,68,05,333,14,76,48,021,*6D
$GLGSV,3,3,10,75,00,000,,65,04,164,*62
$GPGSV,3,1,09,05,11,316,18,07,63,322,11,08,28,115,13,09,79,112,19*73
$GPGSV,3,2,09,16,14,039,16,23,41,126,15,27,24,070,19,28,18,210,18*7E
$GPGSV,3,3,09,30,38,281,15*47
$GLGSV,3,1,10,78,07,248,10,66,54,191,15,86,12,087,15,77,52,288,13*6C
$GLGSV,3,2,10,85,09,036,17,67,54,306,18,68,05,333,14,76,48,021,*6D
$GLGSV,3,3,10,75,00,000,,65,04,164,*62
$GPGSA,A,3,05,07,08,09,16,23,27,28,30,,,,1.1,0.8,0.8*3B
$GPVTG,129.2,T,129.2,M,26.2,N,48.6,K,A*2F
$GPRMC,053146,A,3721.054341,N,12156.143472,W,26.2,129.2,111116,0.0,E,A*33
$GPGGA,053146,3721.054341,N,12156.143472,W,1,09,0.8,21.0,M,-27.0,M,,*49
$GPGSV,3,1,09,05,11,316,18,07,63,322,11,08,28,115,13,09,79,112,17*7D
$GPGSV,3,2,09,16,14,039,16,23,41,126,15,27,24,070,21,28,18,210,18*75
$GPGSV,3,3,09,30,38,281,18*4A
$GLGSV,3,1,10,78,07,248,10,66,54,191,15,86,12,087,16,77,52,288,13*6F
$GLGSV,3,2,10,85,09,036,17,67,54,306,14,68,05,333,14,76,48,021,*61
$GLGSV,3,3,10,75,00,000,,65,04,164,*62
$GPGSV,3,1,09,05,11,316,18,07,63,322,11,08,28,115,13,09,79,112,17*7D
$GPGSV,3,2,09,16,14,039,16,23,41,126,15,27,24,070,21,28,18,210,18*75
$GPGSV,3,3,09,30,38,281,18*4A
$GLGSV,3,1,10,78,07,248,10,66,54,191,15,86,12,087,16,77,52,288,13*6F
$GLGSV,3,2,10,85,09,036,17,67,54,306,14,68,05,333,14,76,48,021,*61
$GLGSV,3,3,10,75,00,000,,65,04,164,*62
$GPGSA,A,3,05,07,08,09,16,23,27,28,30,,,,1.2,0.9,0.8*39
$GPVTG,129.1,T,129.1,M,26.2,N,48.6,K,A*2F
$GPRMC,053147,A,3721.049653,N,12156.136670,W,26.2,129.1,111116,0.0,E,A*39
$GPGGA,053147,3721.049653,N,12156.136670,W,1,09,0.9,22.0,M,-27.0,M,,*42
$GPGSV,3,1,09,05,11,316,18,07,63,322,11,08,28,115,13,09,79,112,17*7D
$GPGSV,3,2,09,16,14,039,16,23,41,126,15,27,24,070,20,28,18,210,18*74
$GPGSV,3,3,09,30,38,281,18*4A
$GLGSV,3,1,10,78,07,248,10,66,54,191,15,86,12,087,18,77,52,288,13*61
$GLGSV,3,2,10,85,09,036,17,67,54,306,14,68,05,333,14,76,48,021,*61
$GLGSV,3,3,10,75,00,000,,65,04,164,*62
$GPGSV,3,1,09,05,11,316,18,07,63,322,11,08,28,115,13,09,79,112,17*7D
$GPGSV,3,2,09,16,14,039,16,23,41,126,15,27,24,070,20,28,18,210,18*74
$GPGSV,3,3,09,30,38,281,18*4A
$GLGSV,3,1,10,78,07,248,10,66,54,191,15,86,12,087,18,77,52,288,13*61
$GLGSV,3,2,10,85,09,036,17,67,54,306,14,68,05,333,14,76,48,021,*61
$GLGSV,3,3,10,75,00,000,,65,04,164,*62
$GPGSA,A,3,05,07,08,09,16,23,27,28,30,,,,1.3,1.0,0.8*30
$GPVTG,126.7,T,126.7,M,26.2,N,48.6,K,A*2F
$GPRMC,053148,A,3721.045935,N,12156.129064,W,26.2,126.7,111116,0.0,E,A*31
$GPGGA,053148,3721.045935,N,12156.129064,W,1,09,1.0,22.0,M,-27.0,M,,*4B
$GPGSV,3,1,09,05,11,316,14,07,63,322,11,08,28,115,13,09,79,112,17*71
$GPGSV,3,2,09,16,14,039,16,23,41,126,15,27,24,070,22,28,18,210,18*76
$GPGSV,3,3,09,30,38,281,17*45
$GLGSV,3,1,10,78,07,248,10,66,54,191,14,86,12,087,18,77,52,288,13*60
$GLGSV,3,2,10,85,09,036,17,67,54,306,14,68,05,333,14,76,48,021,*61
$GLGSV,3,3,10,75,00,000,,65,04,164,*62
$GPGSV,3,1,09,05,11,316,14,07,63,322,11,08,28,115,13,09,79,112,17*71
$GPGSV,3,2,09,16,14,039,16,23,41,126,15,27,24,070,22,28,18,210,18*76
$GPGSV,3,3,09,30,38,281,17*45
$GLGSV,3,1,10,78,07,248,10,66,54,191,14,86,12,087,18,77,52,288,13*60
$GLGSV,3,2,10,85,09,036,17,67,54,306,14,68,05,333,14,76,48,021,*61
$GLGSV,3,3,10,75,00,000,,65,04,164,*62
$GPGSA,A,3,05,07,08,09,16,23,27,28,30,,,,1.2,0.9,0.8*39
$GPVTG,123.5,T,123.5,M,23.3,N,43.2,K,A*24
$GPRMC,053149,A,3721.044041,N,12156.123132,W,23.3,123.5,111116,0.0,E,A*30
$GPGGA,053149,3721.044041,N,12156.123132,W,1,09,0.9,22.0,M,-27.0,M,,*41
$GPGSV,3,1,09,05,11,316,14,07,63,322,11,08,28,115,13,09,79,112,15*73
$GPGSV,3,2,09,16,14,039,14,23,41,126,15,27,24,070,22,28,18,210,18*74
$GPGSV,3,3,09,30,38,281,17*45
$GLGSV,3,1,10,78,07,248,10,66,54,191,19,86,12,087,17,77,52,288,13*62
$GLGSV,3,2,10,85,09,036,17,67,54,306,14,68,05,333,14,76,48,021,*61
$GLGSV,3,3,10,75,00,000,,65,04,164,*62
$GPGSV,3,1,09,05,11,316,14,07,63,322,11,08,28,115,13,09,79,112,15*73
$GPGSV,3,2,09,16,14,039,14,23,41,126,15,27,24,070,22,28,18,210,18*74
$GPGSV,3,3,09,30,38,281,17*45
$GLGSV,3,1,10,78,07,248,10,66,54,191,19,86,12,087,17,77,52,288,13*62
$GLGSV,3,2,10,85,09,036,17,67,54,306,14,68,05,333,14,76,48,021,*61
$GLGSV,3,3,10,75,00,000,,65,04,164,*62
$GPGSA,A,3,05,07,08,09,16,23,27,28,30,,,,1.4,1.1,0.9*37
$GPVTG,123.6,T,123.6,M,23.3,N,43.2,K,A*24
$GPRMC,053150,A,3721.040956,N,12156.115827,W,23.3,123.6,111116,0.0,E,A*38
$GPGGA,053150,3721.040956,N,12156.115827,W,1,09,1.1,22.0,M,-27.0,M,,*43
$GPGSV,3,1,09,05,11,316,14,07,63,322,11,08,28,115,12,09,79,112,15*72
$GPGSV,3,2,09,16,14,039,14,23,41,126,15,27,24,070,21,28,18,210,18*77
$GPGSV,3,3,09,30,38,281,17*45
$GLGSV,3,1,10,78,07,248,10,66,54,191,19,86,12,087,17,77,52,288,13*62
$GLGSV,3,2,10,85,09,036,17,67,54,306,14,68,05,333,14,76,48,021,*61
$GLGSV,3,3,10,75,00,000,,65,04,164,*62
$GPGSV,3,1,09,05,11,316,14,07,63,322,11,08,28,115,12,09,79,112,15*72
$GPGSV,3,2,09,16,14,039,14,23,41,126,15,27,24,070,21,28,18,210,18*77
$GPGSV,3,3,09,30,38,281,17*45
$GLGSV,3,1,10,78,07,248,10,66,54,191,19,86,12,087,17,77,52,288,13*62
$GLGSV,3,2,10,85,09,036,17,67,54,306,14,68,05,333,14,76,48,021,*61
$GLGSV,3,3,10,75,00,000,,65,04,164,*62
$GPGSA,A,3,05,07,08,09,16,23,27,28,30,,,,1.3,1.0,0.8*30
$GPVTG,125.2,T,125.2,M,23.3,N,43.2,K,A*24
$GPRMC,053151,A,3721.036770,N,12156.109473,W,23.3,125.2,111116,0.0,E,A*30
$GPGGA,053151,3721.036770,N,12156.109473,W,1,09,1.0,22.0,M,-27.0,M,,*48
$GPGSV,3,1,09,05,11,316,14,07,63,322,11,08,28,115,12,09,79,112,15*72
$GPGSV,3,2,09,16,14,039,14,23,41,126,15,27,24,070,21,28,18,210,18*77
$GPGSV,3,3,09,30,38,281,17*45
$GLGSV,3,1,10,78,07,248,10,66,54,191,19,86,12,087,17,77,52,288,13*62
$GLGSV,3,2,10,85,09,036,17,67,54,306,14,68,05,333,14,76,48,021,*61
$GLGSV,3,3,10,75,00,000,,65,04,164,*62
$GPGSV,3,1,09,05,11,316,14,07,63,322,11,08,28,115,12,09,79,112,15*72
$GPGSV,3,2,09,16,14,039,14,23,41,126,15,27,24,070,21,28,18,210,18*77
$GPGSV,3,3,09,30,38,281,17*45
$GLGSV,3,1,10,78,07,248,10,66,54,191,19,86,12,087,17,77,52,288,13*62
$GLGSV,3,2,10,85,09,036,17,67,54,306,14,68,05,333,14,76,48,021,*61
$GLGSV,3,3,10,75,00,000,,65,04,164,*62
$GPGSA,A,3,05,07,08,09,16,23,27,28,30,,,,1.4,1.1,0.9*37
$GPVTG,122.0,T,122.0,M,23.8,N,44.1,K,A*2B
$GPRMC,053152,A,3721.034230,N,12156.102706,W,23.8,122.0,111116,0.0,E,A*34
$GPGGA,053152,3721.034230,N,12156.102706,W,1,09,1.1,22.0,M,-27.0,M,,*43
$GPGSV,3,1,09,05,11,316,14,07,63,322,11,08,28,115,17,09,79,112,15*77
$GPGSV,3,2,09,16,14,039,16,23,41,126,15,27,24,070,22,28,18,210,14*7A
$GPGSV,3,3,09,30,38,281,13*41
$GLGSV,3,1,09,66,54,191,16,86,12,087,17,77,52,288,13,85,09,036,17*65
$GLGSV,3,2,09,67,54,306,14,68,05,333,14,76,48,021,,75,00,000,*6C
$GLGSV,3,3,09,65,04,164,*58
$GPGSV,3,1,09,05,11,316,14,07,63,322,11,08,28,115,17,09,79,112,15*77
$GPGSV,3,2,09,16,14,039,16,23,41,126,15,27,24,070,22,28,18,210,14*7A
$GPGSV,3,3,09,30,38,281,13*41
$GLGSV,3,1,09,66,54,191,16,86,12,087,17,77,52,288,13,85,09,036,17*65
$GLGSV,3,2,09,67,54,306,14,68,05,333,14,76,48,021,,75,00,000,*6C
$GLGSV,3,3,09,65,04,164,*58
$GPGSA,A,3,05,07,08,09,16,23,27,28,30,,,,1.2,0.8,0.8*38
$GPVTG,122.5,T,122.5,M,22.4,N,41.4,K,A*26
$GPRMC,053153,A,3721.032947,N,12156.097040,W,22.4,122.5,111116,0.0,E,A*38
$GPGGA,053153,3721.032947,N,12156.097040,W,1,09,0.8,20.0,M,-27.0,M,,*4D
$GPGSV,3,1,09,05,11,316,15,07,63,322,11,08,28,115,17,09,79,112,15*76
$GPGSV,3,2,09,16,14,039,16,23,41,126,15,27,24,070,19,28,18,210,14*72
$GPGSV,3,3,09,30,38,281,13*41
$GLGSV,3,1,10,66,54,191,16,86,12,087,17,77,52,288,13,85,09,036,17*6D
$GLGSV,3,2,10,67,54,306,12,68,05,333,14,78,07,248,,76,48,021,*66
$GLGSV,3,3,10,75,00,000,,65,04,164,*62
$GPGSV,3,1,09,05,11,316,15,07,63,322,11,08,28,115,17,09,79,112,15*76
$GPGSV,3,2,09,16,14,039,16,23,41,126,15,27,24,070,19,28,18,210,14*72
$GPGSV,3,3,09,30,38,281,13*41
$GLGSV,3,1,10,66,54,191,16,86,12,087,17,77,52,288,13,85,09,036,17*6D
$GLGSV,3,2,10,67,54,306,12,68,05,333,14,78,07,248,,76,48,021,*66
$GLGSV,3,3,10,75,00,000,,65,04,164,*62
$GPGSA,A,3,05,07,08,09,16,23,27,28,30,,,,1.2,0.8,0.8*38
$GPVTG,122.1,T,122.1,M,22.8,N,42.3,K,A*2E
$GPRMC,053154,A,3721.028474,N,12156.089213,W,22.8,122.1,111116,0.0,E,A*3A
$GPGGA,053154,3721.028474,N,12156.089213,W,1,09,0.8,21.0,M,-27.0,M,,*46
$GPGSV,3,1,09,05,11,316,19,07,63,322,11,08,28,115,14,09,79,112,15*79
$GPGSV,3,2,09,16,14,039,16,23,41,126,15,27,24,070,22,28,18,210,14*7A
$GPGSV,3,3,09,30,38,281,15*47
$GLGSV,3,1,10,66,54,191,16,86,12,087,17,77,52,288,13,85,09,036,17*6D
$GLGSV,3,2,10,67,54,306,12,68,05,333,14,78,07,248,,76,48,021,*66
$GLGSV,3,3,10,75,00,000,,65,04,164,*62
$GPGSV,3,1,09,05,11,316,19,07,63,322,11,08,28,115,14,09,79,112,15*79
$GPGSV,3,2,09,16,14,039,16,23,41,126,15,27,24,070,22,28,18,210,14*7A
$GPGSV,3,3,09,30,38,281,15*47
$GLGSV,3,1,10,66,54,191,16,86,12,087,17,77,52,288,13,85,09,036,17*6D
$GLGSV,3,2,10,67,54,306,12,68,05,333,14,78,07,248,,76,48,021,*66
$GLGSV,3,3,10,75,00,000,,65,04,164,*62
$GPGSA,A,3,05,07,08,09,16,23,27,28,30,,,,1.2,0.8,0.8*38
$GPVTG,127.7,T,127.7,M,21.4,N,39.6,K,A*28
$GPRMC,053155,A,3721.024112,N,12156.085541,W,21.4,127.7,111116,0.0,E,A*32
$GPGGA,053155,3721.024112,N,12156.085541,W,1,09,0.8,21.0,M,-27.0,M,,*42
$GPGSV,3,1,09,05,11,316,20,07,63,322,11,08,28,115,19,09,79,112,15*7E
$GPGSV,3,2,09,16,14,039,16,23,41,126,15,27,24,070,25,28,18,210,17*7E
$GPGSV,3,3,09,30,38,281,18*4A
$GLGSV,3,1,10,66,54,191,16,86,12,087,17,77,52,288,13,85,09,036,17*6D
$GLGSV,3,2,10,67,54,306,12,68,05,333,14,78,07,248,,76,48,021,*66
$GLGSV,3,3,10,75,00,000,,65,04,164,*62
$GPGSV,3,1,09,05,11,316,20,07,63,322,11,08,28,115,19,09,79,112,15*7E
$GPGSV,3,2,09,16,14,039,16,23,41,126,15,27,24,070,25,28,18,210,17*7E
$GPGSV,3,3,09,30,38,281,18*4A
$GLGSV,3,1,10,66,54,191,16,86,12,087,17,77,52,288,13,85,09,036,17*6D
$GLGSV,3,2,10,67,54,306,12,68,05,333,14,78,07,248,,76,48,021,*66
$GLGSV,3,3,10,75,00,000,,65,04,164,*62
$GPGSA,A,3,05,07,08,09,16,23,27,28,30,,,,1.2,0.8,0.8*38
$GPVTG,129.5,T,129.5,M,20.4,N,37.8,K,A*29
$GPRMC,053156,A,3721.023489,N,12156.081329,W,20.4,129.5,111116,0.0,E,A*30
$GPGGA,053156,3721.023489,N,12156.081329,W,1,09,0.8,21.0,M,-27.0,M,,*4D
$GPGSV,3,1,09,05,11,316,20,07,63,322,10,08,28,115,19,09,79,112,15*7F
$GPGSV,3,2,09,16,14,039,16,23,41,126,15,27,24,070,25,28,18,210,17*7E
$GPGSV,3,3,09,30,38,281,18*4A
$GLGSV,3,1,10,66,54,191,16,86,12,087,17,77,52,288,13,85,09,036,17*6D
$GLGSV,3,2,10,67,54,306,12,68,05,333,14,78,07,248,,76,48,021,*66
$GLGSV,3,3,10,75,00,000,,65,04,164,*62
$GPGSV,3,1,09,05,11,316,20,07,63,322,10,08,28,115,19,09,79,112,15*7F
$GPGSV,3,2,09,16,14,039,16,23,41,126,15,27,24,070,25,28,18,210,17*7E
$GPGSV,3,3,09,30,38,281,18*4A
$GLGSV,3,1,10,66,54,191,16,86,12,087,17,77,52,288,13,85,09,036,17*6D
$GLGSV,3,2,10,67,54,306,12,68,05,333,14,78,07,248,,76,48,021,*66
$GLGSV,3,3,10,75,00,000,,65,04,164,*62
$GPGSA,A,3,05,07,08,09,16,23,27,28,30,,,,1.2,0.8,0.8*38
$GPVTG,126.6,T,126.6,M,19.0,N,35.1,K,A*2C
$GPRMC,053157,A,3721.019176,N,12156.075568,W,19.0,126.6,111116,0.0,E,A*37
$GPGGA,053157,3721.019176,N,12156.075568,W,1,09,0.8,20.0,M,-27.0,M,,*49
$GPGSV,3,1,09,05,11,316,17,07,63,322,10,08,28,115,19,09,79,112,15*7B
$GPGSV,3,2,09,16,14,039,16,23,41,126,16,27,24,070,25,28,18,210,17*7D
$GPGSV,3,3,09,30,38,281,17*45
$GLGSV,3,1,10,66,54,191,16,86,12,087,17,77,52,288,13,85,09,036,17*6D
$GLGSV,3,2,10,67,54,306,13,68,05,333,14,78,07,248,,76,48,021,*67
$GLGSV,3,3,10,75,00,000,,65,04,164,*62
$GPGSV,3,1,09,05,11,316,17,07,63,322,10,08,28,115,19,09,79,112,15*7B
$GPGSV,3,2,09,16,14,039,16,23,41,126,16,27,24,070,25,28,18,210,17*7D
$GPGSV,3,3,09,30,38,281,17*45
$GLGSV,3,1,10,66,54,191,16,86,12,087,17,77,52,288,13,85,09,036,17*6D
$GLGSV,3,2,10,67,54,306,13,68,05,333,14,78,07,248,,76,48,021,*67
$GLGSV,3,3,10,75,00,000,,65,04,164,*62
$GPGSA,A,3,05,07,08,09,16,23,27,28,30,,,,1.2,0.8,0.8*38
$GPVTG,126.8,T,126.8,M,16.5,N,30.6,K,A*24
$GPRMC,053158,A,3721.018125,N,12156.071721,W,16.5,126.8,111116,0.0,E,A*30
$GPGGA,053158,3721.018125,N,12156.071721,W,1,09,0.8,20.0,M,-27.0,M,,*4A
$GPGSV,3,1,09,05,11,316,17,07,63,322,10,08,28,115,18,09,79,112,15*7A
$GPGSV,3,2,09,16,14,039,16,23,41,126,17,27,24,070,22,28,18,210,15*79
$GPGSV,3,3,09,30,38,281,18*4A
$GLGSV,3,1,10,66,54,191,16,86,12,087,17,77,52,288,13,65,04,164,14*6B
$GLGSV,3,2,10,85,09,036,17,67,54,306,13,68,05,333,14,78,07,248,*6E
$GLGSV,3,3,10,76,48,021,,75,00,000,*68
$GPGSV,3,1,09,05,11,316,17,07,63,322,10,08,28,115,18,09,79,112,15*7A
$GPGSV,3,2,09,16,14,039,16,23,41,126,17,27,24,070,22,28,18,210,15*79
$GPGSV,3,3,09,30,38,281,18*4A
$GLGSV,3,1,10,66,54,191,16,86,12,087,17,77,52,288,13,65,04,164,14*6B
$GLGSV,3,2,10,85,09,036,17,67,54,306,13,68,05,333,14,78,07,248,*6E
$GLGSV,3,3,10,76,48,021,,75,00,000,*68
$GPGSA,A,3,05,07,08,09,16,23,27,28,30,,,,1.1,0.8,0.8*3B
$GPVTG,125.1,T,125.1,M,12.6,N,23.4,K,A*23
$GPRMC,053159,A,3721.014550,N,12156.067910,W,12.6,125.1,111116,0.0,E,A*3D
$GPGGA,053159,3721.014550,N,12156.067910,W,1,09,0.8,19.0,M,-27.0,M,,*40
$GPGSV,3,1,09,05,11,316,16,07,63,322,10,08,28,115,19,09,79,112,15*7A
$GPGSV,3,2,09,16,14,039,16,23,41,126,18,27,24,070,23,28,18,210,15*77
$GPGSV,3,3,09,30,38,281,17*45
$GLGSV,3,1,10,66,54,191,16,86,12,087,12,77,52,288,13,65,04,164,14*6E
$GLGSV,3,2,10,85,09,036,17,67,54,306,13,68,05,333,14,78,07,248,*6E
$GLGSV,3,3,10,76,48,021,,75,00,000,*68
$GPGSV,3,1,09,05,11,316,16,07,63,322,10,08,28,115,19,09,79,112,15*7A
$GPGSV,3,2,09,16,14,039,16,23,41,126,18,27,24,070,23,28,18,210,15*77
$GPGSV,3,3,09,30,38,281,17*45
$GLGSV,3,1,10,66,54,191,16,86,12,087,12,77,52,288,13,65,04,164,14*6E
$GLGSV,3,2,10,85,09,036,17,67,54,306,13,68,05,333,14,78,07,248,*6E
$GLGSV,3,3,10,76,48,021,,75,00,000,*68
$GPGSA,A,3,05,07,08,09,16,23,27,28,30,,,,1.2,0.9,0.8*39
$GPVTG,118.9,T,118.9,M,8.7,N,16.2,K,A*19
$GPRMC,053200,A,3721.013662,N,12156.065441,W,8.7,118.9,111116,0.0,E,A*00
$GPGGA,053200,3721.013662,N,12156.065441,W,1,09,0.9,18.0,M,-27.0,M,,*41
$GPGSV,3,1,09,05,11,316,16,07,63,322,10,08,28,115,19,09,79,112,15*7A
$GPGSV,3,2,09,16,14,039,16,23,41,126,16,27,24,070,22,28,18,210,19*74
$GPGSV,3,3,09,30,38,281,17*45
$GLGSV,3,1,09,66,54,191,16,86,12,087,12,77,52,288,13,65,04,164,15*67
$GLGSV,3,2,09,85,09,036,17,67,54,306,14,78,07,248,,76,48,021,*62
$GLGSV,3,3,09,75,00,000,*5E
$GPGSV,3,1,09,05,11,316,16,07,63,322,10,08,28,115,19,09,79,112,15*7A
$GPGSV,3,2,09,16,14,039,16,23,41,126,16,27,24,070,22,28,18,210,19*74
$GPGSV,3,3,09,30,38,281,17*45
$GLGSV,3,1,09,66,54,191,16,86,12,087,12,77,52,288,13,65,04,164,15*67
$GLGSV,3,2,09,85,09,036,17,67,54,306,14,78,07,248,,76,48,021,*62
$GLGSV,3,3,09,75,00,000,*5E
$GPGSA,A,3,05,07,08,09,16,23,27,28,30,,,,1.2,0.9,0.8*39
$GPVTG,135.0,T,135.0,M,5.8,N,10.8,K,A*17
$GPRMC,053201,A,3721.012070,N,12156.064143,W,5.8,135.0,111116,0.0,E,A*07
$GPGGA,053201,3721.012070,N,12156.064143,W,1,09,0.9,19.0,M,-27.0,M,,*43
$GPGSV,3,1,09,05,11,316,16,07,63,322,10,08,28,115,17,09,79,112,15*74
$GPGSV,3,2,09,16,14,039,16,23,41,126,16,27,24,070,20,28,18,210,19*76
$GPGSV,3,3,09,30,38,281,17*45
$GLGSV,3,1,09,66,54,191,15,86,12,087,12,65,04,164,14,85,09,036,17*65
$GLGSV,3,2,09,67,54,306,14,78,07,248,,76,48,021,,75,00,000,*67
$GLGSV,3,3,09,68,05,333,*54
$GPGSV,3,1,09,05,11,316,16,07,63,322,10,08,28,115,17,09,79,112,15*74
$GPGSV,3,2,09,16,14,039,16,23,41,126,16,27,24,070,20,28,18,210,19*76
$GPGSV,3,3,09,30,38,281,17*45
$GLGSV,3,1,09,66,54,191,15,86,12,087,12,65,04,164,14,85,09,036,17*65
$GLGSV,3,2,09,67,54,306,14,78,07,248,,76,48,021,,75,00,000,*67
$GLGSV,3,3,09,68,05,333,*54
$GPGSA,A,3,05,07,08,09,16,23,27,28,30,,,,1.2,0.9,0.8*39
$GPVTG,134.9,T,134.9,M,4.9,N,9.0,K,A*27
$GPRMC,053202,A,3721.010768,N,12156.063038,W,4.9,134.9,111116,0.0,E,A*0A
$GPGGA,053202,3721.010768,N,12156.063038,W,1,09,0.9,18.0,M,-27.0,M,,*47
$GPGSV,3,1,09,05,11,316,16,07,63,322,10,08,28,115,19,09,79,112,15*7A
$GPGSV,3,2,09,16,14,039,16,23,41,126,17,27,24,070,22,28,18,210,19*75
$GPGSV,3,3,09,30,38,281,18*4A
$GLGSV,3,1,10,66,54,191,15,86,12,087,12,65,04,164,13,85,09,036,17*6A
$GLGSV,3,2,10,67,54,306,14,78,07,248,,77,52,288,,76,48,021,*68
$GLGSV,3,3,10,75,00,000,,68,05,333,*6E
$GPGSV,3,1,09,05,11,316,16,07,63,322,10,08,28,115,19,09,79,112,15*7A
$GPGSV,3,2,09,16,14,039,16,23,41,126,17,27,24,070,22,28,18,210,19*75
$GPGSV,3,3,09,30,38,281,18*4A
$GLGSV,3,1,10,66,54,191,15,86,12,087,12,65,04,164,13,85,09,036,17*6A
$GLGSV,3,2,10,67,54,306,14,78,07,248,,77,52,288,,76,48,021,*68
$GLGSV,3,3,10,75,00,000,,68,05,333,*6E
$GPGSA,A,3,05,07,08,09,16,23,27,28,30,,,,1.2,0.9,0.8*39
$GPVTG,132.9,T,132.9,M,2.9,N,5.4,K,A*29
$GPRMC,053203,A,3721.011902,N,12156.062186,W,2.9,132.9,111116,0.0,E,A*0D
$GPGGA,053203,3721.011902,N,12156.062186,W,1,09,0.9,18.0,M,-27.0,M,,*40
$GPGSV,3,1,09,05,11,316,16,07,63,322,10,08,28,115,18,09,79,112,15*7B
$GPGSV,3,2,09,16,14,039,16,23,41,126,20,27,24,070,23,28,18,210,19*70
$GPGSV,3,3,09,30,38,281,19*4B
$GLGSV,3,1,10,66,54,191,15,86,12,087,15,65,04,164,13,85,09,036,17*6D
$GLGSV,3,2,10,67,54,306,14,78,07,248,,77,52,288,,76,48,021,*68
$GLGSV,3,3,10,75,00,000,,68,05,333,*6E
$GPGSV,3,1,09,05,11,316,16,07,63,322,10,08,28,115,18,09,79,112,15*7B
$GPGSV,3,2,09,16,14,039,16,23,41,126,20,27,24,070,23,28,18,210,19*70
$GPGSV,3,3,09,30,38,281,19*4B
$GLGSV,3,1,10,66,54,191,15,86,12,087,15,65,04,164,13,85,09,036,17*6D
$GLGSV,3,2,10,67,54,306,14,78,07,248,,77,52,288,,76,48,021,*68
$GLGSV,3,3,10,75,00,000,,68,05,333,*6E
$GPGSA,A,3,05,07,08,09,16,23,27,28,30,,,,1.2,0.9,0.9*38
$GPVTG,125.8,T,125.8,M,2.9,N,5.4,K,A*29
$GPRMC,053204,A,3721.011251,N,12156.061089,W,2.9,125.8,111116,0.0,E,A*0D
$GPGGA,053204,3721.011251,N,12156.061089,W,1,09,0.9,18.0,M,-27.0,M,,*47
$GPGSV,3,1,09,05,11,316,18,07,63,322,10,08,28,115,18,09,79,112,15*75
$GPGSV,3,2,09,16,14,039,16,23,41,126,20,27,24,070,24,28,18,210,16*78
$GPGSV,3,3,09,30,38,281,18*4A
$GLGSV,3,1,09,66,54,191,15,86,12,087,15,65,04,164,14,67,54,306,14*65
$GLGSV,3,2,09,78,07,248,,77,52,288,,76,48,021,,75,00,000,*62
$GLGSV,3,3,09,68,05,333,*54
$GPGSV,3,1,09,05,11,316,18,07,63,322,10,08,28,115,18,09,79,112,15*75
$GPGSV,3,2,09,16,14,039,16,23,41,126,20,27,24,070,24,28,18,210,16*78
$GPGSV,3,3,09,30,38,281,18*4A
$GLGSV,3,1,09,66,54,191,15,86,12,087,15,65,04,164,14,67,54,306,14*65
$GLGSV,3,2,09,78,07,248,,77,52,288,,76,48,021,,75,00,000,*62
$GLGSV,3,3,09,68,05,333,*54
$GPGSA,A,3,05,07,08,09,16,23,27,28,30,,,,1.2,0.9,0.9*38
$GPVTG,118.7,T,118.7,M,2.9,N,5.4,K,A*29
$GPRMC,053205,A,3721.012510,N,12156.058971,W,2.9,118.7,111116,0.0,E,A*08
$GPGGA,053205,3721.012510,N,12156.058971,W,1,09,0.9,19.0,M,-27.0,M,,*42
$GPGSV,3,1,09,05,11,316,20,07,63,322,11,08,28,115,15,09,79,112,15*72
$GPGSV,3,2,09,16,14,039,16,23,41,126,20,27,24,070,24,28,18,210,16*78
$GPGSV,3,3,09,30,38,281,21*40
$GLGSV,3,1,10,66,54,191,16,86,12,087,17,65,04,164,13,67,54,306,13*6C
$GLGSV,3,2,10,78,07,248,,77,52,288,,76,48,021,,75,00,000,*6A
$GLGSV,3,3,10,85,09,036,,68,05,333,*6D
$GPGSV,3,1,09,05,11,316,20,07,63,322,11,08,28,115,15,09,79,112,15*72
$GPGSV,3,2,09,16,14,039,16,23,41,126,20,27,24,070,24,28,18,210,16*78
$GPGSV,3,3,09,30,38,281,21*40
$GLGSV,3,1,10,66,54,191,16,86,12,087,17,65,04,164,13,67,54,306,13*6C
$GLGSV,3,2,10,78,07,248,,77,52,288,,76,48,021,,75,00,000,*6A
$GLGSV,3,3,10,85,09,036,,68,05,333,*6D
$GPGSA,A,3,05,07,08,09,16,23,27,28,30,,,,1.2,0.9,0.8*39
$GPVTG,126.0,T,126.0,M,3.9,N,7.2,K,A*2C
$GPRMC,053206,A,3721.012209,N,12156.058119,W,3.9,126.0,111116,0.0,E,A*09
$GPGGA,053206,3721.012209,N,12156.058119,W,1,09,0.9,18.0,M,-27.0,M,,*49
$GPGSV,3,1,09,05,11,316,18,07,63,322,11,08,28,115,15,09,79,112,15*79
$GPGSV,3,2,09,16,14,039,16,23,41,126,20,27,24,070,21,28,18,210,17*7C
$GPGSV,3,3,09,30,38,281,19*4B
$GLGSV,3,1,10,66,54,191,16,86,12,087,17,65,04,164,16,67,54,306,13*69
$GLGSV,3,2,10,78,07,248,,77,52,288,,76,48,021,,75,00,000,*6A
$GLGSV,3,3,10,85,09,036,,68,05,333,*6D
$GPGSV,3,1,09,05,11,316,18,07,63,322,11,08,28,115,15,09,79,112,15*79
$GPGSV,3,2,09,16,14,039,16,23,41,126,20,27,24,070,21,28,18,210,17*7C
$GPGSV,3,3,09,30,38,281,19*4B
$GLGSV,3,1,10,66,54,191,16,86,12,087,17,65,04,164,16,67,54,306,13*69
$GLGSV,3,2,10,78,07,248,,77,52,288,,76,48,021,,75,00,000,*6A
$GLGSV,3,3,10,85,09,036,,68,05,333,*6D
$GPGSA,A,3,05,07,08,09,16,23,27,28,30,,,,1.2,0.9,0.8*39
$GPVTG,115.7,T,115.7,M,7.3,N,13.5,K,A*10
$GPRMC,053207,A,3721.012162,N,12156.055033,W,7.3,115.7,111116,0.0,E,A*0B
$GPGGA,053207,3721.012162,N,12156.055033,W,1,09,0.9,17.0,M,-27.0,M,,*4D
$GPGSV,3,1,09,05,11,316,20,07,63,322,11,08,28,115,16,09,79,112,15*71
$GPGSV,3,2,09,16,14,039,16,23,41,126,14,27,24,070,22,28,18,210,17*78
$GPGSV,3,3,09,30,38,281,23*42
$GLGSV,3,1,10,66,54,191,16,86,12,087,17,65,04,164,16,67,54,306,16*6C
$GLGSV,3,2,10,78,07,248,,77,52,288,,76,48,021,,75,00,000,*6A
$GLGSV,3,3,10,85,09,036,,68,05,333,*6D
$GPGSV,3,1,09,05,11,316,20,07,63,322,11,08,28,115,16,09,79,112,15*71
$GPGSV,3,2,09,16,14,039,16,23,41,126,14,27,24,070,22,28,18,210,17*78
$GPGSV,3,3,09,30,38,281,23*42
$GLGSV,3,1,10,66,54,191,16,86,12,087,17,65,04,164,16,67,54,306,16*6C
$GLGSV,3,2,10,78,07,248,,77,52,288,,76,48,021,,75,00,000,*6A
$GLGSV,3,3,10,85,09,036,,68,05,333,*6D
$GPGSA,A,3,05,07,08,09,16,23,27,28,30,,,,1.2,0.9,0.8*39
$GPVTG,121.7,T,121.7,M,8.7,N,16.2,K,A*19
$GPRMC,053208,A,3721.012114,N,12156.052971,W,8.7,121.7,111116,0.0,E,A*01
$GPGGA,053208,3721.012114,N,12156.052971,W,1,09,0.9,17.0,M,-27.0,M,,*4B
$GPGSV,3,1,09,05,11,316,20,07,63,322,11,08,28,115,16,09,79,112,15*71
$GPGSV,3,2,09,16,14,039,18,23,41,126,14,27,24,070,23,28,18,210,17*77
$GPGSV,3,3,09,30,38,281,22*43
$GLGSV,3,1,10,66,54,191,16,86,12,087,17,65,04,164,16,67,54,306,19*63
$GLGSV,3,2,10,78,07,248,,77,52,288,,76,48,021,,75,00,000,*6A
$GLGSV,3,3,10,85,09,036,,68,05,333,*6D
$GPGSV,3,1,09,05,11,316,20,07,63,322,11,08,28,115,16,09,79,112,15*71
$GPGSV,3,2,09,16,14,039,18,23,41,126,14,27,24,070,23,28,18,210,17*77
$GPGSV,3,3,09,30,38,281,22*43
$GLGSV,3,1,10,66,54,191,16,86,12,087,17,65,04,164,16,67,54,306,19*63
$GLGSV,3,2,10,78,07,248,,77,52,288,,76,48,021,,75,00,000,*6A
$GLGSV,3,3,10,85,09,036,,68,05,333,*6D
$GPGSA,A,3,05,07,08,09,16,23,27,28,30,,,,1.1,0.8,0.8*3B
$GPVTG,123.7,T,123.7,M,10.7,N,19.8,K,A*25
$GPRMC,053209,A,3721.011572,N,12156.049805,W,10.7,123.7,111116,0.0,E,A*34
$GPGGA,053209,3721.011572,N,12156.049805,W,1,09,0.8,21.0,M,-27.0,M,,*41
$GPGSV,3,1,09,05,11,316,21,07,63,322,11,08,28,115,17,09,79,112,15*71
$GPGSV,3,2,09,16,14,039,23,23,41,126,17,27,24,070,25,28,18,210,17*7A
$GPGSV,3,3,09,30,38,281,22*43
$GLGSV,3,1,10,66,54,191,16,86,12,087,17,65,04,164,16,67,54,306,17*6D
$GLGSV,3,2,10,78,07,248,,77,52,288,,76,48,021,,75,00,000,*6A
$GLGSV,3,3,10,85,09,036,,68,05,333,*6D
$GPGSV,3,1,09,05,11,316,21,07,63,322,11,08,28,115,17,09,79,112,15*71
$GPGSV,3,2,09,16,14,039,23,23,41,126,17,27,24,070,25,28,18,210,17*7A
$GPGSV,3,3,09,30,38,281,22*43
$GLGSV,3,1,10,66,54,191,16,86,12,087,17,65,04,164,16,67,54,306,17*6D
$GLGSV,3,2,10,78,07,248,,77,52,288,,76,48,021,,75,00,000,*6A
$GLGSV,3,3,10,85,09,036,,68,05,333,*6D
$GPGSA,A,3,05,07,08,09,16,23,27,28,30,,,,1.1,0.8,0.8*3B
$GPVTG,117.0,T,117.0,M,12.1,N,22.5,K,A*24
$GPRMC,053210,A,3721.010145,N,12156.046149,W,12.1,117.0,111116,0.0,E,A*37
$GPGGA,053210,3721.010145,N,12156.046149,W,1,09,0.8,22.0,M,-27.0,M,,*45
$GPGSV,3,1,09,05,11,316,22,07,63,322,11,08,28,115,18,09,79,112,15*7D
$GPGSV,3,2,09,16,14,039,22,23,41,126,17,27,24,070,26,28,18,210,18*77
$GPGSV,3,3,09,30,38,281,22*43
$GLGSV,3,1,10,66,54,191,16,86,12,087,19,65,04,164,16,67,54,306,19*6D
$GLGSV,3,2,10,78,07,248,,77,52,288,,76,48,021,,75,00,000,*6A
$GLGSV,3,3,10,85,09,036,,68,05,333,*6D
$GPGSV,3,1,09,05,11,316,22,07,63,322,11,08,28,115,18,09,79,112,15*7D
$GPGSV,3,2,09,16,14,039,22,23,41,126,17,27,24,070,26,28,18,210,18*77
$GPGSV,3,3,09,30,38,281,22*43
$GLGSV,3,1,10,66,54,191,16,86,12,087,19,65,04,164,16,67,54,306,19*6D
$GLGSV,3,2,10,78,07,248,,77,52,288,,76,48,021,,75,00,000,*6A
$GLGSV,3,3,10,85,09,036,,68,05,333,*6D
$GPGSA,A,3,05,07,08,09,16,23,27,28,30,,,,1.1,0.8,0.8*3B
$GPVTG,121.4,T,121.4,M,12.6,N,23.4,K,A*23
$GPRMC,053211,A,3721.008225,N,12156.043503,W,12.6,121.4,111116,0.0,E,A*33
$GPGGA,053211,3721.008225,N,12156.043503,W,1,09,0.8,22.0,M,-27.0,M,,*47
$GPGSV,3,1,09,05,11,316,21,07,63,322,11,08,28,115,18,09,79,112,13*78
$GPGSV,3,2,09,16,14,039,21,23,41,126,17,27,24,070,27,28,18,210,18*75
$GPGSV,3,3,09,30,38,281,21*40
$GLGSV,3,1,10,66,54,191,14,86,12,087,19,65,04,164,14,67,54,306,19*6D
$GLGSV,3,2,10,78,07,248,,77,52,288,,76,48,021,,75,00,000,*6A
$GLGSV,3,3,10,85,09,036,,68,05,333,*6D
$GPGSV,3,1,09,05,11,316,21,07,63,322,11,08,28,115,18,09,79,112,13*78
$GPGSV,3,2,09,16,14,039,21,23,41,126,17,27,24,070,27,28,18,210,18*75
$GPGSV,3,3,09,30,38,281,21*40
$GLGSV,3,1,10,66,54,191,14,86,12,087,19,65,04,164,14,67,54,306,19*6D
$GLGSV,3,2,10,78,07,248,,77,52,288,,76,48,021,,75,00,000,*6A
$GLGSV,3,3,10,85,09,036,,68,05,333,*6D
$GPGSA,A,3,05,07,08,09,16,23,27,28,30,,,,1.1,0.8,0.8*3B
$GPVTG,114.4,T,114.4,M,15.1,N,27.9,K,A*2A
$GPRMC,053212,A,3721.006410,N,12156.038189,W,15.1,114.4,111116,0.0,E,A*32
$GPGGA,053212,3721.006410,N,12156.038189,W,1,09,0.8,22.0,M,-27.0,M,,*40
$GPGSV,3,1,09,05,11,316,21,07,63,322,11,08,28,115,14,09,79,112,13*74
$GPGSV,3,2,09,16,14,039,21,23,41,126,16,27,24,070,28,28,18,210,18*7B
$GPGSV,3,3,09,30,38,281,21*40
$GLGSV,3,1,10,66,54,191,14,86,12,087,18,65,04,164,14,67,54,306,19*6C
$GLGSV,3,2,10,78,07,248,,77,52,288,,76,48,021,,75,00,000,*6A
$GLGSV,3,3,10,85,09,036,,68,05,333,*6D
$GPGSV,3,1,09,05,11,316,21,07,63,322,11,08,28,115,14,09,79,112,13*74
$GPGSV,3,2,09,16,14,039,21,23,41,126,16,27,24,070,28,28,18,210,18*7B
$GPGSV,3,3,09,30,38,281,21*40
$GLGSV,3,1,10,66,54,191,14,86,12,087,18,65,04,164,14,67,54,306,19*6C
$GLGSV,3,2,10,78,07,248,,77,52,288,,76,48,021,,75,00,000,*6A
$GLGSV,3,3,10,85,09,036,,68,05,333,*6D
$GPGSA,A,3,05,07,08,09,16,23,27,28,30,,,,1.1,0.8,0.8*3B
$GPVTG,108.2,T,108.2,M,17.5,N,32.4,K,A*25
$GPRMC,053213,A,3721.004868,N,12156.031313,W,17.5,108.2,111116,0.0,E,A*37
$GPGGA,053213,3721.004868,N,12156.031313,W,1,09,0.8,22.0,M,-27.0,M,,*48
$GPGSV,3,1,09,05,11,316,19,07,63,322,11,08,28,115,14,09,79,112,13*7F
$GPGSV,3,2,09,16,14,039,21,23,41,126,19,27,24,070,26,28,18,210,18*7A
$GPGSV,3,3,09,30,38,281,23*42
