$GPGSV,3,1,12,01,34,217,27,22,86,202,20,23,42,289,21,31,38,045,24*7A
$GPGSV,3,2,12,03,70,316,,09,09,274,,11,10,209,,14,23,067,*75
$GPGSV,3,3,12,16,18,142,,25,00,000,,26,31,112,,32,00,000,*71
$GLGSV,3,1,10,78,56,050,19,80,11,195,22,79,64,158,21,69,47,334,11*69
$GLGSV,3,2,10,84,11,265,12,85,09,313,14,68,54,073,25,70,00,000,*60
$GLGSV,3,3,10,77,06,025,,67,10,111,*64
$GPGSA,A,1,,,,,,,,,,,,,,,*1E
$GPVTG,,T,,M,,N,,K,N*2C
$GPRMC,,V,,,,,,,,,,N*53
$GPGGA,,,,,,0,,,,,,,,*66
$GPGSV,3,1,12,01,34,217,27,22,86,202,20,23,42,289,21,31,38,045,24*7A
$GPGSV,3,2,12,03,70,316,,09,09,274,,11,10,209,,14,23,067,*75
$GPGSV,3,3,12,16,18,142,,25,00,000,,26,31,112,,32,00,000,*71
$GLGSV,3,1,10,78,56,050,22,79,64,158,25,68,54,074,31,70,00,000,*61
$GLGSV,3,2,10,77,06,025,,80,11,195,,69,47,334,,84,11,264,*65
$GLGSV,3,3,10,85,09,313,,67,09,111,*68
$GPGSA,A,1,,,,,,,,,,,,,,,*1E
$GPVTG,,T,,M,,N,,K,N*2C
$GPRMC,,V,,,,,,,,,,N*53
$GPGGA,,,,,,0,,,,,,,,*66
$GPGSV,3,1,12,01,34,217,29,03,70,316,20,09,09,274,19,11,10,209,20*72
$GPGSV,3,2,12,16,18,142,19,22,86,202,19,23,42,289,21,26,31,112,28*75
$GPGSV,3,3,12,31,38,045,26,14,23,067,,25,00,000,,32,00,000,*75
$GLGSV,3,1,10,78,56,050,22,79,64,158,25,68,54,074,31,70,00,000,*61
$GLGSV,3,2,10,77,06,025,,80,11,195,,69,47,334,,84,11,264,*65
$GLGSV,3,3,10,85,09,313,,67,09,111,*68
$GPGSV,3,1,12,01,34,217,29,03,70,316,20,09,09,274,19,11,10,209,20*72
$GPGSV,3,2,12,16,18,142,19,22,86,202,19,23,42,289,21,26,31,112,28*75
$GPGSV,3,3,12,31,38,045,26,14,23,067,,25,00,000,,32,00,000,*75
$GLGSV,3,1,10,78,56,050,22,79,64,158,25,68,54,074,31,70,00,000,*61
$GLGSV,3,2,10,77,06,025,,80,11,195,,69,47,334,,84,11,264,*65
$GLGSV,3,3,10,85,09,313,,67,09,111,*68
$GPGSA,A,3,01,03,09,11,16,22,23,26,31,,,,1.2,0.9,0.8*3B
$GPVTG,317.2,T,317.2,M,23.3,N,43.2,K,A*24
$GPRMC,002140,A,3720.221919,N,12155.104377,W,23.3,317.2,011216,0.0,E,A*3C
$GPGGA,002140,3720.221919,N,12155.104377,W,1,09,0.9,53.0,M,-27.0,M,,*4B
$GPGSV,3,1,12,01,34,217,28,03,70,316,21,09,09,274,19,11,10,209,26*74
$GPGSV,3,2,12,14,23,067,19,16,18,142,19,22,86,202,21,23,42,289,25*79
$GPGSV,3,3,12,26,31,112,22,31,38,045,23,25,00,000,,32,00,000,*71
$GLGSV,3,1,10,78,56,050,23,79,64,158,22,68,54,074,30,70,00,000,*66
$GLGSV,3,2,10,77,06,025,,80,11,195,,69,47,334,,84,11,264,*65
$GLGSV,3,3,10,85,09,313,,67,09,111,*68
$GPGSV,3,1,12,01,34,217,28,03,70,316,21,09,09,274,19,11,10,209,26*74
$GPGSV,3,2,12,14,23,067,19,16,18,142,19,22,86,202,21,23,42,289,25*79
$GPGSV,3,3,12,26,31,112,22,31,38,045,23,25,00,000,,32,00,000,*71
$GLGSV,3,1,10,78,56,050,23,79,64,158,22,68,54,074,30,70,00,000,*66
$GLGSV,3,2,10,77,06,025,,80,11,195,,69,47,334,,84,11,264,*65
$GLGSV,3,3,10,85,09,313,,67,09,111,*68
$GPGSA,A,3,01,03,09,11,14,16,22,23,26,31,,,1.1,0.8,0.8*3C
$GPVTG,315.0,T,315.0,M,22.4,N,41.4,K,A*26
$GPRMC,002141,A,3720.226376,N,12155.111199,W,22.4,315.0,011216,0.0,E,A*39
$GPGGA,002141,3720.226376,N,12155.111199,W,1,10,0.8,15.0,M,-27.0,M,,*43
$GPGSV,3,1,12,01,34,217,25,03,70,316,21,09,09,274,18,11,10,209,22*7C
$GPGSV,3,2,12,14,23,067,18,16,18,142,19,22,86,202,20,23,42,289,27*7B
$GPGSV,3,3,12,26,31,112,19,31,38,045,19,25,00,000,,32,00,000,*70
$GLGSV,3,1,10,78,56,050,20,79,64,158,18,68,54,074,30,70,00,000,*6C
$GLGSV,3,2,10,77,06,025,,80,11,195,,69,47,334,,84,11,264,*65
$GLGSV,3,3,10,85,09,313,,67,09,111,*68
$GPGSV,3,1,12,01,34,217,25,03,70,316,21,09,09,274,18,11,10,209,22*7C
$GPGSV,3,2,12,14,23,067,18,16,18,142,19,22,86,202,20,23,42,289,27*7B
$GPGSV,3,3,12,26,31,112,19,31,38,045,19,25,00,000,,32,00,000,*70
$GLGSV,3,1,10,78,56,050,20,79,64,158,18,68,54,074,30,70,00,000,*6C
$GLGSV,3,2,10,77,06,025,,80,11,195,,69,47,334,,84,11,264,*65
$GLGSV,3,3,10,85,09,313,,67,09,111,*68
$GPGSA,A,3,01,03,09,11,14,16,22,23,26,31,,,1.1,0.8,0.7*33
$GPVTG,319.9,T,319.9,M,13.1,N,24.3,K,A*25
$GPRMC,002142,A,3720.225682,N,12155.110011,W,13.1,319.9,011216,0.0,E,A*35
$GPGGA,002142,3720.225682,N,12155.110011,W,1,10,0.8,16.0,M,-27.0,M,,*4E
$GPGSV,3,1,12,01,34,217,25,03,70,316,21,09,09,274,17,11,10,209,22*73
$GPGSV,3,2,12,14,23,067,18,16,18,142,19,22,86,202,19,23,42,289,27*71
$GPGSV,3,3,12,26,31,112,19,31,38,045,20,25,00,000,,32,00,000,*7A
$GLGSV,3,1,10,78,56,050,24,79,64,158,18,69,47,334,16,67,09,111,15*62
$GLGSV,3,2,10,68,54,074,29,70,00,000,,77,06,025,,80,11,195,*61
$GLGSV,3,3,10,84,11,264,,85,09,313,*6D
$GPGSV,3,1,12,01,34,217,25,03,70,316,21,09,09,274,17,11,10,209,22*73
$GPGSV,3,2,12,14,23,067,18,16,18,142,19,22,86,202,19,23,42,289,27*71
$GPGSV,3,3,12,26,31,112,19,31,38,045,20,25,00,000,,32,00,000,*7A
$GLGSV,3,1,10,78,56,050,24,79,64,158,18,69,47,334,16,67,09,111,15*62
$GLGSV,3,2,10,68,54,074,29,70,00,000,,77,06,025,,80,11,195,*61
$GLGSV,3,3,10,84,11,264,,85,09,313,*6D
$GPGSA,A,3,01,03,09,11,14,16,22,23,26,31,,,1.0,0.7,0.7*3D
$GPVTG,316.7,T,316.7,M,13.6,N,25.2,K,A*22
$GPRMC,002143,A,3720.228779,N,12155.114772,W,13.6,316.7,011216,0.0,E,A*3C
$GPGGA,002143,3720.228779,N,12155.114772,W,1,10,0.7,15.0,M,-27.0,M,,*4D
$GPGSV,3,1,12,01,34,217,25,03,70,316,23,09,09,274,17,11,10,209,22*71
$GPGSV,3,2,12,14,23,067,17,16,18,142,19,22,86,202,23,23,42,289,27*77
$GPGSV,3,3,12,26,31,112,18,31,38,045,17,25,00,000,,32,00,000,*7F
$GLGSV,3,1,10,78,56,050,21,80,11,195,15,79,64,158,16,69,47,334,14*67
$GLGSV,3,2,10,84,11,264,14,67,09,111,15,68,54,074,28,70,00,000,*60
$GLGSV,3,3,10,77,06,025,,85,09,313,*60
$GPGSV,3,1,12,01,34,217,25,03,70,316,23,09,09,274,17,11,10,209,22*71
$GPGSV,3,2,12,14,23,067,17,16,18,142,19,22,86,202,23,23,42,289,27*77
$GPGSV,3,3,12,26,31,112,18,31,38,045,17,25,00,000,,32,00,000,*7F
$GLGSV,3,1,10,78,56,050,21,80,11,195,15,79,64,158,16,69,47,334,14*67
$GLGSV,3,2,10,84,11,264,14,67,09,111,15,68,54,074,28,70,00,000,*60
$GLGSV,3,3,10,77,06,025,,85,09,313,*60
$GPGSA,A,3,01,03,09,11,14,16,22,23,26,31,,,1.0,0.7,0.7*3D
$GPVTG,324.6,T,324.6,M,11.2,N,20.7,K,A*24
$GPRMC,002144,A,3720.231426,N,12155.116133,W,11.2,324.6,011216,0.0,E,A*3D
$GPGGA,002144,3720.231426,N,12155.116133,W,1,10,0.7,15.0,M,-27.0,M,,*4A
$GPGSV,3,1,12,01,34,217,24,03,70,316,23,09,09,274,17,11,10,209,22*70
$GPGSV,3,2,12,14,23,067,17,16,18,142,18,22,86,202,26,23,42,289,29*7D
$GPGSV,3,3,12,26,31,112,17,31,38,045,16,25,00,000,,32,00,000,*71
$GLGSV,3,1,10,78,56,050,26,80,11,195,16,79,64,158,21,69,47,334,13*60
$GLGSV,3,2,10,84,11,264,13,67,09,111,15,68,54,074,31,70,00,000,*6F
$GLGSV,3,3,10,77,06,025,,85,09,313,*60
$GPGSV,3,1,12,01,34,217,24,03,70,316,23,09,09,274,17,11,10,209,22*70
$GPGSV,3,2,12,14,23,067,17,16,18,142,18,22,86,202,26,23,42,289,29*7D
$GPGSV,3,3,12,26,31,112,17,31,38,045,16,25,00,000,,32,00,000,*71
$GLGSV,3,1,10,78,56,050,26,80,11,195,16,79,64,158,21,69,47,334,13*60
$GLGSV,3,2,10,84,11,264,13,67,09,111,15,68,54,074,31,70,00,000,*6F
$GLGSV,3,3,10,77,06,025,,85,09,313,*60
$GPGSA,A,3,01,03,09,11,14,16,22,23,26,31,,,1.0,0.7,0.7*3D
$GPVTG,344.6,T,344.6,M,9.2,N,17.1,K,A*1F
$GPRMC,002145,A,3720.233684,N,12155.114733,W,9.2,344.6,011216,0.0,E,A*0F
$GPGGA,002145,3720.233684,N,12155.114733,W,1,10,0.7,19.0,M,-27.0,M,,*4B
$GPGSV,3,1,12,01,34,217,25,03,70,316,21,09,09,274,16,11,10,209,14*77
$GPGSV,3,2,12,14,23,067,17,16,18,142,18,22,86,202,25,23,42,289,27*70
$GPGSV,3,3,12,26,31,112,19,31,38,045,17,25,00,000,,32,00,000,*7E
$GLGSV,3,1,10,78,56,050,26,80,11,195,16,79,64,158,21,69,47,334,14*67
$GLGSV,3,2,10,84,11,264,13,67,09,111,13,68,54,074,30,70,00,000,*68
$GLGSV,3,3,10,77,06,025,,85,09,313,*60
$GPGSV,3,1,12,01,34,217,25,03,70,316,21,09,09,274,16,11,10,209,14*77
$GPGSV,3,2,12,14,23,067,17,16,18,142,18,22,86,202,25,23,42,289,27*70
$GPGSV,3,3,12,26,31,112,19,31,38,045,17,25,00,000,,32,00,000,*7E
$GLGSV,3,1,10,78,56,050,26,80,11,195,16,79,64,158,21,69,47,334,14*67
$GLGSV,3,2,10,84,11,264,13,67,09,111,13,68,54,074,30,70,00,000,*68
$GLGSV,3,3,10,77,06,025,,85,09,313,*60
$GPGSA,A,3,01,03,09,11,14,16,22,23,26,31,,,1.0,0.7,0.7*3D
$GPVTG,9.4,T,9.4,M,7.8,N,14.4,K,A*1D
$GPRMC,002146,A,3720.235666,N,12155.110980,W,7.8,9.4,011216,0.0,E,A*08
$GPGGA,002146,3720.235666,N,12155.110980,W,1,10,0.7,16.0,M,-27.0,M,,*4F
$GPGSV,3,1,12,01,34,217,27,03,70,316,22,09,09,274,16,11,10,209,14*76
$GPGSV,3,2,12,14,23,067,17,16,18,142,23,22,86,202,26,23,42,289,24*78
$GPGSV,3,3,12,26,31,112,18,31,38,045,20,25,00,000,,32,00,000,*7B
$GLGSV,3,1,10,78,56,050,27,80,11,195,16,79,64,158,25,69,47,334,14*62
$GLGSV,3,2,10,84,11,264,12,67,09,111,15,68,54,074,30,70,00,000,*6F
$GLGSV,3,3,10,77,06,025,,85,09,313,*60
$GPGSV,3,1,12,01,34,217,27,03,70,316,22,09,09,274,16,11,10,209,14*76
$GPGSV,3,2,12,14,23,067,17,16,18,142,23,22,86,202,26,23,42,289,24*78
$GPGSV,3,3,12,26,31,112,18,31,38,045,20,25,00,000,,32,00,000,*7B
$GLGSV,3,1,10,78,56,050,27,80,11,195,16,79,64,158,25,69,47,334,14*62
$GLGSV,3,2,10,84,11,264,12,67,09,111,15,68,54,074,30,70,00,000,*6F
$GLGSV,3,3,10,77,06,025,,85,09,313,*60
$GPGSA,A,3,01,03,09,11,14,16,22,23,26,31,,,1.0,0.7,0.7*3D
$GPVTG,335.8,T,335.8,M,3.4,N,6.3,K,A*21
$GPRMC,002147,A,3720.233410,N,12155.113344,W,3.4,335.8,011216,0.0,E,A*05
$GPGGA,002147,3720.233410,N,12155.113344,W,1,10,0.7,16.0,M,-27.0,M,,*4A
$GPGSV,3,1,12,01,34,217,26,03,70,316,21,09,09,274,15,11,10,209,14*77
$GPGSV,3,2,12,14,23,067,16,16,18,142,23,22,86,202,26,23,42,289,26*7B
$GPGSV,3,3,12,26,31,112,18,31,38,045,18,25,00,000,,32,00,000,*70
$GLGSV,3,1,10,78,56,050,26,80,11,195,16,79,64,158,21,69,47,334,14*67
$GLGSV,3,2,10,84,11,264,12,67,09,111,15,68,54,074,32,70,00,000,*6D
$GLGSV,3,3,10,77,06,025,,85,09,313,*60
$GPGSV,3,1,12,01,34,217,26,03,70,316,21,09,09,274,15,11,10,209,14*77
$GPGSV,3,2,12,14,23,067,16,16,18,142,23,22,86,202,26,23,42,289,26*7B
$GPGSV,3,3,12,26,31,112,18,31,38,045,18,25,00,000,,32,00,000,*70
$GLGSV,3,1,10,78,56,050,26,80,11,195,16,79,64,158,21,69,47,334,14*67
$GLGSV,3,2,10,84,11,264,12,67,09,111,15,68,54,074,32,70,00,000,*6D
$GLGSV,3,3,10,77,06,025,,85,09,313,*60
$GPGSA,A,3,01,03,09,11,14,16,22,23,26,31,,,1.0,0.7,0.7*3D
$GPVTG,,T,,M,0.0,N,0.0,K,A*23
$GPRMC,002148,A,3720.231113,N,12155.112695,W,0.0,,011216,0.0,E,A*22
$GPGGA,002148,3720.231113,N,12155.112695,W,1,10,0.7,16.0,M,-27.0,M,,*49
$GPGSV,3,1,12,01,34,217,27,03,70,316,20,09,09,274,15,11,10,209,14*77
$GPGSV,3,2,12,14,23,067,16,16,18,142,24,22,86,199,27,23,42,289,26*7C
$GPGSV,3,3,12,26,31,111,16,31,38,045,19,25,00,000,,32,00,000,*7C
$GLGSV,3,1,10,78,56,050,27,80,11,195,17,79,64,158,20,69,47,334,14*66
$GLGSV,3,2,10,84,11,264,13,85,09,313,14,67,09,111,15,68,54,074,31*68
$GLGSV,3,3,10,70,00,000,,77,06,025,*62
$GPGSV,3,1,12,01,34,217,27,03,70,316,20,09,09,274,15,11,10,209,14*77
$GPGSV,3,2,12,14,23,067,16,16,18,142,24,22,86,199,27,23,42,289,26*7C
$GPGSV,3,3,12,26,31,111,16,31,38,045,19,25,00,000,,32,00,000,*7C
$GLGSV,3,1,10,78,56,050,27,80,11,195,17,79,64,158,20,69,47,334,14*66
$GLGSV,3,2,10,84,11,264,13,85,09,313,14,67,09,111,15,68,54,074,31*68
$GLGSV,3,3,10,70,00,000,,77,06,025,*62
$GPGSA,A,3,01,03,09,11,14,16,22,23,26,31,,,1.0,0.7,0.7*3D
$GPVTG,335.8,T,335.8,M,0.5,N,0.9,K,A*2F
$GPRMC,002149,A,3720.229820,N,12155.112162,W,0.5,335.8,011216,0.0,E,A*0A
$GPGGA,002149,3720.229820,N,12155.112162,W,1,10,0.7,12.0,M,-27.0,M,,*43
$GPGSV,3,1,12,01,34,217,26,03,70,316,21,09,09,274,15,11,10,209,14*77
$GPGSV,3,2,12,14,23,067,16,16,18,142,22,22,86,199,26,23,42,289,26*7B
$GPGSV,3,3,12,26,31,111,16,31,38,045,20,25,00,000,,32,00,000,*76
$GLGSV,3,1,10,78,56,049,27,80,11,195,17,79,64,158,20,69,47,336,14*6C
$GLGSV,3,2,10,84,11,264,13,85,09,313,14,67,09,111,15,68,54,074,32*6B
$GLGSV,3,3,10,70,00,000,,77,05,025,*61
$GPGSV,3,1,12,01,34,217,26,03,70,316,21,09,09,274,15,11,10,209,14*77
$GPGSV,3,2,12,14,23,067,16,16,18,142,22,22,86,199,26,23,42,289,26*7B
$GPGSV,3,3,12,26,31,111,16,31,38,045,20,25,00,000,,32,00,000,*76
$GLGSV,3,1,10,78,56,049,27,80,11,195,17,79,64,158,20,69,47,336,14*6C
$GLGSV,3,2,10,84,11,264,13,85,09,313,14,67,09,111,15,68,54,074,32*6B
$GLGSV,3,3,10,70,00,000,,77,05,025,*61
$GPGSA,A,3,01,03,09,11,14,16,22,23,26,31,,,1.0,0.7,0.7*3D
$GPVTG,,T,,M,0.0,N,0.0,K,A*23
$GPRMC,002150,A,3720.229820,N,12155.111732,W,0.0,,011216,0.0,E,A*24
$GPGGA,002150,3720.229820,N,12155.111732,W,1,10,0.7,13.0,M,-27.0,M,,*4A
$GPGSV,3,1,12,01,34,217,25,03,70,316,21,09,09,274,15,11,10,209,14*74
$GPGSV,3,2,12,14,23,067,16,16,18,142,22,22,86,199,26,23,42,289,25*78
$GPGSV,3,3,12,26,31,111,16,31,38,045,17,25,00,000,,32,00,000,*72
$GLGSV,3,1,10,78,56,049,27,80,11,195,18,79,64,158,20,69,47,336,14*63
$GLGSV,3,2,10,84,11,264,13,85,09,313,14,67,09,111,15,68,54,074,32*6B
$GLGSV,3,3,10,70,00,000,,77,05,025,*61
$GPGSV,3,1,12,01,34,217,25,03,70,316,21,09,09,274,15,11,10,209,14*74
$GPGSV,3,2,12,14,23,067,16,16,18,142,22,22,86,199,26,23,42,289,25*78
$GPGSV,3,3,12,26,31,111,16,31,38,045,17,25,00,000,,32,00,000,*72
$GLGSV,3,1,10,78,56,049,27,80,11,195,18,79,64,158,20,69,47,336,14*63
$GLGSV,3,2,10,84,11,264,13,85,09,313,14,67,09,111,15,68,54,074,32*6B
$GLGSV,3,3,10,70,00,000,,77,05,025,*61
$GPGSA,A,3,01,03,09,11,14,16,22,23,26,31,,,1.0,0.7,0.7*3D
$GPVTG,,T,,M,0.0,N,0.0,K,A*23
$GPRMC,002151,A,3720.229652,N,12155.111699,W,0.0,,011216,0.0,E,A*2E
$GPGGA,002151,3720.229652,N,12155.111699,W,1,10,0.7,13.0,M,-27.0,M,,*40
$GPGSV,3,1,12,01,34,217,26,03,70,316,25,09,09,274,15,11,10,209,14*73
$GPGSV,3,2,12,14,23,067,16,16,18,142,20,22,86,199,26,23,42,289,26*79
$GPGSV,3,3,12,26,31,111,19,31,38,045,17,25,00,000,,32,00,000,*7D
$GLGSV,3,1,10,78,56,049,26,80,11,195,19,79,64,158,15,69,47,336,14*65
$GLGSV,3,2,10,84,11,264,14,85,09,313,14,67,09,111,15,68,54,074,32*6C
$GLGSV,3,3,10,70,00,000,,77,05,025,*61
$GPGSV,3,1,12,01,34,217,26,03,70,316,25,09,09,274,15,11,10,209,14*73
$GPGSV,3,2,12,14,23,067,16,16,18,142,20,22,86,199,26,23,42,289,26*79
$GPGSV,3,3,12,26,31,111,19,31,38,045,17,25,00,000,,32,00,000,*7D
$GLGSV,3,1,10,78,56,049,26,80,11,195,19,79,64,158,15,69,47,336,14*65
$GLGSV,3,2,10,84,11,264,14,85,09,313,14,67,09,111,15,68,54,074,32*6C
$GLGSV,3,3,10,70,00,000,,77,05,025,*61
$GPGSA,A,3,01,03,09,11,14,16,22,23,26,31,,,1.0,0.7,0.7*3D
$GPVTG,,T,,M,0.0,N,0.0,K,A*23
$GPRMC,002152,A,3720.229452,N,12155.111513,W,0.0,,011216,0.0,E,A*2E
$GPGGA,002152,3720.229452,N,12155.111513,W,1,10,0.7,11.0,M,-27.0,M,,*42
$GPGSV,3,1,12,01,34,217,26,03,70,316,24,09,09,274,18,11,10,209,14*7F
$GPGSV,3,2,12,14,23,067,16,16,18,142,20,22,86,199,30,23,42,289,28*70
$GPGSV,3,3,12,26,31,111,19,31,38,045,25,25,00,000,,32,00,000,*7C
$GLGSV,3,1,10,78,56,049,25,80,11,195,22,79,64,158,15,69,47,336,14*6E
$GLGSV,3,2,10,84,11,264,18,85,09,313,14,67,09,111,21,68,54,074,32*67
$GLGSV,3,3,10,70,00,000,,77,05,025,*61
$GPGSV,3,1,12,01,34,217,26,03,70,316,24,09,09,274,18,11,10,209,14*7F
$GPGSV,3,2,12,14,23,067,16,16,18,142,20,22,86,199,30,23,42,289,28*70
$GPGSV,3,3,12,26,31,111,19,31,38,045,25,25,00,000,,32,00,000,*7C
$GLGSV,3,1,10,78,56,049,25,80,11,195,22,79,64,158,15,69,47,336,14*6E
$GLGSV,3,2,10,84,11,264,18,85,09,313,14,67,09,111,21,68,54,074,32*67
$GLGSV,3,3,10,70,00,000,,77,05,025,*61
$GPGSA,A,3,01,03,09,11,14,16,22,23,26,31,,,1.0,0.8,0.7*32
$GPVTG,,T,,M,0.0,N,0.0,K,A*23
$GPRMC,002153,A,3720.229650,N,12155.111102,W,0.0,,011216,0.0,E,A*2B
$GPGGA,002153,3720.229650,N,12155.111102,W,1,10,0.8,12.0,M,-27.0,M,,*4B
$GPGSV,3,1,12,01,34,217,25,03,70,316,23,09,09,274,18,11,10,209,14*7B
$GPGSV,3,2,12,14,23,067,21,16,18,142,20,22,86,199,31,23,42,289,28*75
$GPGSV,3,3,12,26,31,111,19,31,38,045,29,25,00,000,,32,00,000,*70
$GLGSV,3,1,10,78,56,049,24,80,11,195,21,79,64,158,23,69,47,336,14*69
$GLGSV,3,2,10,84,11,264,19,85,09,313,18,67,09,111,21,68,54,074,33*6B
$GLGSV,3,3,10,70,00,000,,77,05,025,*61
$GPGSV,3,1,12,01,34,217,25,03,70,316,23,09,09,274,18,11,10,209,14*7B
$GPGSV,3,2,12,14,23,067,21,16,18,142,20,22,86,199,31,23,42,289,28*75
$GPGSV,3,3,12,26,31,111,19,31,38,045,29,25,00,000,,32,00,000,*70
$GLGSV,3,1,10,78,56,049,24,80,11,195,21,79,64,158,23,69,47,336,14*69
$GLGSV,3,2,10,84,11,264,19,85,09,313,18,67,09,111,21,68,54,074,33*6B
$GLGSV,3,3,10,70,00,000,,77,05,025,*61
$GPGSA,A,3,01,03,09,11,14,16,22,23,26,31,,,1.0,0.8,0.7*32
$GPVTG,,T,,M,0.0,N,0.0,K,A*23
$GPRMC,002154,A,3720.229347,N,12155.111325,W,0.0,,011216,0.0,E,A*28
$GPGGA,002154,3720.229347,N,12155.111325,W,1,10,0.8,13.0,M,-27.0,M,,*49
$GPGSV,3,1,12,01,34,217,26,03,70,316,22,09,09,274,18,11,10,209,14*79
$GPGSV,3,2,12,14,23,067,22,16,18,142,20,22,86,199,32,23,42,289,26*7B
$GPGSV,3,3,12,26,31,111,19,31,38,045,29,25,00,000,,32,00,000,*70
$GLGSV,3,1,10,78,56,049,23,80,11,195,24,79,64,158,27,69,47,336,14*6F
$GLGSV,3,2,10,84,11,264,21,85,09,313,22,67,09,111,21,68,54,074,32*68
$GLGSV,3,3,10,70,00,000,,77,05,025,*61
$GPGSV,3,1,12,01,34,217,26,03,70,316,22,09,09,274,18,11,10,209,14*79
$GPGSV,3,2,12,14,23,067,22,16,18,142,20,22,86,199,32,23,42,289,26*7B
$GPGSV,3,3,12,26,31,111,19,31,38,045,29,25,00,000,,32,00,000,*70
$GLGSV,3,1,10,78,56,049,23,80,11,195,24,79,64,158,27,69,47,336,14*6F
$GLGSV,3,2,10,84,11,264,21,85,09,313,22,67,09,111,21,68,54,074,32*68
$GLGSV,3,3,10,70,00,000,,77,05,025,*61
$GPGSA,A,3,01,03,09,11,14,16,22,23,26,31,,,1.0,0.8,0.7*32
$GPVTG,,T,,M,0.0,N,0.0,K,A*23
$GPRMC,002155,A,3720.229227,N,12155.111200,W,0.0,,011216,0.0,E,A*28
$GPGGA,002155,3720.229227,N,12155.111200,W,1,10,0.8,13.0,M,-27.0,M,,*49
$GPGSV,3,1,12,01,34,217,28,03,70,316,25,09,09,274,17,14,23,067,21*76
$GPGSV,3,2,12,16,18,142,13,22,86,199,32,23,42,289,29,26,31,111,19*7E
$GPGSV,3,3,12,31,38,045,25,11,10,209,,25,00,000,,32,00,000,*79
$GLGSV,3,1,10,78,56,049,23,80,11,195,23,79,64,158,27,69,47,336,14*68
$GLGSV,3,2,10,84,11,264,19,85,09,313,23,67,09,111,21,68,54,074,32*62
$GLGSV,3,3,10,70,00,000,,77,05,025,*61
$GPGSV,3,1,12,01,34,217,28,03,70,316,25,09,09,274,17,14,23,067,21*76
$GPGSV,3,2,12,16,18,142,13,22,86,199,32,23,42,289,29,26,31,111,19*7E
$GPGSV,3,3,12,31,38,045,25,11,10,209,,25,00,000,,32,00,000,*79
$GLGSV,3,1,10,78,56,049,23,80,11,195,23,79,64,158,27,69,47,336,14*68
$GLGSV,3,2,10,84,11,264,19,85,09,313,23,67,09,111,21,68,54,074,32*62
$GLGSV,3,3,10,70,00,000,,77,05,025,*61
$GPGSA,A,3,01,03,09,14,16,22,23,26,31,,,,1.0,0.8,0.7*32
$GPVTG,,T,,M,0.0,N,0.0,K,A*23
$GPRMC,002156,A,3720.229011,N,12155.110956,W,0.0,,011216,0.0,E,A*25
$GPGGA,002156,3720.229011,N,12155.110956,W,1,09,0.8,14.0,M,-27.0,M,,*4B
$GPGSV,3,1,12,01,34,217,27,03,70,316,25,09,09,274,18,14,23,067,19*7D
$GPGSV,3,2,12,16,18,142,22,22,86,199,29,23,42,289,28,26,31,111,16*78
$GPGSV,3,3,12,31,38,045,22,11,10,209,,25,00,000,,32,00,000,*7E
$GLGSV,3,1,10,78,56,049,26,80,11,195,23,79,64,158,24,69,47,336,14*6E
$GLGSV,3,2,10,84,11,264,19,85,09,313,20,67,09,111,15,68,54,074,34*60
$GLGSV,3,3,10,70,00,000,,77,05,025,*61
$GPGSV,3,1,12,01,34,217,27,03,70,316,25,09,09,274,18,14,23,067,19*7D
$GPGSV,3,2,12,16,18,142,22,22,86,199,29,23,42,289,28,26,31,111,16*78
$GPGSV,3,3,12,31,38,045,22,11,10,209,,25,00,000,,32,00,000,*7E
$GLGSV,3,1,10,78,56,049,26,80,11,195,23,79,64,158,24,69,47,336,14*6E
$GLGSV,3,2,10,84,11,264,19,85,09,313,20,67,09,111,15,68,54,074,34*60
$GLGSV,3,3,10,70,00,000,,77,05,025,*61
$GPGSA,A,3,01,03,09,14,16,22,23,26,31,,,,1.0,0.8,0.7*32
$GPVTG,,T,,M,0.0,N,0.0,K,A*23
$GPRMC,002157,A,3720.229424,N,12155.111174,W,0.0,,011216,0.0,E,A*2F
$GPGGA,002157,3720.229424,N,12155.111174,W,1,09,0.8,14.0,M,-27.0,M,,*41
$GPGSV,3,1,12,01,34,217,27,03,70,316,25,09,09,274,18,14,23,067,19*7D
$GPGSV,3,2,12,16,18,142,21,22,86,199,23,23,42,289,26,26,31,111,16*7F
$GPGSV,3,3,12,31,38,045,22,11,10,209,,25,00,000,,32,00,000,*7E
$GLGSV,3,1,10,78,56,049,28,80,11,195,23,79,64,158,20,69,47,336,14*64
$GLGSV,3,2,10,84,11,264,18,85,09,313,20,67,09,111,19,68,54,074,32*6B
$GLGSV,3,3,10,70,00,000,,77,05,025,*61
$GPGSV,3,1,12,01,34,217,27,03,70,316,25,09,09,274,18,14,23,067,19*7D
$GPGSV,3,2,12,16,18,142,21,22,86,199,23,23,42,289,26,26,31,111,16*7F
$GPGSV,3,3,12,31,38,045,22,11,10,209,,25,00,000,,32,00,000,*7E
$GLGSV,3,1,10,78,56,049,28,80,11,195,23,79,64,158,20,69,47,336,14*64
$GLGSV,3,2,10,84,11,264,18,85,09,313,20,67,09,111,19,68,54,074,32*6B
$GLGSV,3,3,10,70,00,000,,77,05,025,*61
$GPGSA,A,3,01,03,09,14,16,22,23,26,31,,,,1.0,0.8,0.7*32
$GPVTG,,T,,M,0.0,N,0.0,K,A*23
$GPRMC,002158,A,3720.229322,N,12155.110886,W,0.0,,011216,0.0,E,A*24
$GPGGA,002158,3720.229322,N,12155.110886,W,1,09,0.8,14.0,M,-27.0,M,,*4A
$GPGSV,3,1,12,01,34,217,25,03,70,316,25,09,09,274,18,14,23,067,16*70
$GPGSV,3,2,12,16,18,142,21,22,86,199,25,23,42,289,23,26,31,111,16*7C
$GPGSV,3,3,12,31,38,045,20,11,10,209,,25,00,000,,32,00,000,*7C
$GLGSV,3,1,10,78,56,049,24,80,11,195,19,79,64,158,19,69,47,336,14*6B
$GLGSV,3,2,10,84,11,264,18,85,09,313,20,67,09,111,19,68,54,074,30*69
$GLGSV,3,3,10,70,00,000,,77,05,025,*61
$GPGSV,3,1,12,01,34,217,25,03,70,316,25,09,09,274,18,14,23,067,16*70
$GPGSV,3,2,12,16,18,142,21,22,86,199,25,23,42,289,23,26,31,111,16*7C
$GPGSV,3,3,12,31,38,045,20,11,10,209,,25,00,000,,32,00,000,*7C
$GLGSV,3,1,10,78,56,049,24,80,11,195,19,79,64,158,19,69,47,336,14*6B
$GLGSV,3,2,10,84,11,264,18,85,09,313,20,67,09,111,19,68,54,074,30*69
$GLGSV,3,3,10,70,00,000,,77,05,025,*61
$GPGSA,A,3,01,03,09,14,16,22,23,26,31,,,,1.0,0.8,0.7*32
$GPVTG,,T,,M,0.0,N,0.0,K,A*23
$GPRMC,002159,A,3720.228919,N,12155.110761,W,0.0,,011216,0.0,E,A*20
$GPGGA,002159,3720.228919,N,12155.110761,W,1,09,0.8,15.0,M,-27.0,M,,*4F
$GPGSV,3,1,12,01,34,217,22,03,70,316,17,09,09,274,18,14,23,067,16*76
$GPGSV,3,2,12,16,18,142,20,22,86,199,22,23,42,289,17,26,31,111,14*7F
$GPGSV,3,3,12,31,38,045,29,11,10,209,,25,00,000,,32,00,000,*75
$GLGSV,3,1,10,78,56,049,26,80,11,195,19,79,64,158,19,69,47,336,14*69
$GLGSV,3,2,10,84,11,264,17,85,09,313,20,67,09,111,19,68,54,074,31*67
$GLGSV,3,3,10,70,00,000,,77,05,025,*61
$GPGSV,3,1,12,01,34,217,22,03,70,316,17,09,09,274,18,14,23,067,16*76
$GPGSV,3,2,12,16,18,142,20,22,86,199,22,23,42,289,17,26,31,111,14*7F
$GPGSV,3,3,12,31,38,045,29,11,10,209,,25,00,000,,32,00,000,*75
$GLGSV,3,1,10,78,56,049,26,80,11,195,19,79,64,158,19,69,47,336,14*69
$GLGSV,3,2,10,84,11,264,17,85,09,313,20,67,09,111,19,68,54,074,31*67
$GLGSV,3,3,10,70,00,000,,77,05,025,*61
$GPGSA,A,3,01,03,09,14,16,22,23,26,31,,,,1.0,0.8,0.7*32
$GPVTG,,T,,M,0.0,N,0.0,K,A*23
$GPRMC,002200,A,3720.229071,N,12155.110723,W,0.0,,011216,0.0,E,A*2F
$GPGGA,002200,3720.229071,N,12155.110723,W,1,09,0.8,14.0,M,-27.0,M,,*41
$GPGSV,3,1,12,01,34,217,22,03,70,316,22,09,09,274,15,14,23,067,16*7D
$GPGSV,3,2,12,16,18,142,20,22,86,199,21,23,42,289,17,26,31,111,14*7C
$GPGSV,3,3,12,31,38,045,21,11,10,209,,25,00,000,,32,00,000,*7D
$GLGSV,3,1,10,78,56,049,26,80,11,195,19,79,64,158,23,69,47,336,14*60
$GLGSV,3,2,10,84,11,264,17,85,09,313,13,67,09,111,19,68,54,074,28*6F
$GLGSV,3,3,10,70,00,000,,77,05,025,*61
$GPGSV,3,1,12,01,34,217,22,03,70,316,22,09,09,274,15,14,23,067,16*7D
$GPGSV,3,2,12,16,18,142,20,22,86,199,21,23,42,289,17,26,31,111,14*7C
$GPGSV,3,3,12,31,38,045,21,11,10,209,,25,00,000,,32,00,000,*7D
$GLGSV,3,1,10,78,56,049,26,80,11,195,19,79,64,158,23,69,47,336,14*60
$GLGSV,3,2,10,84,11,264,17,85,09,313,13,67,09,111,19,68,54,074,28*6F
$GLGSV,3,3,10,70,00,000,,77,05,025,*61
$GPGSA,A,3,01,03,09,14,16,22,23,26,31,,,,1.0,0.7,0.7*3D
$GPVTG,,T,,M,0.0,N,0.0,K,A*23
$GPRMC,002201,A,3720.229117,N,12155.110657,W,0.0,,011216,0.0,E,A*2D
$GPGGA,002201,3720.229117,N,12155.110657,W,1,09,0.7,14.0,M,-27.0,M,,*4C
$GPGSV,3,1,12,01,34,217,25,03,70,316,24,09,09,274,19,14,23,067,20*75
$GPGSV,3,2,12,16,18,142,19,22,86,199,28,23,42,289,22,26,31,111,14*79
$GPGSV,3,3,12,31,38,045,23,11,10,209,,25,00,000,,32,00,000,*7F
$GLGSV,3,1,10,78,56,049,15,80,11,195,19,79,64,158,22,69,47,336,12*67
$GLGSV,3,2,10,84,11,264,17,85,09,313,13,67,09,111,19,68,54,074,29*6E
$GLGSV,3,3,10,70,00,000,,77,05,025,*61
$GPGSV,3,1,12,01,34,217,25,03,70,316,24,09,09,274,19,14,23,067,20*75
$GPGSV,3,2,12,16,18,142,19,22,86,199,28,23,42,289,22,26,31,111,14*79
$GPGSV,3,3,12,31,38,045,23,11,10,209,,25,00,000,,32,00,000,*7F
$GLGSV,3,1,10,78,56,049,15,80,11,195,19,79,64,158,22,69,47,336,12*67
$GLGSV,3,2,10,84,11,264,17,85,09,313,13,67,09,111,19,68,54,074,29*6E
$GLGSV,3,3,10,70,00,000,,77,05,025,*61
$GPGSA,A,3,01,03,09,14,16,22,23,26,31,,,,1.0,0.7,0.7*3D
$GPVTG,,T,,M,0.0,N,0.0,K,A*23
$GPRMC,002202,A,3720.229104,N,12155.110788,W,0.0,,011216,0.0,E,A*2F
$GPGGA,002202,3720.229104,N,12155.110788,W,1,09,0.7,14.0,M,-27.0,M,,*4E
$GPGSV,3,1,12,01,34,217,25,03,70,316,23,09,09,274,19,14,23,067,20*72
$GPGSV,3,2,12,16,18,142,20,22,86,199,28,23,42,289,24,26,31,111,14*75
$GPGSV,3,3,12,31,38,045,21,11,10,209,,25,00,000,,32,00,000,*7D
$GLGSV,3,1,10,78,56,049,21,80,11,195,19,79,64,158,25,69,47,336,10*65
$GLGSV,3,2,10,84,11,264,17,85,09,313,18,67,09,111,14,68,54,074,29*68
$GLGSV,3,3,10,70,00,000,,77,05,025,*61
$GPGSV,3,1,12,01,34,217,25,03,70,316,23,09,09,274,19,14,23,067,20*72
$GPGSV,3,2,12,16,18,142,20,22,86,199,28,23,42,289,24,26,31,111,14*75
$GPGSV,3,3,12,31,38,045,21,11,10,209,,25,00,000,,32,00,000,*7D
$GLGSV,3,1,10,78,56,049,21,80,11,195,19,79,64,158,25,69,47,336,10*65
$GLGSV,3,2,10,84,11,264,17,85,09,313,18,67,09,111,14,68,54,074,29*68
$GLGSV,3,3,10,70,00,000,,77,05,025,*61
$GPGSA,A,3,01,03,09,14,16,22,23,26,31,,,,1.0,0.7,0.7*3D
$GPVTG,,T,,M,0.0,N,0.0,K,A*23
$GPRMC,002203,A,3720.228951,N,12155.110797,W,0.0,,011216,0.0,E,A*29
$GPGGA,002203,3720.228951,N,12155.110797,W,1,09,0.7,14.0,M,-27.0,M,,*48
$GPGSV,3,1,12,01,34,217,25,03,70,316,23,09,09,274,19,14,23,067,18*79
$GPGSV,3,2,12,16,18,142,20,22,86,199,29,23,42,289,24,26,31,111,15*75
$GPGSV,3,3,12,31,38,045,19,11,10,209,,25,00,000,,32,00,000,*76
$GLGSV,3,1,10,78,56,049,21,80,11,195,19,79,64,158,24,69,47,336,12*66
$GLGSV,3,2,10,84,11,264,17,85,09,313,18,67,09,111,14,68,54,074,28*69
$GLGSV,3,3,10,70,00,000,,77,05,025,*61
$GPGSV,3,1,12,01,34,217,25,03,70,316,23,09,09,274,19,14,23,067,18*79
$GPGSV,3,2,12,16,18,142,20,22,86,199,29,23,42,289,24,26,31,111,15*75
$GPGSV,3,3,12,31,38,045,19,11,10,209,,25,00,000,,32,00,000,*76
$GLGSV,3,1,10,78,56,049,21,80,11,195,19,79,64,158,24,69,47,336,12*66
$GLGSV,3,2,10,84,11,264,17,85,09,313,18,67,09,111,14,68,54,074,28*69
$GLGSV,3,3,10,70,00,000,,77,05,025,*61
$GPGSA,A,3,01,03,09,14,16,22,23,26,31,,,,1.0,0.7,0.7*3D
$GPVTG,,T,,M,0.0,N,0.0,K,A*23
$GPRMC,002204,A,3720.228779,N,12155.110652,W,0.0,,011216,0.0,E,A*22
$GPGGA,002204,3720.228779,N,12155.110652,W,1,09,0.7,14.0,M,-27.0,M,,*43
$GPGSV,3,1,12,01,34,217,25,03,70,316,24,09,09,274,19,14,23,067,18*7E
$GPGSV,3,2,12,16,18,142,21,22,86,199,30,23,42,289,23,26,31,111,19*77
$GPGSV,3,3,12,31,38,045,17,11,10,209,,25,00,000,,32,00,000,*78
$GLGSV,3,1,10,78,56,049,22,80,11,195,19,79,64,158,23,69,47,336,12*62
$GLGSV,3,2,10,84,11,264,15,85,09,313,18,67,09,111,16,68,54,074,29*68
$GLGSV,3,3,10,70,00,000,,77,05,025,*61
$GPGSV,3,1,12,01,34,217,25,03,70,316,24,09,09,274,19,14,23,067,18*7E
$GPGSV,3,2,12,16,18,142,21,22,86,199,30,23,42,289,23,26,31,111,19*77
$GPGSV,3,3,12,31,38,045,17,11,10,209,,25,00,000,,32,00,000,*78
$GLGSV,3,1,10,78,56,049,22,80,11,195,19,79,64,158,23,69,47,336,12*62
$GLGSV,3,2,10,84,11,264,15,85,09,313,18,67,09,111,16,68,54,074,29*68
$GLGSV,3,3,10,70,00,000,,77,05,025,*61
$GPGSA,A,3,01,03,09,14,16,22,23,26,31,,,,1.0,0.7,0.7*3D
$GPVTG,,T,,M,0.0,N,0.0,K,A*23
$GPRMC,002205,A,3720.228731,N,12155.110607,W,0.0,,011216,0.0,E,A*2F
$GPGGA,002205,3720.228731,N,12155.110607,W,1,09,0.7,14.0,M,-27.0,M,,*4E
$GPGSV,3,1,12,01,34,217,26,03,70,316,23,09,09,274,15,14,23,067,17*79
$GPGSV,3,2,12,16,18,142,23,22,86,199,29,23,42,289,24,26,31,111,20*70
$GPGSV,3,3,12,31,38,045,18,11,10,209,,25,00,000,,32,00,000,*77
$GLGSV,3,1,10,78,56,049,22,80,11,195,19,79,64,158,21,69,47,336,18*6A
$GLGSV,3,2,10,84,11,264,15,85,09,313,18,67,09,111,16,68,54,074,29*68
$GLGSV,3,3,10,70,00,000,,77,05,025,*61
$GPGSV,3,1,12,01,34,217,26,03,70,316,23,09,09,274,15,14,23,067,17*79
$GPGSV,3,2,12,16,18,142,23,22,86,199,29,23,42,289,24,26,31,111,20*70
$GPGSV,3,3,12,31,38,045,18,11,10,209,,25,00,000,,32,00,000,*77
$GLGSV,3,1,10,78,56,049,22,80,11,195,19,79,64,158,21,69,47,336,18*6A
$GLGSV,3,2,10,84,11,264,15,85,09,313,18,67,09,111,16,68,54,074,29*68
$GLGSV,3,3,10,70,00,000,,77,05,025,*61
$GPGSA,A,3,01,03,09,14,16,22,23,26,31,,,,1.0,0.7,0.7*3D
$GPVTG,,T,,M,0.0,N,0.0,K,A*23
$GPRMC,002206,A,3720.229022,N,12155.110865,W,0.0,,011216,0.0,E,A*22
$GPGGA,002206,3720.229022,N,12155.110865,W,1,09,0.7,14.0,M,-27.0,M,,*43
$GPGSV,3,1,12,01,34,217,24,03,70,316,25,09,09,274,15,14,23,067,17*7D
$GPGSV,3,2,12,16,18,142,22,22,86,199,30,23,42,289,26,26,31,111,20*7B
$GPGSV,3,3,12,31,38,045,18,11,10,209,,25,00,000,,32,00,000,*77
$GLGSV,3,1,10,78,56,049,22,80,11,195,19,79,64,158,20,69,47,336,19*6A
$GLGSV,3,2,10,84,11,264,15,85,09,313,18,67,09,111,16,68,54,074,30*60
$GLGSV,3,3,10,70,00,000,,77,05,025,*61
$GPGSV,3,1,12,01,34,217,24,03,70,316,25,09,09,274,15,14,23,067,17*7D
$GPGSV,3,2,12,16,18,142,22,22,86,199,30,23,42,289,26,26,31,111,20*7B
$GPGSV,3,3,12,31,38,045,18,11,10,209,,25,00,000,,32,00,000,*77
$GLGSV,3,1,10,78,56,049,22,80,11,195,19,79,64,158,20,69,47,336,19*6A
$GLGSV,3,2,10,84,11,264,15,85,09,313,18,67,09,111,16,68,54,074,30*60
$GLGSV,3,3,10,70,00,000,,77,05,025,*61
$GPGSA,A,3,01,03,09,14,16,22,23,26,31,,,,1.0,0.7,0.7*3D
$GPVTG,,T,,M,0.0,N,0.0,K,A*23
$GPRMC,002207,A,3720.228982,N,12155.110830,W,0.0,,011216,0.0,E,A*21
$GPGGA,002207,3720.228982,N,12155.110830,W,1,09,0.7,15.0,M,-27.0,M,,*41
$GPGSV,3,1,12,01,34,217,22,03,70,316,26,09,09,274,16,14,23,067,18*74
$GPGSV,3,2,12,16,18,142,21,22,86,199,29,23,42,289,25,26,31,111,19*79
$GPGSV,3,3,12,31,38,045,22,11,10,209,,25,00,000,,32,00,000,*7E
$GLGSV,3,1,10,78,56,049,22,80,11,195,19,79,64,158,20,69,47,336,19*6A
$GLGSV,3,2,10,84,11,264,17,85,09,313,18,67,09,111,16,68,54,074,30*62
$GLGSV,3,3,10,70,00,000,,77,05,025,*61
$GPGSV,3,1,12,01,34,217,22,03,70,316,26,09,09,274,16,14,23,067,18*74
$GPGSV,3,2,12,16,18,142,21,22,86,199,29,23,42,289,25,26,31,111,19*79
$GPGSV,3,3,12,31,38,045,22,11,10,209,,25,00,000,,32,00,000,*7E
$GLGSV,3,1,10,78,56,049,22,80,11,195,19,79,64,158,20,69,47,336,19*6A
$GLGSV,3,2,10,84,11,264,17,85,09,313,18,67,09,111,16,68,54,074,30*62
$GLGSV,3,3,10,70,00,000,,77,05,025,*61
$GPGSA,A,3,01,03,09,14,16,22,23,26,31,,,,1.0,0.7,0.7*3D
$GPVTG,,T,,M,0.0,N,0.0,K,A*23
$GPRMC,002208,A,3720.228980,N,12155.110813,W,0.0,,011216,0.0,E,A*2D
$GPGGA,002208,3720.228980,N,12155.110813,W,1,09,0.7,15.0,M,-27.0,M,,*4D
$GPGSV,3,1,12,01,34,217,24,03,70,316,25,09,09,274,16,14,23,067,18*71
$GPGSV,3,2,12,16,18,142,22,22,86,199,30,23,42,289,26,26,31,111,20*7B
$GPGSV,3,3,12,31,38,045,20,11,10,209,,25,00,000,,32,00,000,*7C
$GLGSV,3,1,10,78,56,049,21,80,11,195,19,79,64,158,19,69,47,336,19*63
$GLGSV,3,2,10,84,11,264,17,85,09,313,22,67,09,111,16,68,54,074,30*6B
$GLGSV,3,3,10,70,00,000,,77,05,025,*61
$GPGSV,3,1,12,01,34,217,24,03,70,316,25,09,09,274,16,14,23,067,18*71
$GPGSV,3,2,12,16,18,142,22,22,86,199,30,23,42,289,26,26,31,111,20*7B
$GPGSV,3,3,12,31,38,045,20,11,10,209,,25,00,000,,32,00,000,*7C
$GLGSV,3,1,10,78,56,049,21,80,11,195,19,79,64,158,19,69,47,336,19*63
$GLGSV,3,2,10,84,11,264,17,85,09,313,22,67,09,111,16,68,54,074,30*6B
$GLGSV,3,3,10,70,00,000,,77,05,025,*61
$GPGSA,A,3,01,03,09,14,16,22,23,26,31,,,,1.0,0.7,0.7*3D
$GPVTG,,T,,M,0.0,N,0.0,K,A*23
$GPRMC,002209,A,3720.228911,N,12155.110751,W,0.0,,011216,0.0,E,A*2D
$GPGGA,002209,3720.228911,N,12155.110751,W,1,09,0.7,15.0,M,-27.0,M,,*4D
$GPGSV,3,1,12,01,34,217,25,03,70,316,25,09,09,274,16,14,23,067,18*70
$GPGSV,3,2,12,16,18,142,22,22,86,199,29,23,42,289,22,26,31,111,22*75
$GPGSV,3,3,12,31,38,045,25,11,10,209,,25,00,000,,32,00,000,*79
$GLGSV,3,1,10,78,56,049,23,80,11,195,19,79,64,158,20,69,47,336,19*6B
$GLGSV,3,2,10,84,11,264,18,85,09,313,20,67,09,111,16,68,54,074,31*67
$GLGSV,3,3,10,70,00,000,,77,05,025,*61
$GPGSV,3,1,12,01,34,217,25,03,70,316,25,09,09,274,16,14,23,067,18*70
$GPGSV,3,2,12,16,18,142,22,22,86,199,29,23,42,289,22,26,31,111,22*75
$GPGSV,3,3,12,31,38,045,25,11,10,209,,25,00,000,,32,00,000,*79
$GLGSV,3,1,10,78,56,049,23,80,11,195,19,79,64,158,20,69,47,336,19*6B
$GLGSV,3,2,10,84,11,264,18,85,09,313,20,67,09,111,16,68,54,074,31*67
$GLGSV,3,3,10,70,00,000,,77,05,025,*61
$GPGSA,A,3,01,03,09,14,16,22,23,26,31,,,,1.0,0.7,0.7*3D
$GPVTG,,T,,M,0.0,N,0.0,K,A*23
$GPRMC,002210,A,3720.228921,N,12155.110733,W,0.0,,011216,0.0,E,A*22
$GPGGA,002210,3720.228921,N,12155.110733,W,1,09,0.7,15.0,M,-27.0,M,,*42
$GPGSV,3,1,12,01,34,217,24,03,70,316,24,09,09,274,16,14,23,067,18*70
$GPGSV,3,2,12,16,18,142,22,22,86,199,30,23,42,289,21,26,31,111,20*7C
$GPGSV,3,3,12,31,38,045,26,11,10,209,,25,00,000,,32,00,000,*7A
$GLGSV,3,1,10,78,56,049,22,80,11,195,19,79,64,158,19,69,47,336,18*61
$GLGSV,3,2,10,84,11,264,18,85,09,313,19,67,09,111,16,68,54,074,31*6D
$GLGSV,3,3,10,70,00,000,,77,05,025,*61
$GPGSV,3,1,12,01,34,217,24,03,70,316,24,09,09,274,16,14,23,067,18*70
$GPGSV,3,2,12,16,18,142,22,22,86,199,30,23,42,289,21,26,31,111,20*7C
$GPGSV,3,3,12,31,38,045,26,11,10,209,,25,00,000,,32,00,000,*7A
$GLGSV,3,1,10,78,56,049,22,80,11,195,19,79,64,158,19,69,47,336,18*61
$GLGSV,3,2,10,84,11,264,18,85,09,313,19,67,09,111,16,68,54,074,31*6D
$GLGSV,3,3,10,70,00,000,,77,05,025,*61
$GPGSA,A,3,01,03,09,14,16,22,23,26,31,,,,1.0,0.7,0.7*3D
$GPVTG,,T,,M,0.0,N,0.0,K,A*23
$GPRMC,002211,A,3720.228897,N,12155.110710,W,0.0,,011216,0.0,E,A*2E
$GPGGA,002211,3720.228897,N,12155.110710,W,1,09,0.7,15.0,M,-27.0,M,,*4E
$GPGSV,3,1,12,01,34,217,25,03,70,316,19,09,09,274,16,14,23,067,16*71
$GPGSV,3,2,12,16,18,142,19,22,86,199,25,23,42,289,22,26,31,111,20*73
$GPGSV,3,3,12,31,38,045,28,11,10,209,,25,00,000,,32,00,000,*74
$GLGSV,3,1,10,78,56,049,22,80,11,195,19,79,64,158,21,69,47,336,18*6A
$GLGSV,3,2,10,84,11,264,18,85,09,313,19,67,09,111,16,68,54,074,30*6C
$GLGSV,3,3,10,70,00,000,,77,05,025,*61
$GPGSV,3,1,12,01,34,217,25,03,70,316,19,09,09,274,16,14,23,067,16*71
$GPGSV,3,2,12,16,18,142,19,22,86,199,25,23,42,289,22,26,31,111,20*73
$GPGSV,3,3,12,31,38,045,28,11,10,209,,25,00,000,,32,00,000,*74
$GLGSV,3,1,10,78,56,049,22,80,11,195,19,79,64,158,21,69,47,336,18*6A
$GLGSV,3,2,10,84,11,264,18,85,09,313,19,67,09,111,16,68,54,074,30*6C
$GLGSV,3,3,10,70,00,000,,77,05,025,*61
$GPGSA,A,3,01,03,09,14,16,22,23,26,31,,,,1.0,0.7,0.7*3D
$GPVTG,,T,,M,0.0,N,0.0,K,A*23
$GPRMC,002212,A,3720.228897,N,12155.110701,W,0.0,,011216,0.0,E,A*2D
$GPGGA,002212,3720.228897,N,12155.110701,W,1,09,0.7,14.0,M,-27.0,M,,*4C
$GPGSV,3,1,12,01,34,217,27,03,70,316,18,09,09,274,15,14,23,067,19*7E
$GPGSV,3,2,12,16,18,142,17,22,86,199,20,23,42,289,21,26,31,111,23*78
$GPGSV,3,3,12,31,38,045,27,11,10,209,,25,00,000,,32,00,000,*7B
$GLGSV,3,1,10,78,56,049,22,80,11,195,19,79,64,158,19,69,47,336,18*61
$GLGSV,3,2,10,84,11,264,18,85,09,313,19,67,09,111,15,68,54,074,29*67
$GLGSV,3,3,10,70,00,000,,77,05,025,*61
$GPGSV,3,1,12,01,34,217,27,03,70,316,18,09,09,274,15,14,23,067,19*7E
$GPGSV,3,2,12,16,18,142,17,22,86,199,20,23,42,289,21,26,31,111,23*78
$GPGSV,3,3,12,31,38,045,27,11,10,209,,25,00,000,,32,00,000,*7B
$GLGSV,3,1,10,78,56,049,22,80,11,195,19,79,64,158,19,69,47,336,18*61
$GLGSV,3,2,10,84,11,264,18,85,09,313,19,67,09,111,15,68,54,074,29*67
$GLGSV,3,3,10,70,00,000,,77,05,025,*61
$GPGSA,A,3,01,03,09,14,16,22,23,26,31,,,,1.0,0.7,0.7*3D
$GPVTG,,T,,M,0.0,N,0.0,K,A*23
$GPRMC,002213,A,3720.228902,N,12155.110691,W,0.0,,011216,0.0,E,A*29
$GPGGA,002213,3720.228902,N,12155.110691,W,1,09,0.7,15.0,M,-27.0,M,,*49
$GPGSV,3,1,12,01,34,217,25,03,70,316,20,09,09,274,15,14,23,067,19*77
$GPGSV,3,2,12,16,18,142,19,22,86,199,24,23,42,289,22,26,31,111,21*73
$GPGSV,3,3,12,31,38,045,27,11,10,209,,25,00,000,,32,00,000,*7B
$GLGSV,3,1,10,78,56,049,19,80,11,195,19,79,64,158,20,69,47,336,17*6C
$GLGSV,3,2,10,84,11,264,18,85,09,313,19,67,09,111,15,68,54,074,28*66
$GLGSV,3,3,10,70,00,000,,77,05,025,*61
$GPGSV,3,1,12,01,34,217,25,03,70,316,20,09,09,274,15,14,23,067,19*77
$GPGSV,3,2,12,16,18,142,19,22,86,199,24,23,42,289,22,26,31,111,21*73
$GPGSV,3,3,12,31,38,045,27,11,10,209,,25,00,000,,32,00,000,*7B
$GLGSV,3,1,10,78,56,049,19,80,11,195,19,79,64,158,20,69,47,336,17*6C
$GLGSV,3,2,10,84,11,264,18,85,09,313,19,67,09,111,15,68,54,074,28*66
$GLGSV,3,3,10,70,00,000,,77,05,025,*61
$GPGSA,A,3,01,03,09,14,16,22,23,26,31,,,,1.0,0.7,0.7*3D
$GPVTG,,T,,M,0.0,N,0.0,K,A*23
$GPRMC,002214,A,3720.228877,N,12155.110674,W,0.0,,011216,0.0,E,A*26
$GPGGA,002214,3720.228877,N,12155.110674,W,1,09,0.7,15.0,M,-27.0,M,,*46
$GPGSV,3,1,12,01,34,217,26,03,70,316,20,09,09,274,15,14,23,067,19*74
$GPGSV,3,2,12,16,18,142,19,22,86,199,22,23,42,289,24,26,31,111,20*72
$GPGSV,3,3,12,31,38,045,25,11,10,209,,25,00,000,,32,00,000,*79
$GLGSV,3,1,10,78,56,049,21,80,11,195,19,79,64,158,21,69,47,336,21*63
$GLGSV,3,2,10,84,11,264,18,85,09,313,18,67,09,111,15,68,54,074,28*67
$GLGSV,3,3,10,70,00,000,,77,05,025,*61
$GPGSV,3,1,12,01,34,217,26,03,70,316,20,09,09,274,15,14,23,067,19*74
$GPGSV,3,2,12,16,18,142,19,22,86,199,22,23,42,289,24,26,31,111,20*72
$GPGSV,3,3,12,31,38,045,25,11,10,209,,25,00,000,,32,00,000,*79
$GLGSV,3,1,10,78,56,049,21,80,11,195,19,79,64,158,21,69,47,336,21*63
$GLGSV,3,2,10,84,11,264,18,85,09,313,18,67,09,111,15,68,54,074,28*67
$GLGSV,3,3,10,70,00,000,,77,05,025,*61
$GPGSA,A,3,01,03,09,14,16,22,23,26,31,,,,1.0,0.7,0.7*3D
$GPVTG,,T,,M,0.0,N,0.0,K,A*23
$GPRMC,002215,A,3720.228890,N,12155.110706,W,0.0,,011216,0.0,E,A*2A
$GPGGA,002215,3720.228890,N,12155.110706,W,1,09,0.7,15.0,M,-27.0,M,,*4A
$GPGSV,3,1,12,01,34,217,27,03,70,316,21,09,09,274,15,11,10,209,14*76
$GPGSV,3,2,12,14,23,067,19,16,18,142,21,22,86,199,21,23,42,289,24*72
$GPGSV,3,3,12,26,31,111,22,31,38,045,23,25,00,000,,32,00,000,*72
$GLGSV,3,1,10,78,56,049,23,80,11,195,14,79,64,158,22,69,47,336,20*6E
$GLGSV,3,2,10,84,11,264,18,85,09,313,18,67,09,111,16,68,54,074,26*6A
$GLGSV,3,3,10,70,00,000,,77,05,025,*61
$GPGSV,3,1,12,01,34,217,27,03,70,316,21,09,09,274,15,11,10,209,14*76
$GPGSV,3,2,12,14,23,067,19,16,18,142,21,22,86,199,21,23,42,289,24*72
$GPGSV,3,3,12,26,31,111,22,31,38,045,23,25,00,000,,32,00,000,*72
$GLGSV,3,1,10,78,56,049,23,80,11,195,14,79,64,158,22,69,47,336,20*6E
$GLGSV,3,2,10,84,11,264,18,85,09,313,18,67,09,111,16,68,54,074,26*6A
$GLGSV,3,3,10,70,00,000,,77,05,025,*61
$GPGSA,A,3,01,03,09,11,14,16,22,23,26,31,,,1.0,0.7,0.7*3D
$GPVTG,,T,,M,0.0,N,0.0,K,A*23
$GPRMC,002216,A,3720.228879,N,12155.110709,W,0.0,,011216,0.0,E,A*21
$GPGGA,002216,3720.228879,N,12155.110709,W,1,10,0.7,15.0,M,-27.0,M,,*49
$GPGSV,3,1,12,01,34,217,25,03,70,316,21,09,09,274,15,11,10,209,13*73
$GPGSV,3,2,12,14,23,067,19,16,18,142,21,22,86,199,21,23,42,289,25*73
$GPGSV,3,3,12,26,31,111,24,31,38,045,24,25,00,000,,32,00,000,*73
$GLGSV,3,1,10,78,56,049,20,80,11,195,14,79,64,158,20,69,47,336,21*6E
$GLGSV,3,2,10,84,11,264,18,85,09,313,18,67,09,111,16,68,54,074,28*64
$GLGSV,3,3,10,70,00,000,,77,05,025,*61
$GPGSV,3,1,12,01,34,217,25,03,70,316,21,09,09,274,15,11,10,209,13*73
$GPGSV,3,2,12,14,23,067,19,16,18,142,21,22,86,199,21,23,42,289,25*73
$GPGSV,3,3,12,26,31,111,24,31,38,045,24,25,00,000,,32,00,000,*73
$GLGSV,3,1,10,78,56,049,20,80,11,195,14,79,64,158,20,69,47,336,21*6E
$GLGSV,3,2,10,84,11,264,18,85,09,313,18,67,09,111,16,68,54,074,28*64
$GLGSV,3,3,10,70,00,000,,77,05,025,*61
$GPGSA,A,3,01,03,09,11,14,16,22,23,26,31,,,1.0,0.7,0.7*3D
$GPVTG,315.6,T,315.6,M,6.8,N,12.6,K,A*18
$GPRMC,002217,A,3720.229684,N,12155.111695,W,6.8,315.6,011216,0.0,E,A*09
$GPGGA,002217,3720.229684,N,12155.111695,W,1,10,0.7,15.0,M,-27.0,M,,*40
$GPGSV,3,1,12,01,34,217,20,03,70,316,21,09,09,274,15,11,10,209,14*71
$GPGSV,3,2,12,14,23,067,15,16,18,142,19,22,86,199,16,23,42,289,22*77
$GPGSV,3,3,12,26,31,111,21,31,38,045,23,25,00,000,,32,00,000,*71
$GLGSV,3,1,10,78,56,049,21,80,11,195,14,79,64,158,20,69,47,336,18*65
$GLGSV,3,2,10,84,11,264,18,85,09,313,18,67,09,111,16,68,54,074,21*6D
$GLGSV,3,3,10,70,00,000,,77,05,025,*61
$GPGSV,3,1,12,01,34,217,20,03,70,316,21,09,09,274,15,11,10,209,14*71
$GPGSV,3,2,12,14,23,067,15,16,18,142,19,22,86,199,16,23,42,289,22*77
$GPGSV,3,3,12,26,31,111,21,31,38,045,23,25,00,000,,32,00,000,*71
$GLGSV,3,1,10,78,56,049,21,80,11,195,14,79,64,158,20,69,47,336,18*65
$GLGSV,3,2,10,84,11,264,18,85,09,313,18,67,09,111,16,68,54,074,21*6D
$GLGSV,3,3,10,70,00,000,,77,05,025,*61
$GPGSA,A,3,01,03,09,11,14,16,22,23,26,31,,,1.0,0.7,0.7*3D
$GPVTG,316.9,T,316.9,M,7.3,N,13.5,K,A*10
$GPRMC,002218,A,3720.230927,N,12155.113025,W,7.3,316.9,011216,0.0,E,A*01
$GPGGA,002218,3720.230927,N,12155.113025,W,1,10,0.7,16.0,M,-27.0,M,,*4D
$GPGSV,3,1,12,01,34,217,21,03,70,316,15,09,09,274,15,11,10,209,13*70
$GPGSV,3,2,12,14,23,067,15,16,18,142,19,22,86,199,16,23,42,289,23*76
$GPGSV,3,3,12,26,31,111,20,31,38,045,25,25,00,000,,32,00,000,*76
$GLGSV,3,1,10,78,56,049,19,80,11,195,14,79,64,158,20,69,47,336,18*6E
$GLGSV,3,2,10,84,11,264,18,85,09,313,20,67,09,111,16,68,54,074,24*63
$GLGSV,3,3,10,70,00,000,,77,05,025,*61
$GPGSV,3,1,12,01,34,217,21,03,70,316,15,09,09,274,15,11,10,209,13*70
$GPGSV,3,2,12,14,23,067,15,16,18,142,19,22,86,199,16,23,42,289,23*76
$GPGSV,3,3,12,26,31,111,20,31,38,045,25,25,00,000,,32,00,000,*76
$GLGSV,3,1,10,78,56,049,19,80,11,195,14,79,64,158,20,69,47,336,18*6E
$GLGSV,3,2,10,84,11,264,18,85,09,313,20,67,09,111,16,68,54,074,24*63
$GLGSV,3,3,10,70,00,000,,77,05,025,*61
$GPGSA,A,3,01,03,09,11,14,16,22,23,26,31,,,1.0,0.7,0.7*3D
$GPVTG,319.1,T,319.1,M,9.7,N,18.0,K,A*14
$GPRMC,002219,A,3720.233234,N,12155.115084,W,9.7,319.1,011216,0.0,E,A*0A
$GPGGA,002219,3720.233234,N,12155.115084,W,1,10,0.7,17.0,M,-27.0,M,,*4A
$GPGSV,3,1,12,01,34,217,25,03,70,316,20,09,09,274,15,11,10,209,13*72
$GPGSV,3,2,12,14,23,067,16,16,18,142,21,22,86,199,16,23,42,289,26*7B
$GPGSV,3,3,12,26,31,111,19,31,38,045,20,25,00,000,,32,00,000,*79
$GLGSV,3,1,10,78,56,049,18,80,11,195,14,79,64,158,20,69,47,336,20*64
$GLGSV,3,2,10,84,11,264,18,85,09,313,20,67,09,111,16,68,54,074,26*61
$GLGSV,3,3,10,70,00,000,,77,05,025,*61
$GPGSV,3,1,12,01,34,217,25,03,70,316,20,09,09,274,15,11,10,209,13*72
$GPGSV,3,2,12,14,23,067,16,16,18,142,21,22,86,199,16,23,42,289,26*7B
$GPGSV,3,3,12,26,31,111,19,31,38,045,20,25,00,000,,32,00,000,*79
$GLGSV,3,1,10,78,56,049,18,80,11,195,14,79,64,158,20,69,47,336,20*64
$GLGSV,3,2,10,84,11,264,18,85,09,313,20,67,09,111,16,68,54,074,26*61
$GLGSV,3,3,10,70,00,000,,77,05,025,*61
$GPGSA,A,3,01,03,09,11,14,16,22,23,26,31,,,1.0,0.7,0.7*3D
$GPVTG,317.6,T,317.6,M,12.1,N,22.5,K,A*24
$GPRMC,002220,A,3720.236288,N,12155.119034,W,12.1,317.6,011216,0.0,E,A*30
$GPGGA,002220,3720.236288,N,12155.119034,W,1,10,0.7,17.0,M,-27.0,M,,*45
$GPGSV,3,1,12,01,34,217,26,03,70,316,21,09,09,274,15,11,10,209,13*70
$GPGSV,3,2,12,14,23,067,16,16,18,142,22,22,86,199,17,23,42,289,26*79
$GPGSV,3,3,12,26,31,111,19,31,38,045,20,25,00,000,,32,00,000,*79
$GLGSV,3,1,10,78,56,049,21,80,11,195,14,79,64,158,19,69,47,336,20*64
$GLGSV,3,2,10,84,11,264,18,85,09,313,20,67,09,111,16,68,54,074,27*60
$GLGSV,3,3,10,70,00,000,,77,05,025,*61
$GPGSV,3,1,12,01,34,217,26,03,70,316,21,09,09,274,15,11,10,209,13*70
$GPGSV,3,2,12,14,23,067,16,16,18,142,22,22,86,199,17,23,42,289,26*79
$GPGSV,3,3,12,26,31,111,19,31,38,045,20,25,00,000,,32,00,000,*79
$GLGSV,3,1,10,78,56,049,21,80,11,195,14,79,64,158,19,69,47,336,20*64
$GLGSV,3,2,10,84,11,264,18,85,09,313,20,67,09,111,16,68,54,074,27*60
$GLGSV,3,3,10,70,00,000,,77,05,025,*61
$GPGSA,A,3,01,03,09,11,14,16,22,23,26,31,,,1.0,0.7,0.7*3D
$GPVTG,319.6,T,319.6,M,14.1,N,26.1,K,A*22
$GPRMC,002221,A,3720.240036,N,12155.123205,W,14.1,319.6,011216,0.0,E,A*36
$GPGGA,002221,3720.240036,N,12155.123205,W,1,10,0.7,16.0,M,-27.0,M,,*4A
$GPGSV,3,1,12,01,34,217,24,03,70,316,18,09,09,274,15,11,10,209,19*72
$GPGSV,3,2,12,14,23,067,16,16,18,142,20,22,86,199,18,23,42,289,24*76
$GPGSV,3,3,12,26,31,111,19,31,38,045,19,25,00,000,,32,00,000,*73
$GLGSV,3,1,10,78,56,049,19,80,11,195,14,79,64,158,17,69,47,336,20*61
$GLGSV,3,2,10,84,11,264,18,85,09,313,21,67,09,111,16,68,54,074,24*62
$GLGSV,3,3,10,70,00,000,,77,05,025,*61
$GPGSV,3,1,12,01,34,217,24,03,70,316,18,09,09,274,15,11,10,209,19*72
$GPGSV,3,2,12,14,23,067,16,16,18,142,20,22,86,199,18,23,42,289,24*76
$GPGSV,3,3,12,26,31,111,19,31,38,045,19,25,00,000,,32,00,000,*73
$GLGSV,3,1,10,78,56,049,19,80,11,195,14,79,64,158,17,69,47,336,20*61
$GLGSV,3,2,10,84,11,264,18,85,09,313,21,67,09,111,16,68,54,074,24*62
$GLGSV,3,3,10,70,00,000,,77,05,025,*61
$GPGSA,A,3,01,03,09,11,14,16,22,23,26,31,,,1.0,0.7,0.7*3D
$GPVTG,318.9,T,318.9,M,15.6,N,28.8,K,A*23
$GPRMC,002222,A,3720.244015,N,12155.127909,W,15.6,318.9,011216,0.0,E,A*3B
$GPGGA,002222,3720.244015,N,12155.127909,W,1,10,0.7,10.0,M,-27.0,M,,*49
$GPGSV,3,1,12,01,34,217,28,03,70,316,19,09,09,274,14,11,10,209,18*7F
$GPGSV,3,2,12,14,23,067,16,16,18,142,19,22,86,199,18,23,42,289,23*7B
$GPGSV,3,3,12,26,31,111,20,31,38,045,20,25,00,000,,32,00,000,*73
$GLGSV,3,1,10,78,56,049,18,80,11,195,14,79,64,158,17,69,47,336,18*6B
$GLGSV,3,2,10,84,11,264,18,85,09,313,21,67,09,111,16,68,54,074,23*65
$GLGSV,3,3,10,70,00,000,,77,05,025,*61
$GPGSV,3,1,12,01,34,217,28,03,70,316,19,09,09,274,14,11,10,209,18*7F
$GPGSV,3,2,12,14,23,067,16,16,18,142,19,22,86,199,18,23,42,289,23*7B
$GPGSV,3,3,12,26,31,111,20,31,38,045,20,25,00,000,,32,00,000,*73
$GLGSV,3,1,10,78,56,049,18,80,11,195,14,79,64,158,17,69,47,336,18*6B
$GLGSV,3,2,10,84,11,264,18,85,09,313,21,67,09,111,16,68,54,074,23*65
$GLGSV,3,3,10,70,00,000,,77,05,025,*61
$GPGSA,A,3,01,03,09,11,14,16,22,23,26,31,,,1.0,0.7,0.7*3D
$GPVTG,319.2,T,319.2,M,16.5,N,30.6,K,A*24
$GPRMC,002223,A,3720.247964,N,12155.132229,W,16.5,319.2,011216,0.0,E,A*31
$GPGGA,002223,3720.247964,N,12155.132229,W,1,10,0.7,9.0,M,-27.0,M,,*71
$GPGSV,3,1,12,01,34,217,30,03,70,316,20,09,09,274,14,11,10,209,18*7C
$GPGSV,3,2,12,14,23,067,15,16,18,142,23,22,86,199,19,23,42,289,20*73
$GPGSV,3,3,12,26,31,111,19,31,38,045,18,25,00,000,,32,00,000,*72
$GLGSV,3,1,10,78,56,049,23,80,11,195,14,79,64,158,18,69,47,336,19*6D
$GLGSV,3,2,10,84,11,264,10,85,09,313,21,67,09,111,16,68,54,074,26*68
$GLGSV,3,3,10,70,00,000,,77,05,025,*61
$GPGSV,3,1,12,01,34,217,30,03,70,316,20,09,09,274,14,11,10,209,18*7C
$GPGSV,3,2,12,14,23,067,15,16,18,142,23,22,86,199,19,23,42,289,20*73
$GPGSV,3,3,12,26,31,111,19,31,38,045,18,25,00,000,,32,00,000,*72
$GLGSV,3,1,10,78,56,049,23,80,11,195,14,79,64,158,18,69,47,336,19*6D
$GLGSV,3,2,10,84,11,264,10,85,09,313,21,67,09,111,16,68,54,074,26*68
$GLGSV,3,3,10,70,00,000,,77,05,025,*61
$GPGSA,A,3,01,03,09,11,14,16,22,23,26,31,,,1.0,0.7,0.7*3D
$GPVTG,323.0,T,323.0,M,16.5,N,30.6,K,A*24
$GPRMC,002224,A,3720.251256,N,12155.135898,W,16.5,323.0,011216,0.0,E,A*37
$GPGGA,002224,3720.251256,N,12155.135898,W,1,10,0.7,9.0,M,-27.0,M,,*7C
$GPGSV,3,1,12,01,34,217,30,03,70,316,24,09,09,274,16,11,10,209,18*7A
$GPGSV,3,2,12,14,23,067,15,16,18,142,22,22,86,199,19,23,42,289,20*72
$GPGSV,3,3,12,26,31,111,19,31,38,045,17,25,00,000,,32,00,000,*7D
$GLGSV,3,1,10,78,56,049,23,80,11,195,14,79,64,158,18,69,47,336,21*66
$GLGSV,3,2,10,84,11,264,10,85,09,313,21,67,09,111,12,68,54,074,24*6E
$GLGSV,3,3,10,70,00,000,,77,05,025,*61
$GPGSV,3,1,12,01,34,217,30,03,70,316,24,09,09,274,16,11,10,209,18*7A
$GPGSV,3,2,12,14,23,067,15,16,18,142,22,22,86,199,19,23,42,289,20*72
$GPGSV,3,3,12,26,31,111,19,31,38,045,17,25,00,000,,32,00,000,*7D
$GLGSV,3,1,10,78,56,049,23,80,11,195,14,79,64,158,18,69,47,336,21*66
$GLGSV,3,2,10,84,11,264,10,85,09,313,21,67,09,111,12,68,54,074,24*6E
$GLGSV,3,3,10,70,00,000,,77,05,025,*61
$GPGSA,A,3,01,03,09,11,14,16,22,23,26,31,,,1.0,0.7,0.7*3D
$GPVTG,322.8,T,322.8,M,16.5,N,30.6,K,A*24
$GPRMC,002225,A,3720.254812,N,12155.139571,W,16.5,322.8,011216,0.0,E,A*36
$GPGGA,002225,3720.254812,N,12155.139571,W,1,10,0.7,9.0,M,-27.0,M,,*74
$GPGSV,3,1,12,01,34,217,27,03,70,316,23,09,09,274,16,11,10,209,18*7B
$GPGSV,3,2,12,14,23,067,16,16,18,142,19,22,86,199,15,23,42,289,15*73
$GPGSV,3,3,12,26,31,111,16,31,38,045,19,25,00,000,,32,00,000,*7C
$GLGSV,3,1,10,78,56,049,22,80,11,195,14,79,64,158,18,69,47,336,19*6C
$GLGSV,3,2,10,84,11,264,10,85,09,313,21,67,09,111,19,68,54,074,23*62
$GLGSV,3,3,10,70,00,000,,77,05,025,*61
$GPGSV,3,1,12,01,34,217,27,03,70,316,23,09,09,274,16,11,10,209,18*7B
$GPGSV,3,2,12,14,23,067,16,16,18,142,19,22,86,199,15,23,42,289,15*73
$GPGSV,3,3,12,26,31,111,16,31,38,045,19,25,00,000,,32,00,000,*7C
$GLGSV,3,1,10,78,56,049,22,80,11,195,14,79,64,158,18,69,47,336,19*6C
$GLGSV,3,2,10,84,11,264,10,85,09,313,21,67,09,111,19,68,54,074,23*62
$GLGSV,3,3,10,70,00,000,,77,05,025,*61
$GPGSA,A,3,01,03,09,11,14,16,22,23,26,31,,,1.0,0.7,0.7*3D
$GPVTG,319.0,T,319.0,M,17.5,N,32.4,K,A*25
$GPRMC,002226,A,3720.259097,N,12155.144863,W,17.5,319.0,011216,0.0,E,A*38
$GPGGA,002226,3720.259097,N,12155.144863,W,1,10,0.7,10.0,M,-27.0,M,,*43
$GPGSV,3,1,12,01,34,217,26,03,70,316,23,09,09,274,16,11,10,209,18*7A
$GPGSV,3,2,12,14,23,067,16,16,18,142,17,22,86,199,17,23,42,289,15*7F
$GPGSV,3,3,12,26,31,111,19,31,38,045,23,25,00,000,,32,00,000,*7A
$GLGSV,3,1,10,78,56,049,20,80,11,195,14,79,64,158,15,69,47,336,19*63
$GLGSV,3,2,10,84,11,264,10,85,09,313,21,67,09,111,19,68,54,074,27*66
$GLGSV,3,3,10,70,00,000,,77,05,025,*61
$GPGSV,3,1,12,01,34,217,26,03,70,316,23,09,09,274,16,11,10,209,18*7A
$GPGSV,3,2,12,14,23,067,16,16,18,142,17,22,86,199,17,23,42,289,15*7F
$GPGSV,3,3,12,26,31,111,19,31,38,045,23,25,00,000,,32,00,000,*7A
$GLGSV,3,1,10,78,56,049,20,80,11,195,14,79,64,158,15,69,47,336,19*63
$GLGSV,3,2,10,84,11,264,10,85,09,313,21,67,09,111,19,68,54,074,27*66
$GLGSV,3,3,10,70,00,000,,77,05,025,*61
$GPGSA,A,3,01,03,09,11,14,16,22,23,26,31,,,1.0,0.7,0.7*3D
$GPVTG,319.2,T,319.2,M,18.5,N,34.2,K,A*2A
$GPRMC,002227,A,3720.263243,N,12155.150249,W,18.5,319.2,011216,0.0,E,A*31
$GPGGA,002227,3720.263243,N,12155.150249,W,1,10,0.7,11.0,M,-27.0,M,,*46
$GPGSV,3,1,12,01,34,217,27,03,70,316,19,09,09,274,16,11,10,209,18*72
$GPGSV,3,2,12,14,23,067,16,16,18,142,22,22,86,199,17,23,42,289,15*79
$GPGSV,3,3,12,26,31,111,18,31,38,045,20,25,00,000,,32,00,000,*78
$GLGSV,3,1,10,78,56,049,18,80,11,195,14,79,64,158,18,69,47,336,18*64
$GLGSV,3,2,10,84,11,264,10,85,09,313,21,67,09,111,19,68,54,074,27*66
$GLGSV,3,3,10,70,00,000,,77,05,025,*61
$GPGSV,3,1,12,01,34,217,27,03,70,316,19,09,09,274,16,11,10,209,18*72
$GPGSV,3,2,12,14,23,067,16,16,18,142,22,22,86,199,17,23,42,289,15*79
$GPGSV,3,3,12,26,31,111,18,31,38,045,20,25,00,000,,32,00,000,*78
$GLGSV,3,1,10,78,56,049,18,80,11,195,14,79,64,158,18,69,47,336,18*64
$GLGSV,3,2,10,84,11,264,10,85,09,313,21,67,09,111,19,68,54,074,27*66
$GLGSV,3,3,10,70,00,000,,77,05,025,*61
$GPGSA,A,3,01,03,09,11,14,16,22,23,26,31,,,1.0,0.7,0.7*3D
$GPVTG,321.1,T,321.1,M,13.1,N,24.3,K,A*25
$GPRMC,002228,A,3720.262517,N,12155.148246,W,13.1,321.1,011216,0.0,E,A*38
$GPGGA,002228,3720.262517,N,12155.148246,W,1,10,0.7,9.0,M,-27.0,M,,*71
$GPGSV,3,1,12,01,34,217,29,03,70,316,22,09,09,274,16,11,10,209,19*75
$GPGSV,3,2,12,14,23,067,20,16,18,142,22,22,86,199,17,23,42,289,16*7F
$GPGSV,3,3,12,26,31,111,18,31,38,045,22,25,00,000,,32,00,000,*7A
$GLGSV,3,1,10,78,56,049,16,80,11,195,14,79,64,158,17,69,47,336,18*65
$GLGSV,3,2,10,84,11,264,10,85,09,313,21,67,09,111,19,68,54,074,18*6A
$GLGSV,3,3,10,70,00,000,,77,05,025,*61
$GPGSV,3,1,12,01,34,217,29,03,70,316,22,09,09,274,16,11,10,209,19*75
$GPGSV,3,2,12,14,23,067,20,16,18,142,22,22,86,199,17,23,42,289,16*7F
$GPGSV,3,3,12,26,31,111,18,31,38,045,22,25,00,000,,32,00,000,*7A
$GLGSV,3,1,10,78,56,049,16,80,11,195,14,79,64,158,17,69,47,336,18*65
$GLGSV,3,2,10,84,11,264,10,85,09,313,21,67,09,111,19,68,54,074,18*6A
$GLGSV,3,3,10,70,00,000,,77,05,025,*61
$GPGSA,A,3,01,03,09,11,14,16,22,23,26,31,,,1.0,0.7,0.7*3D
$GPVTG,316.1,T,316.1,M,11.7,N,21.6,K,A*21
$GPRMC,002229,A,3720.263495,N,12155.150711,W,11.7,316.1,011216,0.0,E,A*3D
$GPGGA,002229,3720.263495,N,12155.150711,W,1,10,0.7,9.0,M,-27.0,M,,*74
$GPGSV,3,1,12,01,34,217,28,03,70,316,21,09,09,274,16,11,10,209,22*7F
$GPGSV,3,2,12,14,23,067,20,16,18,142,23,22,86,199,26,23,42,289,23*7A
$GPGSV,3,3,12,26,31,111,20,31,38,045,19,25,00,000,,32,00,000,*79
$GLGSV,3,1,10,78,56,049,20,80,11,195,18,79,64,158,18,69,47,336,16*6D
$GLGSV,3,2,10,84,11,264,10,85,09,313,21,67,09,111,19,68,54,074,22*63
$GLGSV,3,3,10,70,00,000,,77,05,025,*61
$GPGSV,3,1,12,01,34,217,28,03,70,316,21,09,09,274,16,11,10,209,22*7F
$GPGSV,3,2,12,14,23,067,20,16,18,142,23,22,86,199,26,23,42,289,23*7A
$GPGSV,3,3,12,26,31,111,20,31,38,045,19,25,00,000,,32,00,000,*79
$GLGSV,3,1,10,78,56,049,20,80,11,195,18,79,64,158,18,69,47,336,16*6D
$GLGSV,3,2,10,84,11,264,10,85,09,313,21,67,09,111,19,68,54,074,22*63
$GLGSV,3,3,10,70,00,000,,77,05,025,*61
$GPGSA,A,3,01,03,09,11,14,16,22,23,26,31,,,1.1,0.8,0.7*33
$GPVTG,318.6,T,318.6,M,11.7,N,21.6,K,A*21
$GPRMC,002230,A,3720.267297,N,12155.154537,W,11.7,318.6,011216,0.0,E,A*3E
$GPGGA,002230,3720.267297,N,12155.154537,W,1,10,0.8,9.0,M,-27.0,M,,*71
$GPGSV,3,1,12,01,34,217,24,03,70,316,24,09,09,274,13,11,10,209,19*7B
$GPGSV,3,2,12,14,23,067,21,16,18,142,22,22,86,199,25,23,42,289,23*79
$GPGSV,3,3,12,26,31,111,22,31,38,045,26,25,00,000,,32,00,000,*77
$GLGSV,3,1,10,78,56,049,22,80,11,195,19,79,64,158,18,69,47,336,18*60
$GLGSV,3,2,10,84,11,264,10,85,09,313,21,67,09,111,19,68,54,074,27*66
$GLGSV,3,3,10,70,00,000,,77,05,025,*61
$GPGSV,3,1,12,01,34,217,24,03,70,316,24,09,09,274,13,11,10,209,19*7B
$GPGSV,3,2,12,14,23,067,21,16,18,142,22,22,86,199,25,23,42,289,23*79
$GPGSV,3,3,12,26,31,111,22,31,38,045,26,25,00,000,,32,00,000,*77
$GLGSV,3,1,10,78,56,049,22,80,11,195,19,79,64,158,18,69,47,336,18*60
$GLGSV,3,2,10,84,11,264,10,85,09,313,21,67,09,111,19,68,54,074,27*66
$GLGSV,3,3,10,70,00,000,,77,05,025,*61
$GPGSA,A,3,01,03,09,11,14,16,22,23,26,31,,,1.1,0.8,0.7*33
$GPVTG,318.4,T,318.4,M,8.3,N,15.3,K,A*1F
$GPRMC,002231,A,3720.266892,N,12155.155602,W,8.3,318.4,011216,0.0,E,A*0B
$GPGGA,002231,3720.266892,N,12155.155602,W,1,10,0.8,11.0,M,-27.0,M,,*43
$GPGSV,3,1,12,01,34,217,25,03,70,316,21,09,09,274,13,11,10,209,21*74
$GPGSV,3,2,12,14,23,067,21,16,18,142,20,22,86,199,25,23,42,289,20*78
$GPGSV,3,3,12,26,31,111,23,31,38,045,26,25,00,000,,32,00,000,*76
$GLGSV,3,1,10,78,56,049,21,80,11,195,19,79,64,158,15,69,47,336,18*6E
$GLGSV,3,2,10,84,11,264,10,85,09,313,21,67,09,111,19,68,54,074,29*68
$GLGSV,3,3,10,70,00,000,,77,05,025,*61
$GPGSV,3,1,12,01,34,217,25,03,70,316,21,09,09,274,13,11,10,209,21*74
$GPGSV,3,2,12,14,23,067,21,16,18,142,20,22,86,199,25,23,42,289,20*78
$GPGSV,3,3,12,26,31,111,23,31,38,045,26,25,00,000,,32,00,000,*76
$GLGSV,3,1,10,78,56,049,21,80,11,195,19,79,64,158,15,69,47,336,18*6E
$GLGSV,3,2,10,84,11,264,10,85,09,313,21,67,09,111,19,68,54,074,29*68
$GLGSV,3,3,10,70,00,000,,77,05,025,*61
$GPGSA,A,3,01,03,09,11,14,16,22,23,26,31,,,1.1,0.8,0.7*33
$GPVTG,316.8,T,316.8,M,6.8,N,12.6,K,A*18
$GPRMC,002232,A,3720.268797,N,12155.156511,W,6.8,316.8,011216,0.0,E,A*09
$GPGGA,002232,3720.268797,N,12155.156511,W,1,10,0.8,11.0,M,-27.0,M,,*46
$GPGSV,3,1,12,01,34,217,22,03,70,316,21,09,09,274,13,11,10,209,24*76
$GPGSV,3,2,12,14,23,067,21,16,18,142,23,22,86,199,23,23,42,289,23*7E
$GPGSV,3,3,12,26,31,111,24,31,38,045,25,25,00,000,,32,00,000,*72
$GLGSV,3,1,10,78,56,049,22,80,11,195,19,79,64,158,15,69,47,336,16*63
$GLGSV,3,2,10,84,11,264,10,85,09,313,21,67,09,111,13,68,54,074,30*6A
$GLGSV,3,3,10,70,00,000,,77,05,025,*61
$GPGSV,3,1,12,01,34,217,22,03,70,316,21,09,09,274,13,11,10,209,24*76
$GPGSV,3,2,12,14,23,067,21,16,18,142,23,22,86,199,23,23,42,289,23*7E
$GPGSV,3,3,12,26,31,111,24,31,38,045,25,25,00,000,,32,00,000,*72
$GLGSV,3,1,10,78,56,049,22,80,11,195,19,79,64,158,15,69,47,336,16*63
$GLGSV,3,2,10,84,11,264,10,85,09,313,21,67,09,111,13,68,54,074,30*6A
$GLGSV,3,3,10,70,00,000,,77,05,025,*61
$GPGSA,A,3,01,03,09,11,14,16,22,23,26,31,,,1.1,0.8,0.7*33
$GPVTG,324.1,T,324.1,M,4.4,N,8.1,K,A*2A
$GPRMC,002233,A,3720.269922,N,12155.158056,W,4.4,324.1,011216,0.0,E,A*07
$GPGGA,002233,3720.269922,N,12155.158056,W,1,10,0.8,10.0,M,-27.0,M,,*4F
$GPGSV,3,1,12,01,34,217,21,03,70,316,15,09,09,274,13,11,10,209,20*76
$GPGSV,3,2,12,14,23,067,16,16,18,142,22,22,86,199,18,23,42,289,21*71
$GPGSV,3,3,12,26,31,111,21,31,38,045,19,25,00,000,,32,00,000,*78
$GLGSV,3,1,10,78,56,049,21,80,11,195,17,79,64,158,14,69,47,336,16*6F
$GLGSV,3,2,10,84,11,264,10,85,09,313,21,67,09,111,13,68,54,074,30*6A
$GLGSV,3,3,10,70,00,000,,77,05,025,*61
$GPGSV,3,1,12,01,34,217,21,03,70,316,15,09,09,274,13,11,10,209,20*76
$GPGSV,3,2,12,14,23,067,16,16,18,142,22,22,86,199,18,23,42,289,21*71
$GPGSV,3,3,12,26,31,111,21,31,38,045,19,25,00,000,,32,00,000,*78
$GLGSV,3,1,10,78,56,049,21,80,11,195,17,79,64,158,14,69,47,336,16*6F
$GLGSV,3,2,10,84,11,264,10,85,09,313,21,67,09,111,13,68,54,074,30*6A
$GLGSV,3,3,10,70,00,000,,77,05,025,*61
$GPGSA,A,3,01,03,09,11,14,16,22,23,26,31,,,1.1,0.8,0.7*33
$GPVTG,300.8,T,300.8,M,1.9,N,3.6,K,A*2E
$GPRMC,002234,A,3720.270411,N,12155.159619,W,1.9,300.8,011216,0.0,E,A*0E
$GPGGA,002234,3720.270411,N,12155.159619,W,1,10,0.8,11.0,M,-27.0,M,,*40
$GPGSV,3,1,12,01,34,217,28,03,70,316,21,09,09,274,13,11,10,209,25*7D
$GPGSV,3,2,12,14,23,067,20,16,18,142,24,22,86,199,19,23,42,289,24*76
$GPGSV,3,3,12,26,31,111,22,31,38,045,23,25,00,000,,32,00,000,*72
$GLGSV,3,1,10,78,56,049,16,80,11,195,17,79,64,158,14,69,47,336,16*6B
$GLGSV,3,2,10,84,11,264,10,85,09,313,21,67,09,111,13,68,54,074,28*63
$GLGSV,3,3,10,70,00,000,,77,05,025,*61
$GPGSV,3,1,12,01,34,217,28,03,70,316,21,09,09,274,13,11,10,209,25*7D
$GPGSV,3,2,12,14,23,067,20,16,18,142,24,22,86,199,19,23,42,289,24*76
$GPGSV,3,3,12,26,31,111,22,31,38,045,23,25,00,000,,32,00,000,*72
$GLGSV,3,1,10,78,56,049,16,80,11,195,17,79,64,158,14,69,47,336,16*6B
$GLGSV,3,2,10,84,11,264,10,85,09,313,21,67,09,111,13,68,54,074,28*63
$GLGSV,3,3,10,70,00,000,,77,05,025,*61
$GPGSA,A,3,01,03,09,11,14,16,22,23,26,31,,,1.1,0.8,0.7*33
$GPVTG,308.6,T,308.6,M,1.9,N,3.6,K,A*2E
$GPRMC,002235,A,3720.271758,N,12155.160889,W,1.9,308.6,011216,0.0,E,A*0B
$GPGGA,002235,3720.271758,N,12155.160889,W,1,10,0.8,10.0,M,-27.0,M,,*42
$GPGSV,3,1,12,01,34,217,30,03,70,316,22,09,09,274,13,11,10,209,24*76
$GPGSV,3,2,12,14,23,067,21,16,18,142,24,22,86,199,20,23,42,289,21*78
$GPGSV,3,3,12,26,31,111,22,31,38,045,19,25,00,000,,32,00,000,*7B
$GLGSV,3,1,10,78,56,049,19,80,11,195,18,79,64,158,14,69,47,336,16*6B
$GLGSV,3,2,10,84,11,264,10,85,09,313,21,67,09,111,13,68,54,074,29*62
$GLGSV,3,3,10,70,00,000,,77,05,025,*61
$GPGSV,3,1,12,01,34,217,30,03,70,316,22,09,09,274,13,11,10,209,24*76
$GPGSV,3,2,12,14,23,067,21,16,18,142,24,22,86,199,20,23,42,289,21*78
$GPGSV,3,3,12,26,31,111,22,31,38,045,19,25,00,000,,32,00,000,*7B
$GLGSV,3,1,10,78,56,049,19,80,11,195,18,79,64,158,14,69,47,336,16*6B
$GLGSV,3,2,10,84,11,264,10,85,09,313,21,67,09,111,13,68,54,074,29*62
$GLGSV,3,3,10,70,00,000,,77,05,025,*61
$GPGSA,A,3,01,03,09,11,14,16,22,23,26,31,,,1.1,0.8,0.7*33
$GPVTG,344.6,T,344.6,M,2.4,N,4.5,K,A*24
$GPRMC,002236,A,3720.273167,N,12155.160840,W,2.4,344.6,011216,0.0,E,A*03
$GPGGA,002236,3720.273167,N,12155.160840,W,1,10,0.8,10.0,M,-27.0,M,,*4C
$GPGSV,3,1,12,01,34,217,29,03,70,316,21,09,09,274,13,11,10,209,25*7C
$GPGSV,3,2,12,14,23,067,19,16,18,142,22,22,86,199,18,23,42,289,18*74
$GPGSV,3,3,12,26,31,111,22,31,38,045,20,25,00,000,,32,00,000,*71
$GLGSV,3,1,10,78,56,049,21,80,11,195,20,79,64,158,14,69,47,336,16*6B
$GLGSV,3,2,10,84,11,264,10,85,09,313,21,67,09,111,13,68,54,074,29*62
$GLGSV,3,3,10,70,00,000,,77,05,025,*61
$GPGSV,3,1,12,01,34,217,29,03,70,316,21,09,09,274,13,11,10,209,25*7C
$GPGSV,3,2,12,14,23,067,19,16,18,142,22,22,86,199,18,23,42,289,18*74
$GPGSV,3,3,12,26,31,111,22,31,38,045,20,25,00,000,,32,00,000,*71
$GLGSV,3,1,10,78,56,049,21,80,11,195,20,79,64,158,14,69,47,336,16*6B
$GLGSV,3,2,10,84,11,264,10,85,09,313,21,67,09,111,13,68,54,074,29*62
$GLGSV,3,3,10,70,00,000,,77,05,025,*61
$GPGSA,A,3,01,03,09,11,14,16,22,23,26,31,,,1.1,0.8,0.7*33
$GPVTG,2.4,T,2.4,M,2.9,N,5.4,K,A*29
$GPRMC,002237,A,3720.274525,N,12155.159903,W,2.9,2.4,011216,0.0,E,A*05
$GPGGA,002237,3720.274525,N,12155.159903,W,1,10,0.8,12.0,M,-27.0,M,,*46
$GPGSV,3,1,12,01,34,217,30,03,70,316,18,09,09,274,13,11,10,209,23*78
$GPGSV,3,2,12,14,23,067,21,16,18,142,22,22,86,199,17,23,42,289,17*7F
$GPGSV,3,3,12,26,31,111,21,31,38,045,22,25,00,000,,32,00,000,*70
$GLGSV,3,1,10,78,56,049,19,80,11,195,20,79,64,158,14,69,47,336,16*60
$GLGSV,3,2,10,84,11,264,10,85,09,313,21,67,09,111,13,68,54,074,29*62
$GLGSV,3,3,10,70,00,000,,77,05,025,*61
$GPGSV,3,1,12,01,34,217,30,03,70,316,18,09,09,274,13,11,10,209,23*78
$GPGSV,3,2,12,14,23,067,21,16,18,142,22,22,86,199,17,23,42,289,17*7F
$GPGSV,3,3,12,26,31,111,21,31,38,045,22,25,00,000,,32,00,000,*70
$GLGSV,3,1,10,78,56,049,19,80,11,195,20,79,64,158,14,69,47,336,16*60
$GLGSV,3,2,10,84,11,264,10,85,09,313,21,67,09,111,13,68,54,074,29*62
$GLGSV,3,3,10,70,00,000,,77,05,025,*61
$GPGSA,A,3,01,03,09,11,14,16,22,23,26,31,,,1.1,0.8,0.8*3C
$GPVTG,349.7,T,349.7,M,2.9,N,5.4,K,A*29
$GPRMC,002238,A,3720.274555,N,12155.160768,W,2.9,349.7,011216,0.0,E,A*0B
$GPGGA,002238,3720.274555,N,12155.160768,W,1,10,0.8,12.0,M,-27.0,M,,*47
$GPGSV,3,1,12,01,34,217,30,03,70,316,19,09,09,274,13,11,10,209,22*78
$GPGSV,3,2,12,14,23,067,21,16,18,142,21,22,86,199,18,23,42,289,17*73
$GPGSV,3,3,12,26,31,111,21,31,38,045,19,25,00,000,,32,00,000,*78
$GLGSV,3,1,10,78,56,049,22,80,11,195,17,79,64,158,14,69,47,336,16*6C
$GLGSV,3,2,10,84,11,264,10,85,09,313,21,67,09,111,13,68,54,074,29*62
$GLGSV,3,3,10,70,00,000,,77,05,025,*61
$GPGSV,3,1,12,01,34,217,30,03,70,316,19,09,09,274,13,11,10,209,22*78
